{
  "country_code": "AI",
  "country_name": "安圭拉",
  "cities": [
    {
      "name": "瓦利",
      "name_en": "The Valley",
      "province": "The Valley",
      "latitude": 18.217,
      "longitude": -63.0578,
      "timezone": "America/Anguilla"
    },
    {
      "name": "",
      "name_en": "Blowing Point Village",
      "province": "Blowing Point",
      "latitude": 18.1765,
      "longitude": -63.0938,
      "timezone": "America/Anguilla"
    },
    {
      "name": "",
      "name_en": "Sandy Hill",
      "province": "Sandy Hill",
      "latitude": 18.221,
      "longitude": -63.0133,
      "timezone": "America/Anguilla"
    },
    {
      "name": "",
      "name_en": "East End Village",
      "province": "East End",
      "latitude": 18.2333,
      "longitude": -63.0,
      "timezone": "America/Anguilla"
    },
    {
      "name": "",
      "name_en": "Sandy Ground Village",
      "province": "Sandy Ground",
      "latitude": 18.2012,
      "longitude": -63.09,
      "timezone": "America/Anguilla"
    },
    {
      "name": "",
      "name_en": "Farrington",
      "province": "The Farrington",
      "latitude": 18.215,
      "longitude": -63.0224,
      "timezone": "America/Anguilla"
    },
    {
      "name": "",
      "name_en": "George Hill",
      "province": "George Hill",
      "latitude": 18.1994,
      "longitude": -63.0665,
      "timezone": "America/Anguilla"
    },
    {
      "name": "",
      "name_en": "Island Harbour",
      "province": "Island Harbour",
      "latitude": 18.256,
      "longitude": -63.0102,
      "timezone": "America/Anguilla"
    },
    {
      "name": "",
      "name_en": "North Hill Village",
      "province": "North Hill",
      "latitude": 18.2054,
      "longitude": -63.0785,
      "timezone": "America/Anguilla"
    },
    {
      "name": "",
      "name_en": "North Side",
      "province": "North Side",
      "latitude": 18.2292,
      "longitude": -63.044,
      "timezone": "America/Anguilla"
    },
    {
      "name": "",
      "name_en": "South Hill Village",
      "province": "South Hill",
      "latitude": 18.192,
      "longitude": -63.0878,
      "timezone": "America/Anguilla"
    },
    {
      "name": "",
      "name_en": "Stoney Ground",
      "province": "Stoney Ground",
      "latitude": 18.2203,
      "longitude": -63.0461,
      "timezone": "America/Anguilla"
    },
    {
      "name": "",
      "name_en": "The Quarter",
      "province": "The Quarter",
      "latitude": 18.208,
      "longitude": -63.0418,
      "timezone": "America/Anguilla"
    },
    {
      "name": "",
      "name_en": "West End Village",
      "province": "West End",
      "latitude": 18.1719,
      "longitude": -63.1494,
      "timezone": "America/Anguilla"
    }
  ]
}
