{
  "country_code": "PH",
  "country_name": "菲律宾",
  "cities": [
    {
      "name": "奎松市",
      "name_en": "Quezon City",
      "province": "National Capital Region",
      "latitude": 14.6488,
      "longitude": 121.0509,
      "timezone": "Asia/Manila"
    },
    {
      "name": "达沃市",
      "name_en": "Davao",
      "province": "达沃区",
      "latitude": 7.0731,
      "longitude": 125.6128,
      "timezone": "Asia/Manila"
    },
    {
      "name": "加洛坎",
      "name_en": "Caloocan",
      "province": "National Capital Region",
      "latitude": 14.6495,
      "longitude": 120.9679,
      "timezone": "Asia/Manila"
    },
    {
      "name": "马尼拉",
      "name_en": "Manila",
      "province": "National Capital Region",
      "latitude": 14.6042,
      "longitude": 120.9822,
      "timezone": "Asia/Manila"
    },
    {
      "name": "",
      "name_en": "Taguig",
      "province": "National Capital Region",
      "latitude": 14.5243,
      "longitude": 121.0792,
      "timezone": "Asia/Manila"
    },
    {
      "name": "",
      "name_en": "Budta",
      "province": "棉兰老穆斯林自治区",
      "latitude": 7.2042,
      "longitude": 124.4397,
      "timezone": "Asia/Manila"
    },
    {
      "name": "",
      "name_en": "Malingao",
      "province": "索科斯克萨尔根",
      "latitude": 7.1608,
      "longitude": 124.475,
      "timezone": "Asia/Manila"
    },
    {
      "name": "三宝颜",
      "name_en": "Zamboanga",
      "province": "三宝颜半岛",
      "latitude": 6.9103,
      "longitude": 122.0739,
      "timezone": "Asia/Manila"
    },
    {
      "name": "",
      "name_en": "Cebu City",
      "province": "中米沙鄢",
      "latitude": 10.3167,
      "longitude": 123.8907,
      "timezone": "Asia/Manila"
    },
    {
      "name": "",
      "name_en": "Antipolo",
      "province": "卡拉巴松",
      "latitude": 14.6258,
      "longitude": 121.1225,
      "timezone": "Asia/Manila"
    },
    {
      "name": "",
      "name_en": "Pasig City",
      "province": "National Capital Region",
      "latitude": 14.5869,
      "longitude": 121.0614,
      "timezone": "Asia/Manila"
    },
    {
      "name": "卡加延德奥罗",
      "name_en": "Cagayan de Oro",
      "province": "北棉兰老",
      "latitude": 8.4822,
      "longitude": 124.6472,
      "timezone": "Asia/Manila"
    },
    {
      "name": "",
      "name_en": "Valenzuela",
      "province": "National Capital Region",
      "latitude": 14.7,
      "longitude": 120.9667,
      "timezone": "Asia/Manila"
    },
    {
      "name": "三投斯将军市",
      "name_en": "General Santos",
      "province": "索科斯克萨尔根",
      "latitude": 6.1128,
      "longitude": 125.1717,
      "timezone": "Asia/Manila"
    },
    {
      "name": "",
      "name_en": "Paranaque City",
      "province": "National Capital Region",
      "latitude": 14.4816,
      "longitude": 121.0175,
      "timezone": "Asia/Manila"
    },
    {
      "name": "",
      "name_en": "Las Piñas",
      "province": "National Capital Region",
      "latitude": 14.4506,
      "longitude": 120.9828,
      "timezone": "Asia/Manila"
    },
    {
      "name": "卡兰巴",
      "name_en": "Calamba",
      "province": "卡拉巴松",
      "latitude": 14.2117,
      "longitude": 121.1653,
      "timezone": "Asia/Manila"
    },
    {
      "name": "",
      "name_en": "Makati City",
      "province": "National Capital Region",
      "latitude": 14.5503,
      "longitude": 121.0327,
      "timezone": "Asia/Manila"
    },
    {
      "name": "拉普拉普市",
      "name_en": "Lapu-Lapu City",
      "province": "中米沙鄢",
      "latitude": 10.3103,
      "longitude": 123.9494,
      "timezone": "Asia/Manila"
    },
    {
      "name": "",
      "name_en": "Angeles City",
      "province": "中央吕宋",
      "latitude": 15.15,
      "longitude": 120.5833,
      "timezone": "Asia/Manila"
    },
    {
      "name": "",
      "name_en": "Imus",
      "province": "卡拉巴松",
      "latitude": 14.4297,
      "longitude": 120.9367,
      "timezone": "Asia/Manila"
    },
    {
      "name": "",
      "name_en": "Iloilo",
      "province": "西米沙鄢",
      "latitude": 10.6969,
      "longitude": 122.5644,
      "timezone": "Asia/Manila"
    },
    {
      "name": "",
      "name_en": "Marikina City",
      "province": "National Capital Region",
      "latitude": 14.6481,
      "longitude": 121.1133,
      "timezone": "Asia/Manila"
    },
    {
      "name": "曼达卢永市",
      "name_en": "Mandaluyong City",
      "province": "National Capital Region",
      "latitude": 14.5832,
      "longitude": 121.0409,
      "timezone": "Asia/Manila"
    },
    {
      "name": "",
      "name_en": "Bacolod City",
      "province": "西米沙鄢",
      "latitude": 10.6667,
      "longitude": 122.95,
      "timezone": "Asia/Manila"
    },
    {
      "name": "",
      "name_en": "Mansilingan",
      "province": "西米沙鄢",
      "latitude": 10.6311,
      "longitude": 122.9789,
      "timezone": "Asia/Manila"
    },
    {
      "name": "达斯马里尼亚斯",
      "name_en": "Dasmariñas",
      "province": "卡拉巴松",
      "latitude": 14.3294,
      "longitude": 120.9367,
      "timezone": "Asia/Manila"
    },
    {
      "name": "",
      "name_en": "Mandaluyong",
      "province": "National Capital Region",
      "latitude": 14.5832,
      "longitude": 121.0409,
      "timezone": "Asia/Manila"
    },
    {
      "name": "",
      "name_en": "Pasay",
      "province": "National Capital Region",
      "latitude": 14.5375,
      "longitude": 121.0014,
      "timezone": "Asia/Manila"
    },
    {
      "name": "",
      "name_en": "Tarlac City",
      "province": "中央吕宋",
      "latitude": 15.4802,
      "longitude": 120.5979,
      "timezone": "Asia/Manila"
    },
    {
      "name": "",
      "name_en": "Cotabato",
      "province": "棉兰老穆斯林自治区",
      "latitude": 7.2236,
      "longitude": 124.2464,
      "timezone": "Asia/Manila"
    },
    {
      "name": "",
      "name_en": "Malabon",
      "province": "National Capital Region",
      "latitude": 14.6733,
      "longitude": 120.9397,
      "timezone": "Asia/Manila"
    },
    {
      "name": "",
      "name_en": "San Jose del Monte",
      "province": "中央吕宋",
      "latitude": 14.8139,
      "longitude": 121.0453,
      "timezone": "Asia/Manila"
    },
    {
      "name": "",
      "name_en": "Bacoor",
      "province": "卡拉巴松",
      "latitude": 14.459,
      "longitude": 120.9385,
      "timezone": "Asia/Manila"
    },
    {
      "name": "",
      "name_en": "San Pedro",
      "province": "卡拉巴松",
      "latitude": 14.3595,
      "longitude": 121.0473,
      "timezone": "Asia/Manila"
    },
    {
      "name": "",
      "name_en": "Cabanatuan City",
      "province": "中央吕宋",
      "latitude": 15.4859,
      "longitude": 120.9665,
      "timezone": "Asia/Manila"
    },
    {
      "name": "伊利甘",
      "name_en": "Iligan",
      "province": "北棉兰老",
      "latitude": 8.2289,
      "longitude": 124.2434,
      "timezone": "Asia/Manila"
    },
    {
      "name": "",
      "name_en": "Mandaue City",
      "province": "中米沙鄢",
      "latitude": 10.3236,
      "longitude": 123.9222,
      "timezone": "Asia/Manila"
    },
    {
      "name": "",
      "name_en": "Iligan City",
      "province": "索科斯克萨尔根",
      "latitude": 8.2289,
      "longitude": 124.2434,
      "timezone": "Asia/Manila"
    },
    {
      "name": "武端市",
      "name_en": "Butuan",
      "province": "卡拉加区",
      "latitude": 8.9492,
      "longitude": 125.5436,
      "timezone": "Asia/Manila"
    },
    {
      "name": "卡布尧",
      "name_en": "Cabuyao",
      "province": "卡拉巴松",
      "latitude": 14.2726,
      "longitude": 121.1262,
      "timezone": "Asia/Manila"
    },
    {
      "name": "圣巴勃罗",
      "name_en": "San Pablo",
      "province": "卡拉巴松",
      "latitude": 14.0683,
      "longitude": 121.3256,
      "timezone": "Asia/Manila"
    },
    {
      "name": "",
      "name_en": "Biñan",
      "province": "卡拉巴松",
      "latitude": 14.3427,
      "longitude": 121.0807,
      "timezone": "Asia/Manila"
    },
    {
      "name": "",
      "name_en": "Santol",
      "province": "中央吕宋",
      "latitude": 15.1622,
      "longitude": 120.5675,
      "timezone": "Asia/Manila"
    },
    {
      "name": "",
      "name_en": "Cainta",
      "province": "卡拉巴松",
      "latitude": 14.5786,
      "longitude": 121.1222,
      "timezone": "Asia/Manila"
    },
    {
      "name": "碧瑶市",
      "name_en": "Baguio",
      "province": "科迪勒拉行政区",
      "latitude": 16.4164,
      "longitude": 120.5931,
      "timezone": "Asia/Manila"
    },
    {
      "name": "",
      "name_en": "Malolos",
      "province": "中央吕宋",
      "latitude": 14.8443,
      "longitude": 120.8104,
      "timezone": "Asia/Manila"
    },
    {
      "name": "",
      "name_en": "Mantampay",
      "province": "北棉兰老",
      "latitude": 8.1667,
      "longitude": 124.2167,
      "timezone": "Asia/Manila"
    },
    {
      "name": "",
      "name_en": "Bagong Silang",
      "province": "National Capital Region",
      "latitude": 14.7783,
      "longitude": 121.0449,
      "timezone": "Asia/Manila"
    },
    {
      "name": "",
      "name_en": "Marawi City",
      "province": "棉兰老穆斯林自治区",
      "latitude": 8.0034,
      "longitude": 124.284,
      "timezone": "Asia/Manila"
    },
    {
      "name": "独鲁万市",
      "name_en": "Tacloban",
      "province": "东米沙鄢",
      "latitude": 11.2433,
      "longitude": 125.0047,
      "timezone": "Asia/Manila"
    },
    {
      "name": "圣费尔南多",
      "name_en": "San Fernando",
      "province": "中央吕宋",
      "latitude": 15.0343,
      "longitude": 120.6844,
      "timezone": "Asia/Manila"
    },
    {
      "name": "",
      "name_en": "Libertad",
      "province": "卡拉加区",
      "latitude": 8.9442,
      "longitude": 125.5019,
      "timezone": "Asia/Manila"
    },
    {
      "name": "",
      "name_en": "Navotas",
      "province": "National Capital Region",
      "latitude": 14.6667,
      "longitude": 120.95,
      "timezone": "Asia/Manila"
    },
    {
      "name": "",
      "name_en": "Ormoc",
      "province": "东米沙鄢",
      "latitude": 11.0064,
      "longitude": 124.6075,
      "timezone": "Asia/Manila"
    },
    {
      "name": "",
      "name_en": "Batangas",
      "province": "卡拉巴松",
      "latitude": 13.7567,
      "longitude": 121.0584,
      "timezone": "Asia/Manila"
    },
    {
      "name": "塔古姆",
      "name_en": "Magugpo Poblacion",
      "province": "达沃区",
      "latitude": 7.4475,
      "longitude": 125.8046,
      "timezone": "Asia/Manila"
    },
    {
      "name": "",
      "name_en": "Taytay",
      "province": "卡拉巴松",
      "latitude": 14.5588,
      "longitude": 121.1329,
      "timezone": "Asia/Manila"
    },
    {
      "name": "卢塞纳",
      "name_en": "Lucena",
      "province": "卡拉巴松",
      "latitude": 13.9314,
      "longitude": 121.6172,
      "timezone": "Asia/Manila"
    },
    {
      "name": "",
      "name_en": "Meycauayan",
      "province": "中央吕宋",
      "latitude": 14.7369,
      "longitude": 120.9608,
      "timezone": "Asia/Manila"
    },
    {
      "name": "巴伦西亚城",
      "name_en": "NIA Valencia",
      "province": "北棉兰老",
      "latitude": 7.9064,
      "longitude": 125.0942,
      "timezone": "Asia/Manila"
    },
    {
      "name": "普林塞萨港",
      "name_en": "Puerto Princesa",
      "province": "民马罗巴区",
      "latitude": 9.7392,
      "longitude": 118.7353,
      "timezone": "Asia/Manila"
    },
    {
      "name": "奥隆阿波",
      "name_en": "Olongapo",
      "province": "中央吕宋",
      "latitude": 14.8292,
      "longitude": 120.2828,
      "timezone": "Asia/Manila"
    },
    {
      "name": "",
      "name_en": "Binangonan",
      "province": "卡拉巴松",
      "latitude": 14.4646,
      "longitude": 121.1929,
      "timezone": "Asia/Manila"
    },
    {
      "name": "",
      "name_en": "Santa Rosa",
      "province": "卡拉巴松",
      "latitude": 14.3122,
      "longitude": 121.1114,
      "timezone": "Asia/Manila"
    },
    {
      "name": "",
      "name_en": "Commonwealth",
      "province": "National Capital Region",
      "latitude": 14.6969,
      "longitude": 121.0801,
      "timezone": "Asia/Manila"
    },
    {
      "name": "",
      "name_en": "Lipa City",
      "province": "卡拉巴松",
      "latitude": 13.9411,
      "longitude": 121.1631,
      "timezone": "Asia/Manila"
    },
    {
      "name": "巴拿波",
      "name_en": "Panabo",
      "province": "达沃区",
      "latitude": 7.3081,
      "longitude": 125.6842,
      "timezone": "Asia/Manila"
    },
    {
      "name": "",
      "name_en": "Kabankalan",
      "province": "西米沙鄢",
      "latitude": 9.9839,
      "longitude": 122.8142,
      "timezone": "Asia/Manila"
    },
    {
      "name": "",
      "name_en": "Toledo",
      "province": "中米沙鄢",
      "latitude": 10.3773,
      "longitude": 123.6386,
      "timezone": "Asia/Manila"
    },
    {
      "name": "",
      "name_en": "Pagadian",
      "province": "三宝颜半岛",
      "latitude": 7.8257,
      "longitude": 123.437,
      "timezone": "Asia/Manila"
    },
    {
      "name": "科罗纳达尔",
      "name_en": "Koronadal",
      "province": "索科斯克萨尔根",
      "latitude": 6.5031,
      "longitude": 124.8469,
      "timezone": "Asia/Manila"
    },
    {
      "name": "巴哥",
      "name_en": "Bago City",
      "province": "西米沙鄢",
      "latitude": 10.5333,
      "longitude": 122.8333,
      "timezone": "Asia/Manila"
    },
    {
      "name": "",
      "name_en": "Panalanoy",
      "province": "东米沙鄢",
      "latitude": 11.2511,
      "longitude": 125.0064,
      "timezone": "Asia/Manila"
    },
    {
      "name": "",
      "name_en": "Mabalacat City",
      "province": "中央吕宋",
      "latitude": 15.223,
      "longitude": 120.5712,
      "timezone": "Asia/Manila"
    },
    {
      "name": "",
      "name_en": "Sorsogon",
      "province": "比科尔",
      "latitude": 12.9739,
      "longitude": 123.9933,
      "timezone": "Asia/Manila"
    },
    {
      "name": "",
      "name_en": "Roxas City",
      "province": "西米沙鄢",
      "latitude": 11.5853,
      "longitude": 122.7511,
      "timezone": "Asia/Manila"
    },
    {
      "name": "",
      "name_en": "Legaspi",
      "province": "比科尔",
      "latitude": 13.1412,
      "longitude": 123.7407,
      "timezone": "Asia/Manila"
    },
    {
      "name": "",
      "name_en": "Concepcion",
      "province": "中央吕宋",
      "latitude": 15.3255,
      "longitude": 120.6572,
      "timezone": "Asia/Manila"
    },
    {
      "name": "",
      "name_en": "Naga",
      "province": "比科尔",
      "latitude": 13.6192,
      "longitude": 123.1814,
      "timezone": "Asia/Manila"
    },
    {
      "name": "",
      "name_en": "Dagupan",
      "province": "伊罗戈",
      "latitude": 16.0431,
      "longitude": 120.3333,
      "timezone": "Asia/Manila"
    },
    {
      "name": "",
      "name_en": "Tuguegarao",
      "province": "卡加延河谷",
      "latitude": 17.6158,
      "longitude": 121.7228,
      "timezone": "Asia/Manila"
    },
    {
      "name": "",
      "name_en": "Ilagan",
      "province": "卡加延河谷",
      "latitude": 17.1485,
      "longitude": 121.8892,
      "timezone": "Asia/Manila"
    },
    {
      "name": "",
      "name_en": "Pandi",
      "province": "中央吕宋",
      "latitude": 14.865,
      "longitude": 120.9572,
      "timezone": "Asia/Manila"
    },
    {
      "name": "",
      "name_en": "Capas",
      "province": "中央吕宋",
      "latitude": 15.3312,
      "longitude": 120.5898,
      "timezone": "Asia/Manila"
    },
    {
      "name": "",
      "name_en": "Mariveles",
      "province": "中央吕宋",
      "latitude": 14.4338,
      "longitude": 120.4857,
      "timezone": "Asia/Manila"
    },
    {
      "name": "",
      "name_en": "Guyong",
      "province": "中央吕宋",
      "latitude": 14.8361,
      "longitude": 120.9784,
      "timezone": "Asia/Manila"
    },
    {
      "name": "",
      "name_en": "Urdaneta",
      "province": "伊罗戈",
      "latitude": 15.9761,
      "longitude": 120.5711,
      "timezone": "Asia/Manila"
    },
    {
      "name": "",
      "name_en": "San Jose",
      "province": "民马罗巴区",
      "latitude": 12.3528,
      "longitude": 121.0676,
      "timezone": "Asia/Manila"
    },
    {
      "name": "",
      "name_en": "La Trinidad",
      "province": "科迪勒拉行政区",
      "latitude": 16.455,
      "longitude": 120.5875,
      "timezone": "Asia/Manila"
    },
    {
      "name": "",
      "name_en": "Norzagaray",
      "province": "中央吕宋",
      "latitude": 14.9109,
      "longitude": 121.0493,
      "timezone": "Asia/Manila"
    },
    {
      "name": "",
      "name_en": "Gingoog",
      "province": "北棉兰老",
      "latitude": 8.8278,
      "longitude": 125.0997,
      "timezone": "Asia/Manila"
    },
    {
      "name": "",
      "name_en": "Naga",
      "province": "中米沙鄢",
      "latitude": 13.6192,
      "longitude": 123.1814,
      "timezone": "Asia/Manila"
    },
    {
      "name": "",
      "name_en": "Candelaria",
      "province": "卡拉巴松",
      "latitude": 13.9311,
      "longitude": 121.4233,
      "timezone": "Asia/Manila"
    },
    {
      "name": "",
      "name_en": "Baliuag",
      "province": "中央吕宋",
      "latitude": 14.9547,
      "longitude": 120.8969,
      "timezone": "Asia/Manila"
    },
    {
      "name": "",
      "name_en": "Angono",
      "province": "卡拉巴松",
      "latitude": 14.5266,
      "longitude": 121.1536,
      "timezone": "Asia/Manila"
    },
    {
      "name": "罗德里格斯",
      "name_en": "Rodriguez",
      "province": "卡拉巴松",
      "latitude": 14.7601,
      "longitude": 121.1999,
      "timezone": "Asia/Manila"
    },
    {
      "name": "",
      "name_en": "San Mateo",
      "province": "卡拉巴松",
      "latitude": 14.6982,
      "longitude": 121.1236,
      "timezone": "Asia/Manila"
    },
    {
      "name": "",
      "name_en": "San Juan",
      "province": "National Capital Region",
      "latitude": 14.6,
      "longitude": 121.0333,
      "timezone": "Asia/Manila"
    },
    {
      "name": "",
      "name_en": "Talisay",
      "province": "中米沙鄢",
      "latitude": 10.2447,
      "longitude": 123.8494,
      "timezone": "Asia/Manila"
    },
    {
      "name": "",
      "name_en": "Muricay",
      "province": "三宝颜半岛",
      "latitude": 7.8275,
      "longitude": 123.4782,
      "timezone": "Asia/Manila"
    },
    {
      "name": "",
      "name_en": "Bulaon",
      "province": "中央吕宋",
      "latitude": 15.0826,
      "longitude": 120.6629,
      "timezone": "Asia/Manila"
    },
    {
      "name": "",
      "name_en": "Gapan",
      "province": "中央吕宋",
      "latitude": 15.3072,
      "longitude": 120.9464,
      "timezone": "Asia/Manila"
    },
    {
      "name": "",
      "name_en": "Bayambang",
      "province": "伊罗戈",
      "latitude": 15.8127,
      "longitude": 120.4557,
      "timezone": "Asia/Manila"
    },
    {
      "name": "",
      "name_en": "Cadiz",
      "province": "西米沙鄢",
      "latitude": 10.9465,
      "longitude": 123.288,
      "timezone": "Asia/Manila"
    },
    {
      "name": "",
      "name_en": "Rosario",
      "province": "卡拉巴松",
      "latitude": 13.6323,
      "longitude": 121.2207,
      "timezone": "Asia/Manila"
    },
    {
      "name": "",
      "name_en": "Pulong Santa Cruz",
      "province": "卡拉巴松",
      "latitude": 14.2732,
      "longitude": 121.0764,
      "timezone": "Asia/Manila"
    },
    {
      "name": "巴湾湾",
      "name_en": "Bayawan",
      "province": "中米沙鄢",
      "latitude": 9.3649,
      "longitude": 122.804,
      "timezone": "Asia/Manila"
    },
    {
      "name": "圣克鲁斯区",
      "name_en": "Santa Cruz",
      "province": "National Capital Region",
      "latitude": 14.2732,
      "longitude": 121.0764,
      "timezone": "Asia/Manila"
    },
    {
      "name": "",
      "name_en": "Sultan Kudarat",
      "province": "棉兰老穆斯林自治区",
      "latitude": 7.2289,
      "longitude": 124.2578,
      "timezone": "Asia/Manila"
    },
    {
      "name": "",
      "name_en": "Hagonoy",
      "province": "中央吕宋",
      "latitude": 14.8341,
      "longitude": 120.7327,
      "timezone": "Asia/Manila"
    },
    {
      "name": "",
      "name_en": "Tabuk",
      "province": "科迪勒拉行政区",
      "latitude": 17.4738,
      "longitude": 121.468,
      "timezone": "Asia/Manila"
    },
    {
      "name": "",
      "name_en": "Tabuk",
      "province": "科迪勒拉行政区",
      "latitude": 17.4738,
      "longitude": 121.468,
      "timezone": "Asia/Manila"
    },
    {
      "name": "",
      "name_en": "Calumpit",
      "province": "中央吕宋",
      "latitude": 14.9164,
      "longitude": 120.7658,
      "timezone": "Asia/Manila"
    },
    {
      "name": "",
      "name_en": "Apalit",
      "province": "中央吕宋",
      "latitude": 14.9533,
      "longitude": 120.77,
      "timezone": "Asia/Manila"
    },
    {
      "name": "",
      "name_en": "Plaridel",
      "province": "中央吕宋",
      "latitude": 14.8872,
      "longitude": 120.8572,
      "timezone": "Asia/Manila"
    },
    {
      "name": "",
      "name_en": "Silang",
      "province": "卡拉巴松",
      "latitude": 14.2157,
      "longitude": 120.9714,
      "timezone": "Asia/Manila"
    },
    {
      "name": "",
      "name_en": "Malita",
      "province": "达沃区",
      "latitude": 6.415,
      "longitude": 125.6117,
      "timezone": "Asia/Manila"
    },
    {
      "name": "",
      "name_en": "Guiguinto",
      "province": "中央吕宋",
      "latitude": 14.8333,
      "longitude": 120.8833,
      "timezone": "Asia/Manila"
    },
    {
      "name": "",
      "name_en": "Manolo Fortich",
      "province": "北棉兰老",
      "latitude": 8.3697,
      "longitude": 124.8644,
      "timezone": "Asia/Manila"
    },
    {
      "name": "",
      "name_en": "Midsayap",
      "province": "索科斯克萨尔根",
      "latitude": 7.1908,
      "longitude": 124.5303,
      "timezone": "Asia/Manila"
    },
    {
      "name": "",
      "name_en": "Himamaylan",
      "province": "西米沙鄢",
      "latitude": 10.0989,
      "longitude": 122.8706,
      "timezone": "Asia/Manila"
    },
    {
      "name": "",
      "name_en": "Los Baños",
      "province": "卡拉巴松",
      "latitude": 14.1702,
      "longitude": 121.2418,
      "timezone": "Asia/Manila"
    },
    {
      "name": "",
      "name_en": "Tacurong",
      "province": "索科斯克萨尔根",
      "latitude": 6.6925,
      "longitude": 124.6764,
      "timezone": "Asia/Manila"
    },
    {
      "name": "",
      "name_en": "Dinaig",
      "province": "棉兰老穆斯林自治区",
      "latitude": 7.1699,
      "longitude": 124.2084,
      "timezone": "Asia/Manila"
    },
    {
      "name": "",
      "name_en": "Digos",
      "province": "达沃区",
      "latitude": 6.7497,
      "longitude": 125.3572,
      "timezone": "Asia/Manila"
    },
    {
      "name": "甲米地",
      "name_en": "Cavite City",
      "province": "卡拉巴松",
      "latitude": 14.4837,
      "longitude": 120.8988,
      "timezone": "Asia/Manila"
    },
    {
      "name": "",
      "name_en": "Tayabas",
      "province": "卡拉巴松",
      "latitude": 14.0259,
      "longitude": 121.5929,
      "timezone": "Asia/Manila"
    },
    {
      "name": "",
      "name_en": "Iriga City",
      "province": "比科尔",
      "latitude": 13.4324,
      "longitude": 123.4115,
      "timezone": "Asia/Manila"
    },
    {
      "name": "",
      "name_en": "Quezon",
      "province": "北棉兰老",
      "latitude": 14.6488,
      "longitude": 121.0509,
      "timezone": "Asia/Manila"
    },
    {
      "name": "朗芒芽地",
      "name_en": "Dumaguete",
      "province": "中米沙鄢",
      "latitude": 9.3065,
      "longitude": 123.3077,
      "timezone": "Asia/Manila"
    },
    {
      "name": "",
      "name_en": "Carmona",
      "province": "卡拉巴松",
      "latitude": 14.3132,
      "longitude": 121.0576,
      "timezone": "Asia/Manila"
    },
    {
      "name": "佬沃",
      "name_en": "Laoag",
      "province": "伊罗戈",
      "latitude": 18.1978,
      "longitude": 120.5957,
      "timezone": "Asia/Manila"
    },
    {
      "name": "",
      "name_en": "Pulilan",
      "province": "中央吕宋",
      "latitude": 14.9017,
      "longitude": 120.8492,
      "timezone": "Asia/Manila"
    },
    {
      "name": "",
      "name_en": "Bayugan",
      "province": "卡拉加区",
      "latitude": 8.7561,
      "longitude": 125.7675,
      "timezone": "Asia/Manila"
    },
    {
      "name": "",
      "name_en": "Maramag",
      "province": "北棉兰老",
      "latitude": 7.7633,
      "longitude": 125.0053,
      "timezone": "Asia/Manila"
    },
    {
      "name": "塔里萨伊",
      "name_en": "Talisay",
      "province": "西米沙鄢",
      "latitude": 10.2447,
      "longitude": 123.8494,
      "timezone": "Asia/Manila"
    },
    {
      "name": "",
      "name_en": "Santiago",
      "province": "卡加延河谷",
      "latitude": 16.6881,
      "longitude": 121.5487,
      "timezone": "Asia/Manila"
    },
    {
      "name": "",
      "name_en": "Santa Cruz",
      "province": "卡拉巴松",
      "latitude": 14.2732,
      "longitude": 121.0764,
      "timezone": "Asia/Manila"
    },
    {
      "name": "",
      "name_en": "Catbalogan",
      "province": "东米沙鄢",
      "latitude": 11.7753,
      "longitude": 124.8861,
      "timezone": "Asia/Manila"
    },
    {
      "name": "",
      "name_en": "Bagong Silangan",
      "province": "National Capital Region",
      "latitude": 14.706,
      "longitude": 121.108,
      "timezone": "Asia/Manila"
    },
    {
      "name": "",
      "name_en": "Paniqui",
      "province": "中央吕宋",
      "latitude": 15.6689,
      "longitude": 120.5806,
      "timezone": "Asia/Manila"
    },
    {
      "name": "马蒂",
      "name_en": "Mati",
      "province": "达沃区",
      "latitude": 6.9551,
      "longitude": 126.2165,
      "timezone": "Asia/Manila"
    },
    {
      "name": "",
      "name_en": "Tanza",
      "province": "National Capital Region",
      "latitude": 14.6753,
      "longitude": 120.9389,
      "timezone": "Asia/Manila"
    },
    {
      "name": "",
      "name_en": "Isulan",
      "province": "索科斯克萨尔根",
      "latitude": 6.6294,
      "longitude": 124.605,
      "timezone": "Asia/Manila"
    },
    {
      "name": "",
      "name_en": "Jolo",
      "province": "棉兰老穆斯林自治区",
      "latitude": 6.0522,
      "longitude": 121.0022,
      "timezone": "Asia/Manila"
    },
    {
      "name": "",
      "name_en": "Calasiao",
      "province": "伊罗戈",
      "latitude": 16.0111,
      "longitude": 120.36,
      "timezone": "Asia/Manila"
    },
    {
      "name": "比斯利格市",
      "name_en": "Bislig",
      "province": "卡拉加区",
      "latitude": 8.2153,
      "longitude": 126.3164,
      "timezone": "Asia/Manila"
    },
    {
      "name": "",
      "name_en": "Bocaue",
      "province": "中央吕宋",
      "latitude": 14.7983,
      "longitude": 120.9261,
      "timezone": "Asia/Manila"
    },
    {
      "name": "",
      "name_en": "Catarman",
      "province": "东米沙鄢",
      "latitude": 12.4989,
      "longitude": 124.6377,
      "timezone": "Asia/Manila"
    },
    {
      "name": "",
      "name_en": "Escalante",
      "province": "西米沙鄢",
      "latitude": 10.8403,
      "longitude": 123.4992,
      "timezone": "Asia/Manila"
    },
    {
      "name": "",
      "name_en": "Monkayo",
      "province": "达沃区",
      "latitude": 7.8153,
      "longitude": 126.0544,
      "timezone": "Asia/Manila"
    },
    {
      "name": "",
      "name_en": "General Trias",
      "province": "卡拉巴松",
      "latitude": 14.3869,
      "longitude": 120.8817,
      "timezone": "Asia/Manila"
    },
    {
      "name": "",
      "name_en": "Daanbantayan",
      "province": "中米沙鄢",
      "latitude": 11.2468,
      "longitude": 124.0146,
      "timezone": "Asia/Manila"
    },
    {
      "name": "",
      "name_en": "Dipolog",
      "province": "三宝颜半岛",
      "latitude": 8.567,
      "longitude": 123.3347,
      "timezone": "Asia/Manila"
    },
    {
      "name": "",
      "name_en": "Ozamiz City",
      "province": "北棉兰老",
      "latitude": 8.1481,
      "longitude": 123.8405,
      "timezone": "Asia/Manila"
    },
    {
      "name": "",
      "name_en": "Banco Filipino Homes",
      "province": "National Capital Region",
      "latitude": 14.4338,
      "longitude": 121.0223,
      "timezone": "Asia/Manila"
    },
    {
      "name": "",
      "name_en": "Surallah",
      "province": "索科斯克萨尔根",
      "latitude": 6.3753,
      "longitude": 124.7452,
      "timezone": "Asia/Manila"
    },
    {
      "name": "",
      "name_en": "Sablayan",
      "province": "民马罗巴区",
      "latitude": 12.8346,
      "longitude": 120.769,
      "timezone": "Asia/Manila"
    },
    {
      "name": "",
      "name_en": "Prosperidad",
      "province": "卡拉加区",
      "latitude": 8.58,
      "longitude": 125.8964,
      "timezone": "Asia/Manila"
    },
    {
      "name": "",
      "name_en": "Alabel",
      "province": "索科斯克萨尔根",
      "latitude": 6.1018,
      "longitude": 125.2905,
      "timezone": "Asia/Manila"
    },
    {
      "name": "",
      "name_en": "Calauan",
      "province": "卡拉巴松",
      "latitude": 14.1499,
      "longitude": 121.3152,
      "timezone": "Asia/Manila"
    },
    {
      "name": "",
      "name_en": "Polangui",
      "province": "比科尔",
      "latitude": 13.2923,
      "longitude": 123.4855,
      "timezone": "Asia/Manila"
    },
    {
      "name": "",
      "name_en": "Kalibo (poblacion)",
      "province": "西米沙鄢",
      "latitude": 11.7061,
      "longitude": 122.3644,
      "timezone": "Asia/Manila"
    },
    {
      "name": "",
      "name_en": "Calabanga",
      "province": "比科尔",
      "latitude": 13.7068,
      "longitude": 123.2087,
      "timezone": "Asia/Manila"
    },
    {
      "name": "",
      "name_en": "Mangaldan",
      "province": "伊罗戈",
      "latitude": 16.07,
      "longitude": 120.4025,
      "timezone": "Asia/Manila"
    },
    {
      "name": "拜斯",
      "name_en": "Bais",
      "province": "中米沙鄢",
      "latitude": 9.5911,
      "longitude": 123.1228,
      "timezone": "Asia/Manila"
    },
    {
      "name": "",
      "name_en": "Arayat",
      "province": "中央吕宋",
      "latitude": 15.1505,
      "longitude": 120.7697,
      "timezone": "Asia/Manila"
    },
    {
      "name": "苏里高",
      "name_en": "Surigao",
      "province": "卡拉加区",
      "latitude": 9.789,
      "longitude": 125.495,
      "timezone": "Asia/Manila"
    },
    {
      "name": "塔盖泰",
      "name_en": "Tagaytay",
      "province": "卡拉巴松",
      "latitude": 14.0953,
      "longitude": 120.9335,
      "timezone": "Asia/Manila"
    },
    {
      "name": "达皮丹",
      "name_en": "Dapitan",
      "province": "三宝颜半岛",
      "latitude": 8.6561,
      "longitude": 123.4227,
      "timezone": "Asia/Manila"
    },
    {
      "name": "",
      "name_en": "Maco",
      "province": "达沃区",
      "latitude": 7.3619,
      "longitude": 125.8553,
      "timezone": "Asia/Manila"
    },
    {
      "name": "",
      "name_en": "Bantayan",
      "province": "中米沙鄢",
      "latitude": 11.1683,
      "longitude": 123.7223,
      "timezone": "Asia/Manila"
    },
    {
      "name": "",
      "name_en": "Victorias",
      "province": "西米沙鄢",
      "latitude": 10.9015,
      "longitude": 123.0705,
      "timezone": "Asia/Manila"
    },
    {
      "name": "",
      "name_en": "Tagbilaran City",
      "province": "中米沙鄢",
      "latitude": 9.6556,
      "longitude": 123.8522,
      "timezone": "Asia/Manila"
    },
    {
      "name": "",
      "name_en": "Muñoz",
      "province": "中央吕宋",
      "latitude": 15.7161,
      "longitude": 120.9031,
      "timezone": "Asia/Manila"
    },
    {
      "name": "",
      "name_en": "Tanjay",
      "province": "中米沙鄢",
      "latitude": 9.5162,
      "longitude": 123.158,
      "timezone": "Asia/Manila"
    },
    {
      "name": "",
      "name_en": "Binonga",
      "province": "西米沙鄢",
      "latitude": 10.7719,
      "longitude": 122.9817,
      "timezone": "Asia/Manila"
    },
    {
      "name": "",
      "name_en": "Marilao",
      "province": "中央吕宋",
      "latitude": 14.7578,
      "longitude": 120.9483,
      "timezone": "Asia/Manila"
    },
    {
      "name": "",
      "name_en": "Bulacan",
      "province": "中央吕宋",
      "latitude": 14.7928,
      "longitude": 120.8789,
      "timezone": "Asia/Manila"
    },
    {
      "name": "圣费尔南多",
      "name_en": "San Fernando",
      "province": "伊罗戈",
      "latitude": 15.0343,
      "longitude": 120.6844,
      "timezone": "Asia/Manila"
    },
    {
      "name": "",
      "name_en": "Malapatan",
      "province": "索科斯克萨尔根",
      "latitude": 5.9692,
      "longitude": 125.2894,
      "timezone": "Asia/Manila"
    },
    {
      "name": "",
      "name_en": "Pagbilao",
      "province": "卡拉巴松",
      "latitude": 13.9669,
      "longitude": 121.6984,
      "timezone": "Asia/Manila"
    },
    {
      "name": "",
      "name_en": "Limay",
      "province": "中央吕宋",
      "latitude": 14.5619,
      "longitude": 120.5983,
      "timezone": "Asia/Manila"
    },
    {
      "name": "",
      "name_en": "Lambayong",
      "province": "索科斯克萨尔根",
      "latitude": 6.5194,
      "longitude": 125.0444,
      "timezone": "Asia/Manila"
    },
    {
      "name": "",
      "name_en": "Bustos",
      "province": "中央吕宋",
      "latitude": 14.9581,
      "longitude": 120.9178,
      "timezone": "Asia/Manila"
    },
    {
      "name": "",
      "name_en": "Paco",
      "province": "National Capital Region",
      "latitude": 14.588,
      "longitude": 120.993,
      "timezone": "Asia/Manila"
    },
    {
      "name": "",
      "name_en": "San Francisco",
      "province": "卡拉加区",
      "latitude": 8.5356,
      "longitude": 125.95,
      "timezone": "Asia/Manila"
    },
    {
      "name": "",
      "name_en": "Kidapawan",
      "province": "索科斯克萨尔根",
      "latitude": 7.0083,
      "longitude": 125.0894,
      "timezone": "Asia/Manila"
    },
    {
      "name": "",
      "name_en": "Tupi",
      "province": "索科斯克萨尔根",
      "latitude": 6.3344,
      "longitude": 124.9528,
      "timezone": "Asia/Manila"
    },
    {
      "name": "",
      "name_en": "Bamban",
      "province": "中央吕宋",
      "latitude": 15.2739,
      "longitude": 120.5668,
      "timezone": "Asia/Manila"
    },
    {
      "name": "",
      "name_en": "Daet",
      "province": "比科尔",
      "latitude": 14.1122,
      "longitude": 122.9553,
      "timezone": "Asia/Manila"
    },
    {
      "name": "",
      "name_en": "Bauang",
      "province": "伊罗戈",
      "latitude": 16.5308,
      "longitude": 120.3331,
      "timezone": "Asia/Manila"
    },
    {
      "name": "",
      "name_en": "Bagong Barrio",
      "province": "National Capital Region",
      "latitude": 14.6664,
      "longitude": 120.9932,
      "timezone": "Asia/Manila"
    },
    {
      "name": "",
      "name_en": "Brookes Point",
      "province": "民马罗巴区",
      "latitude": 8.772,
      "longitude": 117.8371,
      "timezone": "Asia/Manila"
    },
    {
      "name": "",
      "name_en": "Virac",
      "province": "比科尔",
      "latitude": 13.5848,
      "longitude": 124.2374,
      "timezone": "Asia/Manila"
    },
    {
      "name": "",
      "name_en": "Alicia",
      "province": "卡加延河谷",
      "latitude": 16.7794,
      "longitude": 121.6973,
      "timezone": "Asia/Manila"
    },
    {
      "name": "",
      "name_en": "Sipalay",
      "province": "西米沙鄢",
      "latitude": 9.7519,
      "longitude": 122.4042,
      "timezone": "Asia/Manila"
    },
    {
      "name": "",
      "name_en": "Don Carlos",
      "province": "北棉兰老",
      "latitude": 7.68,
      "longitude": 125.005,
      "timezone": "Asia/Manila"
    },
    {
      "name": "",
      "name_en": "Kawit",
      "province": "卡拉巴松",
      "latitude": 14.4443,
      "longitude": 120.9016,
      "timezone": "Asia/Manila"
    },
    {
      "name": "",
      "name_en": "Balanga",
      "province": "中央吕宋",
      "latitude": 14.6761,
      "longitude": 120.5361,
      "timezone": "Asia/Manila"
    },
    {
      "name": "",
      "name_en": "Port Area",
      "province": "National Capital Region",
      "latitude": 14.5894,
      "longitude": 120.967,
      "timezone": "Asia/Manila"
    },
    {
      "name": "",
      "name_en": "Sagay",
      "province": "西米沙鄢",
      "latitude": 10.9447,
      "longitude": 123.4242,
      "timezone": "Asia/Manila"
    },
    {
      "name": "",
      "name_en": "La Paz",
      "province": "中央吕宋",
      "latitude": 15.4413,
      "longitude": 120.7286,
      "timezone": "Asia/Manila"
    },
    {
      "name": "",
      "name_en": "Solana",
      "province": "卡加延河谷",
      "latitude": 17.6528,
      "longitude": 121.691,
      "timezone": "Asia/Manila"
    },
    {
      "name": "",
      "name_en": "Borongan",
      "province": "东米沙鄢",
      "latitude": 11.6081,
      "longitude": 125.4319,
      "timezone": "Asia/Manila"
    },
    {
      "name": "",
      "name_en": "Oroquieta",
      "province": "北棉兰老",
      "latitude": 8.4859,
      "longitude": 123.8048,
      "timezone": "Asia/Manila"
    },
    {
      "name": "",
      "name_en": "Buenavista",
      "province": "卡拉加区",
      "latitude": 8.9769,
      "longitude": 125.4089,
      "timezone": "Asia/Manila"
    },
    {
      "name": "",
      "name_en": "Mariano",
      "province": "北棉兰老",
      "latitude": 8.8333,
      "longitude": 125.1167,
      "timezone": "Asia/Manila"
    },
    {
      "name": "",
      "name_en": "Danao",
      "province": "中米沙鄢",
      "latitude": 10.5208,
      "longitude": 124.0272,
      "timezone": "Asia/Manila"
    },
    {
      "name": "",
      "name_en": "Mauban",
      "province": "卡拉巴松",
      "latitude": 14.191,
      "longitude": 121.7309,
      "timezone": "Asia/Manila"
    },
    {
      "name": "",
      "name_en": "Indang",
      "province": "卡拉巴松",
      "latitude": 14.1953,
      "longitude": 120.8769,
      "timezone": "Asia/Manila"
    },
    {
      "name": "",
      "name_en": "Bongabon",
      "province": "中央吕宋",
      "latitude": 15.6321,
      "longitude": 121.1448,
      "timezone": "Asia/Manila"
    },
    {
      "name": "",
      "name_en": "San Leonardo",
      "province": "中央吕宋",
      "latitude": 15.363,
      "longitude": 120.9639,
      "timezone": "Asia/Manila"
    },
    {
      "name": "",
      "name_en": "Calauag",
      "province": "卡拉巴松",
      "latitude": 13.9575,
      "longitude": 122.288,
      "timezone": "Asia/Manila"
    },
    {
      "name": "",
      "name_en": "Magalang",
      "province": "中央吕宋",
      "latitude": 15.2151,
      "longitude": 120.6596,
      "timezone": "Asia/Manila"
    },
    {
      "name": "",
      "name_en": "Libon",
      "province": "比科尔",
      "latitude": 13.2997,
      "longitude": 123.4386,
      "timezone": "Asia/Manila"
    },
    {
      "name": "",
      "name_en": "Lupon",
      "province": "达沃区",
      "latitude": 6.8981,
      "longitude": 126.0096,
      "timezone": "Asia/Manila"
    },
    {
      "name": "",
      "name_en": "Tanauan",
      "province": "卡拉巴松",
      "latitude": 14.0863,
      "longitude": 121.1497,
      "timezone": "Asia/Manila"
    },
    {
      "name": "阿帕里",
      "name_en": "Aparri",
      "province": "卡加延河谷",
      "latitude": 18.3566,
      "longitude": 121.6406,
      "timezone": "Asia/Manila"
    },
    {
      "name": "",
      "name_en": "Calbayog City",
      "province": "东米沙鄢",
      "latitude": 12.0668,
      "longitude": 124.5962,
      "timezone": "Asia/Manila"
    },
    {
      "name": "",
      "name_en": "Angat",
      "province": "中央吕宋",
      "latitude": 14.9285,
      "longitude": 121.03,
      "timezone": "Asia/Manila"
    },
    {
      "name": "拉卡洛塔",
      "name_en": "La Carlota",
      "province": "西米沙鄢",
      "latitude": 10.4242,
      "longitude": 122.9212,
      "timezone": "Asia/Manila"
    },
    {
      "name": "",
      "name_en": "Subic",
      "province": "中央吕宋",
      "latitude": 14.8787,
      "longitude": 120.2319,
      "timezone": "Asia/Manila"
    },
    {
      "name": "",
      "name_en": "Rosales",
      "province": "伊罗戈",
      "latitude": 15.8944,
      "longitude": 120.6328,
      "timezone": "Asia/Manila"
    },
    {
      "name": "",
      "name_en": "City of Isabela",
      "province": "棉兰老穆斯林自治区",
      "latitude": 6.7041,
      "longitude": 121.9712,
      "timezone": "Asia/Manila"
    },
    {
      "name": "",
      "name_en": "Dinalupihan",
      "province": "中央吕宋",
      "latitude": 14.8783,
      "longitude": 120.4522,
      "timezone": "Asia/Manila"
    },
    {
      "name": "",
      "name_en": "Santa Cruz",
      "province": "中央吕宋",
      "latitude": 14.2732,
      "longitude": 121.0764,
      "timezone": "Asia/Manila"
    },
    {
      "name": "卡拉潘",
      "name_en": "Calapan",
      "province": "民马罗巴区",
      "latitude": 13.4117,
      "longitude": 121.1803,
      "timezone": "Asia/Manila"
    },
    {
      "name": "",
      "name_en": "San Ildefonso",
      "province": "中央吕宋",
      "latitude": 15.0809,
      "longitude": 120.941,
      "timezone": "Asia/Manila"
    },
    {
      "name": "",
      "name_en": "San Miguel",
      "province": "中央吕宋",
      "latitude": 15.1423,
      "longitude": 120.9757,
      "timezone": "Asia/Manila"
    },
    {
      "name": "",
      "name_en": "Villasis",
      "province": "伊罗戈",
      "latitude": 15.9017,
      "longitude": 120.5883,
      "timezone": "Asia/Manila"
    },
    {
      "name": "",
      "name_en": "Oas",
      "province": "比科尔",
      "latitude": 13.2593,
      "longitude": 123.4963,
      "timezone": "Asia/Manila"
    },
    {
      "name": "",
      "name_en": "Talavera",
      "province": "中央吕宋",
      "latitude": 15.5883,
      "longitude": 120.9192,
      "timezone": "Asia/Manila"
    },
    {
      "name": "",
      "name_en": "Enrique B. Magalona",
      "province": "西米沙鄢",
      "latitude": 10.8788,
      "longitude": 122.9771,
      "timezone": "Asia/Manila"
    },
    {
      "name": "",
      "name_en": "Polomolok",
      "province": "索科斯克萨尔根",
      "latitude": 6.2217,
      "longitude": 125.064,
      "timezone": "Asia/Manila"
    },
    {
      "name": "",
      "name_en": "Pateros",
      "province": "National Capital Region",
      "latitude": 14.5391,
      "longitude": 121.0726,
      "timezone": "Asia/Manila"
    },
    {
      "name": "",
      "name_en": "Orion",
      "province": "中央吕宋",
      "latitude": 14.6206,
      "longitude": 120.5817,
      "timezone": "Asia/Manila"
    },
    {
      "name": "",
      "name_en": "Nasugbu",
      "province": "卡拉巴松",
      "latitude": 14.0669,
      "longitude": 120.6318,
      "timezone": "Asia/Manila"
    },
    {
      "name": "",
      "name_en": "Tinongan",
      "province": "西米沙鄢",
      "latitude": 10.215,
      "longitude": 123.0353,
      "timezone": "Asia/Manila"
    },
    {
      "name": "",
      "name_en": "Minglanilla",
      "province": "中米沙鄢",
      "latitude": 10.245,
      "longitude": 123.7964,
      "timezone": "Asia/Manila"
    },
    {
      "name": "",
      "name_en": "Malaybalay",
      "province": "北棉兰老",
      "latitude": 8.1575,
      "longitude": 125.1278,
      "timezone": "Asia/Manila"
    },
    {
      "name": "",
      "name_en": "Tunasan",
      "province": "卡拉巴松",
      "latitude": 14.3792,
      "longitude": 121.0525,
      "timezone": "Asia/Manila"
    },
    {
      "name": "",
      "name_en": "Gubat",
      "province": "比科尔",
      "latitude": 12.9206,
      "longitude": 124.1231,
      "timezone": "Asia/Manila"
    },
    {
      "name": "",
      "name_en": "Buluan",
      "province": "棉兰老穆斯林自治区",
      "latitude": 6.7203,
      "longitude": 124.8019,
      "timezone": "Asia/Manila"
    },
    {
      "name": "",
      "name_en": "Ualog",
      "province": "西米沙鄢",
      "latitude": 10.574,
      "longitude": 123.3933,
      "timezone": "Asia/Manila"
    },
    {
      "name": "",
      "name_en": "Cogan",
      "province": "中米沙鄢",
      "latitude": 10.5931,
      "longitude": 124.0178,
      "timezone": "Asia/Manila"
    },
    {
      "name": "",
      "name_en": "Bambang",
      "province": "卡加延河谷",
      "latitude": 16.3865,
      "longitude": 121.1066,
      "timezone": "Asia/Manila"
    },
    {
      "name": "",
      "name_en": "Tanay",
      "province": "卡拉巴松",
      "latitude": 14.4968,
      "longitude": 121.2846,
      "timezone": "Asia/Manila"
    },
    {
      "name": "",
      "name_en": "Obando",
      "province": "中央吕宋",
      "latitude": 14.7098,
      "longitude": 120.9362,
      "timezone": "Asia/Manila"
    },
    {
      "name": "",
      "name_en": "Balagtas",
      "province": "中央吕宋",
      "latitude": 14.8167,
      "longitude": 120.8667,
      "timezone": "Asia/Manila"
    },
    {
      "name": "",
      "name_en": "Itogon",
      "province": "科迪勒拉行政区",
      "latitude": 16.3639,
      "longitude": 120.6769,
      "timezone": "Asia/Manila"
    },
    {
      "name": "",
      "name_en": "Manaoag",
      "province": "伊罗戈",
      "latitude": 16.0438,
      "longitude": 120.4861,
      "timezone": "Asia/Manila"
    },
    {
      "name": "",
      "name_en": "Jose Rizal",
      "province": "民马罗巴区",
      "latitude": 8.8772,
      "longitude": 117.5041,
      "timezone": "Asia/Manila"
    },
    {
      "name": "",
      "name_en": "Bañga",
      "province": "索科斯克萨尔根",
      "latitude": 6.4239,
      "longitude": 124.7783,
      "timezone": "Asia/Manila"
    },
    {
      "name": "",
      "name_en": "Paombong",
      "province": "中央吕宋",
      "latitude": 14.8311,
      "longitude": 120.7892,
      "timezone": "Asia/Manila"
    },
    {
      "name": "",
      "name_en": "Magsaysay",
      "province": "达沃区",
      "latitude": 6.7667,
      "longitude": 125.1833,
      "timezone": "Asia/Manila"
    },
    {
      "name": "タバコ市",
      "name_en": "Tabaco",
      "province": "比科尔",
      "latitude": 13.3586,
      "longitude": 123.7336,
      "timezone": "Asia/Manila"
    },
    {
      "name": "",
      "name_en": "Santo Tomas",
      "province": "卡拉巴松",
      "latitude": 14.1079,
      "longitude": 121.1414,
      "timezone": "Asia/Manila"
    },
    {
      "name": "",
      "name_en": "Batac City",
      "province": "伊罗戈",
      "latitude": 18.0554,
      "longitude": 120.5649,
      "timezone": "Asia/Manila"
    },
    {
      "name": "",
      "name_en": "Lingayen",
      "province": "伊罗戈",
      "latitude": 16.0218,
      "longitude": 120.2319,
      "timezone": "Asia/Manila"
    },
    {
      "name": "",
      "name_en": "Masinloc",
      "province": "中央吕宋",
      "latitude": 15.5363,
      "longitude": 119.9502,
      "timezone": "Asia/Manila"
    },
    {
      "name": "",
      "name_en": "Impasugong",
      "province": "北棉兰老",
      "latitude": 8.3097,
      "longitude": 125.0019,
      "timezone": "Asia/Manila"
    },
    {
      "name": "",
      "name_en": "Lubao",
      "province": "中央吕宋",
      "latitude": 14.9405,
      "longitude": 120.6011,
      "timezone": "Asia/Manila"
    },
    {
      "name": "",
      "name_en": "Naic",
      "province": "卡拉巴松",
      "latitude": 14.3181,
      "longitude": 120.7661,
      "timezone": "Asia/Manila"
    },
    {
      "name": "",
      "name_en": "Estancia",
      "province": "西米沙鄢",
      "latitude": 11.4551,
      "longitude": 123.152,
      "timezone": "Asia/Manila"
    },
    {
      "name": "",
      "name_en": "Burauen",
      "province": "东米沙鄢",
      "latitude": 10.9756,
      "longitude": 124.8928,
      "timezone": "Asia/Manila"
    },
    {
      "name": "",
      "name_en": "Sibonga",
      "province": "中米沙鄢",
      "latitude": 10.0168,
      "longitude": 123.6171,
      "timezone": "Asia/Manila"
    },
    {
      "name": "",
      "name_en": "Mercedes",
      "province": "比科尔",
      "latitude": 14.1093,
      "longitude": 123.0109,
      "timezone": "Asia/Manila"
    },
    {
      "name": "",
      "name_en": "Zaragoza",
      "province": "中央吕宋",
      "latitude": 15.449,
      "longitude": 120.7963,
      "timezone": "Asia/Manila"
    },
    {
      "name": "",
      "name_en": "Patuto",
      "province": "卡拉巴松",
      "latitude": 14.1167,
      "longitude": 120.9667,
      "timezone": "Asia/Manila"
    },
    {
      "name": "",
      "name_en": "Kalamansig",
      "province": "索科斯克萨尔根",
      "latitude": 6.5519,
      "longitude": 124.0511,
      "timezone": "Asia/Manila"
    },
    {
      "name": "",
      "name_en": "Maluñgun",
      "province": "索科斯克萨尔根",
      "latitude": 6.2792,
      "longitude": 125.2817,
      "timezone": "Asia/Manila"
    },
    {
      "name": "",
      "name_en": "Victoria",
      "province": "民马罗巴区",
      "latitude": 13.1772,
      "longitude": 121.2781,
      "timezone": "Asia/Manila"
    },
    {
      "name": "",
      "name_en": "Cardona",
      "province": "卡拉巴松",
      "latitude": 14.4865,
      "longitude": 121.2275,
      "timezone": "Asia/Manila"
    },
    {
      "name": "爱妮岛",
      "name_en": "El Nido",
      "province": "民马罗巴区",
      "latitude": 11.1858,
      "longitude": 119.3956,
      "timezone": "Asia/Manila"
    },
    {
      "name": "",
      "name_en": "Siocon",
      "province": "三宝颜半岛",
      "latitude": 7.7061,
      "longitude": 122.1353,
      "timezone": "Asia/Manila"
    },
    {
      "name": "",
      "name_en": "Bunawan",
      "province": "卡拉加区",
      "latitude": 8.1672,
      "longitude": 125.9908,
      "timezone": "Asia/Manila"
    },
    {
      "name": "",
      "name_en": "Tubod",
      "province": "北棉兰老",
      "latitude": 8.0555,
      "longitude": 123.7904,
      "timezone": "Asia/Manila"
    },
    {
      "name": "",
      "name_en": "Balayan",
      "province": "卡拉巴松",
      "latitude": 13.9371,
      "longitude": 120.7322,
      "timezone": "Asia/Manila"
    },
    {
      "name": "",
      "name_en": "Cabiao",
      "province": "中央吕宋",
      "latitude": 15.2488,
      "longitude": 120.8548,
      "timezone": "Asia/Manila"
    },
    {
      "name": "",
      "name_en": "Morong",
      "province": "卡拉巴松",
      "latitude": 14.5185,
      "longitude": 121.2378,
      "timezone": "Asia/Manila"
    },
    {
      "name": "",
      "name_en": "Liloan",
      "province": "中米沙鄢",
      "latitude": 10.3991,
      "longitude": 123.9992,
      "timezone": "Asia/Manila"
    },
    {
      "name": "",
      "name_en": "Consolacion",
      "province": "中米沙鄢",
      "latitude": 10.3766,
      "longitude": 123.9573,
      "timezone": "Asia/Manila"
    },
    {
      "name": "美岸",
      "name_en": "Vigan",
      "province": "伊罗戈",
      "latitude": 17.5747,
      "longitude": 120.3869,
      "timezone": "Asia/Manila"
    },
    {
      "name": "",
      "name_en": "Inabanga",
      "province": "中米沙鄢",
      "latitude": 10.0307,
      "longitude": 124.0671,
      "timezone": "Asia/Manila"
    },
    {
      "name": "",
      "name_en": "Norala",
      "province": "索科斯克萨尔根",
      "latitude": 6.5225,
      "longitude": 124.6592,
      "timezone": "Asia/Manila"
    },
    {
      "name": "",
      "name_en": "Bangued",
      "province": "科迪勒拉行政区",
      "latitude": 17.6083,
      "longitude": 120.6381,
      "timezone": "Asia/Manila"
    },
    {
      "name": "",
      "name_en": "Bayombong",
      "province": "卡加延河谷",
      "latitude": 16.4812,
      "longitude": 121.1497,
      "timezone": "Asia/Manila"
    },
    {
      "name": "",
      "name_en": "Masbate",
      "province": "比科尔",
      "latitude": 12.3717,
      "longitude": 123.6249,
      "timezone": "Asia/Manila"
    },
    {
      "name": "",
      "name_en": "Upper Bicutan",
      "province": "National Capital Region",
      "latitude": 14.4996,
      "longitude": 121.0507,
      "timezone": "Asia/Manila"
    },
    {
      "name": "",
      "name_en": "Candaba",
      "province": "中央吕宋",
      "latitude": 15.0956,
      "longitude": 120.8267,
      "timezone": "Asia/Manila"
    },
    {
      "name": "",
      "name_en": "Santa Ana",
      "province": "中央吕宋",
      "latitude": 14.5243,
      "longitude": 121.0792,
      "timezone": "Asia/Manila"
    },
    {
      "name": "",
      "name_en": "Noveleta",
      "province": "卡拉巴松",
      "latitude": 14.4292,
      "longitude": 120.8799,
      "timezone": "Asia/Manila"
    },
    {
      "name": "",
      "name_en": "Bugo",
      "province": "北棉兰老",
      "latitude": 8.5083,
      "longitude": 124.7594,
      "timezone": "Asia/Manila"
    },
    {
      "name": "",
      "name_en": "Vinzons",
      "province": "比科尔",
      "latitude": 14.1737,
      "longitude": 122.9066,
      "timezone": "Asia/Manila"
    },
    {
      "name": "",
      "name_en": "Sariaya",
      "province": "卡拉巴松",
      "latitude": 13.9624,
      "longitude": 121.5265,
      "timezone": "Asia/Manila"
    },
    {
      "name": "",
      "name_en": "Parang",
      "province": "棉兰老穆斯林自治区",
      "latitude": 7.3704,
      "longitude": 124.2697,
      "timezone": "Asia/Manila"
    },
    {
      "name": "",
      "name_en": "Orani",
      "province": "中央吕宋",
      "latitude": 14.8006,
      "longitude": 120.5371,
      "timezone": "Asia/Manila"
    },
    {
      "name": "",
      "name_en": "Canlaon",
      "province": "中米沙鄢",
      "latitude": 10.387,
      "longitude": 123.2227,
      "timezone": "Asia/Manila"
    },
    {
      "name": "",
      "name_en": "Hinatuan",
      "province": "卡拉加区",
      "latitude": 8.3722,
      "longitude": 126.3342,
      "timezone": "Asia/Manila"
    },
    {
      "name": "",
      "name_en": "Amadeo",
      "province": "卡拉巴松",
      "latitude": 14.1706,
      "longitude": 120.9236,
      "timezone": "Asia/Manila"
    },
    {
      "name": "",
      "name_en": "Binmaley",
      "province": "伊罗戈",
      "latitude": 16.0323,
      "longitude": 120.269,
      "timezone": "Asia/Manila"
    },
    {
      "name": "",
      "name_en": "Mexico",
      "province": "中央吕宋",
      "latitude": 15.0646,
      "longitude": 120.7198,
      "timezone": "Asia/Manila"
    },
    {
      "name": "",
      "name_en": "Samal",
      "province": "达沃区",
      "latitude": 7.0744,
      "longitude": 125.7083,
      "timezone": "Asia/Manila"
    },
    {
      "name": "",
      "name_en": "Pinamalayan",
      "province": "民马罗巴区",
      "latitude": 13.046,
      "longitude": 121.4621,
      "timezone": "Asia/Manila"
    },
    {
      "name": "",
      "name_en": "Passi",
      "province": "西米沙鄢",
      "latitude": 11.1078,
      "longitude": 122.6419,
      "timezone": "Asia/Manila"
    },
    {
      "name": "",
      "name_en": "Recodo",
      "province": "三宝颜半岛",
      "latitude": 6.9519,
      "longitude": 121.9636,
      "timezone": "Asia/Manila"
    },
    {
      "name": "",
      "name_en": "Compostela",
      "province": "达沃区",
      "latitude": 7.6731,
      "longitude": 126.0889,
      "timezone": "Asia/Manila"
    },
    {
      "name": "",
      "name_en": "Maragondon",
      "province": "卡拉巴松",
      "latitude": 14.2733,
      "longitude": 120.7377,
      "timezone": "Asia/Manila"
    },
    {
      "name": "",
      "name_en": "Masantol",
      "province": "中央吕宋",
      "latitude": 14.896,
      "longitude": 120.7092,
      "timezone": "Asia/Manila"
    },
    {
      "name": "",
      "name_en": "Tagbina",
      "province": "卡拉加区",
      "latitude": 8.4519,
      "longitude": 126.1714,
      "timezone": "Asia/Manila"
    },
    {
      "name": "",
      "name_en": "Malilipot",
      "province": "比科尔",
      "latitude": 13.3188,
      "longitude": 123.7385,
      "timezone": "Asia/Manila"
    },
    {
      "name": "",
      "name_en": "Gerona",
      "province": "中央吕宋",
      "latitude": 15.6065,
      "longitude": 120.5978,
      "timezone": "Asia/Manila"
    },
    {
      "name": "",
      "name_en": "Samal",
      "province": "中央吕宋",
      "latitude": 7.0744,
      "longitude": 125.7083,
      "timezone": "Asia/Manila"
    },
    {
      "name": "",
      "name_en": "Carcar",
      "province": "中米沙鄢",
      "latitude": 10.1061,
      "longitude": 123.6402,
      "timezone": "Asia/Manila"
    },
    {
      "name": "",
      "name_en": "Mamatid",
      "province": "卡拉巴松",
      "latitude": 14.2349,
      "longitude": 121.159,
      "timezone": "Asia/Manila"
    },
    {
      "name": "",
      "name_en": "Taal",
      "province": "卡拉巴松",
      "latitude": 13.8799,
      "longitude": 120.9231,
      "timezone": "Asia/Manila"
    },
    {
      "name": "",
      "name_en": "Jaen",
      "province": "中央吕宋",
      "latitude": 15.3275,
      "longitude": 120.9192,
      "timezone": "Asia/Manila"
    },
    {
      "name": "",
      "name_en": "Camiling",
      "province": "中央吕宋",
      "latitude": 15.6866,
      "longitude": 120.4128,
      "timezone": "Asia/Manila"
    },
    {
      "name": "",
      "name_en": "Hinigaran",
      "province": "西米沙鄢",
      "latitude": 10.2706,
      "longitude": 122.8507,
      "timezone": "Asia/Manila"
    },
    {
      "name": "",
      "name_en": "San Pascual",
      "province": "卡拉巴松",
      "latitude": 13.8104,
      "longitude": 121.022,
      "timezone": "Asia/Manila"
    },
    {
      "name": "",
      "name_en": "Pantubig",
      "province": "中央吕宋",
      "latitude": 14.9681,
      "longitude": 120.9547,
      "timezone": "Asia/Manila"
    },
    {
      "name": "",
      "name_en": "Talipapa",
      "province": "National Capital Region",
      "latitude": 14.6857,
      "longitude": 121.0269,
      "timezone": "Asia/Manila"
    },
    {
      "name": "",
      "name_en": "Sultan sa Barongis",
      "province": "棉兰老穆斯林自治区",
      "latitude": 6.8,
      "longitude": 124.6367,
      "timezone": "Asia/Manila"
    },
    {
      "name": "",
      "name_en": "Papaya",
      "province": "中央吕宋",
      "latitude": 15.3202,
      "longitude": 120.8357,
      "timezone": "Asia/Manila"
    },
    {
      "name": "",
      "name_en": "San Antonio",
      "province": "中央吕宋",
      "latitude": 14.9466,
      "longitude": 120.0867,
      "timezone": "Asia/Manila"
    },
    {
      "name": "",
      "name_en": "Binalbagan",
      "province": "西米沙鄢",
      "latitude": 10.1948,
      "longitude": 122.8581,
      "timezone": "Asia/Manila"
    },
    {
      "name": "",
      "name_en": "Calaca",
      "province": "卡拉巴松",
      "latitude": 13.9324,
      "longitude": 120.8133,
      "timezone": "Asia/Manila"
    },
    {
      "name": "",
      "name_en": "Del Pilar",
      "province": "中央吕宋",
      "latitude": 15.036,
      "longitude": 120.6993,
      "timezone": "Asia/Manila"
    },
    {
      "name": "",
      "name_en": "Pandan",
      "province": "西米沙鄢",
      "latitude": 11.7448,
      "longitude": 122.1003,
      "timezone": "Asia/Manila"
    },
    {
      "name": "",
      "name_en": "Bantay",
      "province": "伊罗戈",
      "latitude": 17.5847,
      "longitude": 120.3892,
      "timezone": "Asia/Manila"
    },
    {
      "name": "",
      "name_en": "Mendez-Nuñez",
      "province": "卡拉巴松",
      "latitude": 14.1286,
      "longitude": 120.9058,
      "timezone": "Asia/Manila"
    },
    {
      "name": "",
      "name_en": "Ramon",
      "province": "卡加延河谷",
      "latitude": 16.7842,
      "longitude": 121.535,
      "timezone": "Asia/Manila"
    },
    {
      "name": "",
      "name_en": "Solano",
      "province": "卡加延河谷",
      "latitude": 17.6528,
      "longitude": 121.691,
      "timezone": "Asia/Manila"
    },
    {
      "name": "",
      "name_en": "Bel Air",
      "province": "National Capital Region",
      "latitude": 14.5594,
      "longitude": 121.0258,
      "timezone": "Asia/Manila"
    },
    {
      "name": "",
      "name_en": "Tagudin",
      "province": "伊罗戈",
      "latitude": 16.9355,
      "longitude": 120.4442,
      "timezone": "Asia/Manila"
    },
    {
      "name": "",
      "name_en": "San Jose",
      "province": "比科尔",
      "latitude": 12.3528,
      "longitude": 121.0676,
      "timezone": "Asia/Manila"
    },
    {
      "name": "",
      "name_en": "Abucay",
      "province": "中央吕宋",
      "latitude": 14.7335,
      "longitude": 120.5336,
      "timezone": "Asia/Manila"
    },
    {
      "name": "",
      "name_en": "Jalajala",
      "province": "卡拉巴松",
      "latitude": 14.353,
      "longitude": 121.3225,
      "timezone": "Asia/Manila"
    },
    {
      "name": "",
      "name_en": "Teresa",
      "province": "卡拉巴松",
      "latitude": 14.5612,
      "longitude": 121.2195,
      "timezone": "Asia/Manila"
    },
    {
      "name": "",
      "name_en": "Pila",
      "province": "卡拉巴松",
      "latitude": 14.2325,
      "longitude": 121.3648,
      "timezone": "Asia/Manila"
    },
    {
      "name": "",
      "name_en": "Manapla",
      "province": "西米沙鄢",
      "latitude": 10.958,
      "longitude": 123.123,
      "timezone": "Asia/Manila"
    },
    {
      "name": "",
      "name_en": "San Nicolas",
      "province": "伊罗戈",
      "latitude": 18.1725,
      "longitude": 120.5953,
      "timezone": "Asia/Manila"
    },
    {
      "name": "",
      "name_en": "Aliaga",
      "province": "中央吕宋",
      "latitude": 15.5,
      "longitude": 120.843,
      "timezone": "Asia/Manila"
    },
    {
      "name": "",
      "name_en": "Baclaran",
      "province": "卡拉巴松",
      "latitude": 14.5319,
      "longitude": 120.9942,
      "timezone": "Asia/Manila"
    },
    {
      "name": "",
      "name_en": "Hermosa",
      "province": "中央吕宋",
      "latitude": 14.8314,
      "longitude": 120.5081,
      "timezone": "Asia/Manila"
    },
    {
      "name": "",
      "name_en": "Bauan",
      "province": "卡拉巴松",
      "latitude": 13.7917,
      "longitude": 121.0085,
      "timezone": "Asia/Manila"
    },
    {
      "name": "",
      "name_en": "Bay",
      "province": "卡拉巴松",
      "latitude": 14.1837,
      "longitude": 121.2855,
      "timezone": "Asia/Manila"
    },
    {
      "name": "",
      "name_en": "Jetafe",
      "province": "中米沙鄢",
      "latitude": 10.1472,
      "longitude": 124.1539,
      "timezone": "Asia/Manila"
    },
    {
      "name": "",
      "name_en": "San Luis",
      "province": "中央吕宋",
      "latitude": 15.0401,
      "longitude": 120.7883,
      "timezone": "Asia/Manila"
    },
    {
      "name": "",
      "name_en": "Dupax Del Norte",
      "province": "卡加延河谷",
      "latitude": 16.3079,
      "longitude": 121.1062,
      "timezone": "Asia/Manila"
    },
    {
      "name": "",
      "name_en": "General Tinio",
      "province": "中央吕宋",
      "latitude": 15.3202,
      "longitude": 120.8357,
      "timezone": "Asia/Manila"
    },
    {
      "name": "",
      "name_en": "Jagna",
      "province": "中米沙鄢",
      "latitude": 9.6531,
      "longitude": 124.3697,
      "timezone": "Asia/Manila"
    },
    {
      "name": "",
      "name_en": "Guimba",
      "province": "中央吕宋",
      "latitude": 15.6605,
      "longitude": 120.7683,
      "timezone": "Asia/Manila"
    },
    {
      "name": "奎阿坡区",
      "name_en": "Quiapo",
      "province": "National Capital Region",
      "latitude": 14.6,
      "longitude": 120.9833,
      "timezone": "Asia/Manila"
    },
    {
      "name": "",
      "name_en": "San Narciso",
      "province": "中央吕宋",
      "latitude": 15.0143,
      "longitude": 120.0803,
      "timezone": "Asia/Manila"
    },
    {
      "name": "",
      "name_en": "Kabacan",
      "province": "索科斯克萨尔根",
      "latitude": 7.1067,
      "longitude": 124.8292,
      "timezone": "Asia/Manila"
    },
    {
      "name": "",
      "name_en": "Alaminos",
      "province": "卡拉巴松",
      "latitude": 14.0639,
      "longitude": 121.2465,
      "timezone": "Asia/Manila"
    },
    {
      "name": "",
      "name_en": "Maluso",
      "province": "棉兰老穆斯林自治区",
      "latitude": 6.543,
      "longitude": 121.8753,
      "timezone": "Asia/Manila"
    },
    {
      "name": "",
      "name_en": "General Salipada K. Pendatun",
      "province": "棉兰老穆斯林自治区",
      "latitude": 6.8263,
      "longitude": 124.7217,
      "timezone": "Asia/Manila"
    },
    {
      "name": "",
      "name_en": "Cabadbaran",
      "province": "卡拉加区",
      "latitude": 9.1226,
      "longitude": 125.5355,
      "timezone": "Asia/Manila"
    },
    {
      "name": "",
      "name_en": "Pagaluñgan",
      "province": "棉兰老穆斯林自治区",
      "latitude": 7.1417,
      "longitude": 124.3806,
      "timezone": "Asia/Manila"
    },
    {
      "name": "",
      "name_en": "Lucban",
      "province": "卡拉巴松",
      "latitude": 14.1136,
      "longitude": 121.5557,
      "timezone": "Asia/Manila"
    },
    {
      "name": "",
      "name_en": "Aglipay",
      "province": "卡加延河谷",
      "latitude": 16.4889,
      "longitude": 121.645,
      "timezone": "Asia/Manila"
    },
    {
      "name": "",
      "name_en": "Paraiso",
      "province": "西米沙鄢",
      "latitude": 10.8849,
      "longitude": 123.3627,
      "timezone": "Asia/Manila"
    },
    {
      "name": "",
      "name_en": "Pililla",
      "province": "卡拉巴松",
      "latitude": 14.4854,
      "longitude": 121.3062,
      "timezone": "Asia/Manila"
    },
    {
      "name": "",
      "name_en": "Tagoloan",
      "province": "北棉兰老",
      "latitude": 8.5395,
      "longitude": 124.7541,
      "timezone": "Asia/Manila"
    },
    {
      "name": "",
      "name_en": "Lumbang",
      "province": "卡拉巴松",
      "latitude": 14.2973,
      "longitude": 121.4598,
      "timezone": "Asia/Manila"
    },
    {
      "name": "",
      "name_en": "Buhi",
      "province": "比科尔",
      "latitude": 13.4322,
      "longitude": 123.517,
      "timezone": "Asia/Manila"
    },
    {
      "name": "",
      "name_en": "Malvar",
      "province": "卡拉巴松",
      "latitude": 14.0447,
      "longitude": 121.1586,
      "timezone": "Asia/Manila"
    },
    {
      "name": "",
      "name_en": "Aringay",
      "province": "伊罗戈",
      "latitude": 16.394,
      "longitude": 120.3545,
      "timezone": "Asia/Manila"
    },
    {
      "name": "",
      "name_en": "Tangub",
      "province": "北棉兰老",
      "latitude": 8.0618,
      "longitude": 123.7477,
      "timezone": "Asia/Manila"
    },
    {
      "name": "",
      "name_en": "Bagong Pagasa",
      "province": "National Capital Region",
      "latitude": 14.6627,
      "longitude": 121.0328,
      "timezone": "Asia/Manila"
    },
    {
      "name": "",
      "name_en": "Atimonan",
      "province": "卡拉巴松",
      "latitude": 14.0027,
      "longitude": 121.9208,
      "timezone": "Asia/Manila"
    },
    {
      "name": "",
      "name_en": "Cordova",
      "province": "中米沙鄢",
      "latitude": 10.2439,
      "longitude": 123.9422,
      "timezone": "Asia/Manila"
    },
    {
      "name": "",
      "name_en": "Mapun",
      "province": "民马罗巴区",
      "latitude": 6.9747,
      "longitude": 118.5144,
      "timezone": "Asia/Manila"
    },
    {
      "name": "",
      "name_en": "San Simon",
      "province": "中央吕宋",
      "latitude": 14.9996,
      "longitude": 120.7808,
      "timezone": "Asia/Manila"
    },
    {
      "name": "",
      "name_en": "Tandag",
      "province": "卡拉加区",
      "latitude": 9.0783,
      "longitude": 126.1986,
      "timezone": "Asia/Manila"
    },
    {
      "name": "",
      "name_en": "Agoo",
      "province": "伊罗戈",
      "latitude": 16.0833,
      "longitude": 120.1,
      "timezone": "Asia/Manila"
    },
    {
      "name": "",
      "name_en": "Bah-Bah",
      "province": "卡拉加区",
      "latitude": 8.6072,
      "longitude": 125.9144,
      "timezone": "Asia/Manila"
    },
    {
      "name": "",
      "name_en": "Pandacaqui",
      "province": "中央吕宋",
      "latitude": 15.1719,
      "longitude": 120.6546,
      "timezone": "Asia/Manila"
    },
    {
      "name": "",
      "name_en": "Bulan",
      "province": "比科尔",
      "latitude": 12.6714,
      "longitude": 123.875,
      "timezone": "Asia/Manila"
    },
    {
      "name": "",
      "name_en": "Majayjay",
      "province": "卡拉巴松",
      "latitude": 14.1463,
      "longitude": 121.4729,
      "timezone": "Asia/Manila"
    },
    {
      "name": "",
      "name_en": "Narra",
      "province": "民马罗巴区",
      "latitude": 9.2688,
      "longitude": 118.4043,
      "timezone": "Asia/Manila"
    },
    {
      "name": "",
      "name_en": "Burgos",
      "province": "中央吕宋",
      "latitude": 15.7289,
      "longitude": 120.5722,
      "timezone": "Asia/Manila"
    },
    {
      "name": "",
      "name_en": "Sibulan",
      "province": "中米沙鄢",
      "latitude": 9.3584,
      "longitude": 123.285,
      "timezone": "Asia/Manila"
    },
    {
      "name": "",
      "name_en": "Santa Maria",
      "province": "伊罗戈",
      "latitude": 16.9518,
      "longitude": 120.4445,
      "timezone": "Asia/Manila"
    },
    {
      "name": "",
      "name_en": "Peñaranda",
      "province": "中央吕宋",
      "latitude": 15.3512,
      "longitude": 121.0039,
      "timezone": "Asia/Manila"
    },
    {
      "name": "",
      "name_en": "Pulupandan",
      "province": "西米沙鄢",
      "latitude": 10.5178,
      "longitude": 122.8026,
      "timezone": "Asia/Manila"
    },
    {
      "name": "",
      "name_en": "Castillejos",
      "province": "中央吕宋",
      "latitude": 14.9336,
      "longitude": 120.1979,
      "timezone": "Asia/Manila"
    },
    {
      "name": "伊巴",
      "name_en": "Iba",
      "province": "中央吕宋",
      "latitude": 15.3276,
      "longitude": 119.978,
      "timezone": "Asia/Manila"
    },
    {
      "name": "",
      "name_en": "Paete",
      "province": "卡拉巴松",
      "latitude": 14.3647,
      "longitude": 121.4829,
      "timezone": "Asia/Manila"
    },
    {
      "name": "",
      "name_en": "Catanauan",
      "province": "卡拉巴松",
      "latitude": 13.5926,
      "longitude": 122.3215,
      "timezone": "Asia/Manila"
    },
    {
      "name": "",
      "name_en": "San Jose",
      "province": "卡拉加区",
      "latitude": 12.3528,
      "longitude": 121.0676,
      "timezone": "Asia/Manila"
    },
    {
      "name": "",
      "name_en": "Bongao",
      "province": "棉兰老穆斯林自治区",
      "latitude": 5.0292,
      "longitude": 119.7731,
      "timezone": "Asia/Manila"
    },
    {
      "name": "",
      "name_en": "Santa Catalina",
      "province": "中米沙鄢",
      "latitude": 9.3337,
      "longitude": 122.8637,
      "timezone": "Asia/Manila"
    },
    {
      "name": "",
      "name_en": "Sanchez-Mira",
      "province": "卡加延河谷",
      "latitude": 18.5616,
      "longitude": 121.2319,
      "timezone": "Asia/Manila"
    },
    {
      "name": "",
      "name_en": "San Antonio",
      "province": "中央吕宋",
      "latitude": 14.9466,
      "longitude": 120.0867,
      "timezone": "Asia/Manila"
    },
    {
      "name": "",
      "name_en": "Rizal",
      "province": "中央吕宋",
      "latitude": 8.8772,
      "longitude": 117.5041,
      "timezone": "Asia/Manila"
    },
    {
      "name": "",
      "name_en": "Telabastagan",
      "province": "中央吕宋",
      "latitude": 15.1185,
      "longitude": 120.6077,
      "timezone": "Asia/Manila"
    },
    {
      "name": "",
      "name_en": "Maao",
      "province": "西米沙鄢",
      "latitude": 10.4896,
      "longitude": 122.9907,
      "timezone": "Asia/Manila"
    },
    {
      "name": "",
      "name_en": "Lopez",
      "province": "卡拉巴松",
      "latitude": 13.884,
      "longitude": 122.2604,
      "timezone": "Asia/Manila"
    },
    {
      "name": "",
      "name_en": "Nabua",
      "province": "比科尔",
      "latitude": 13.4075,
      "longitude": 123.3724,
      "timezone": "Asia/Manila"
    },
    {
      "name": "",
      "name_en": "Concepcion Ibaba",
      "province": "卡拉巴松",
      "latitude": 13.9231,
      "longitude": 121.461,
      "timezone": "Asia/Manila"
    },
    {
      "name": "",
      "name_en": "Pangil",
      "province": "卡拉巴松",
      "latitude": 14.4033,
      "longitude": 121.4651,
      "timezone": "Asia/Manila"
    },
    {
      "name": "",
      "name_en": "Cabagan",
      "province": "卡加延河谷",
      "latitude": 17.4278,
      "longitude": 121.7695,
      "timezone": "Asia/Manila"
    },
    {
      "name": "",
      "name_en": "Ayala Alabang",
      "province": "National Capital Region",
      "latitude": 14.406,
      "longitude": 121.0222,
      "timezone": "Asia/Manila"
    },
    {
      "name": "",
      "name_en": "Talisay",
      "province": "卡拉巴松",
      "latitude": 10.2447,
      "longitude": 123.8494,
      "timezone": "Asia/Manila"
    },
    {
      "name": "",
      "name_en": "Baggabag B",
      "province": "卡加延河谷",
      "latitude": 16.5059,
      "longitude": 121.1901,
      "timezone": "Asia/Manila"
    },
    {
      "name": "",
      "name_en": "Manibaug Pasig",
      "province": "中央吕宋",
      "latitude": 15.0962,
      "longitude": 120.5644,
      "timezone": "Asia/Manila"
    },
    {
      "name": "",
      "name_en": "Nagcarlan",
      "province": "卡拉巴松",
      "latitude": 14.1364,
      "longitude": 121.4165,
      "timezone": "Asia/Manila"
    },
    {
      "name": "",
      "name_en": "Victoria",
      "province": "卡拉巴松",
      "latitude": 13.1772,
      "longitude": 121.2781,
      "timezone": "Asia/Manila"
    },
    {
      "name": "",
      "name_en": "La Castellana",
      "province": "西米沙鄢",
      "latitude": 10.3239,
      "longitude": 123.0215,
      "timezone": "Asia/Manila"
    },
    {
      "name": "",
      "name_en": "Pio",
      "province": "中央吕宋",
      "latitude": 15.0474,
      "longitude": 120.5189,
      "timezone": "Asia/Manila"
    },
    {
      "name": "",
      "name_en": "General Emilio Aguinaldo",
      "province": "卡拉巴松",
      "latitude": 14.1842,
      "longitude": 120.7958,
      "timezone": "Asia/Manila"
    },
    {
      "name": "",
      "name_en": "Glan",
      "province": "索科斯克萨尔根",
      "latitude": 5.8242,
      "longitude": 125.2033,
      "timezone": "Asia/Manila"
    },
    {
      "name": "",
      "name_en": "Mamburao",
      "province": "民马罗巴区",
      "latitude": 13.2233,
      "longitude": 120.596,
      "timezone": "Asia/Manila"
    },
    {
      "name": "帕拉扬",
      "name_en": "Palayan City",
      "province": "中央吕宋",
      "latitude": 15.5415,
      "longitude": 121.0848,
      "timezone": "Asia/Manila"
    },
    {
      "name": "",
      "name_en": "Al-Barka",
      "province": "棉兰老穆斯林自治区",
      "latitude": 6.4862,
      "longitude": 122.1755,
      "timezone": "Asia/Manila"
    },
    {
      "name": "",
      "name_en": "San Fernando",
      "province": "中米沙鄢",
      "latitude": 15.0343,
      "longitude": 120.6844,
      "timezone": "Asia/Manila"
    },
    {
      "name": "",
      "name_en": "Bogo",
      "province": "中米沙鄢",
      "latitude": 10.5333,
      "longitude": 122.8333,
      "timezone": "Asia/Manila"
    },
    {
      "name": "",
      "name_en": "Asia",
      "province": "西米沙鄢",
      "latitude": 9.5506,
      "longitude": 122.5164,
      "timezone": "Asia/Manila"
    },
    {
      "name": "",
      "name_en": "Bontoc",
      "province": "科迪勒拉行政区",
      "latitude": 17.0873,
      "longitude": 120.9768,
      "timezone": "Asia/Manila"
    },
    {
      "name": "",
      "name_en": "Culion",
      "province": "民马罗巴区",
      "latitude": 11.8904,
      "longitude": 120.0222,
      "timezone": "Asia/Manila"
    },
    {
      "name": "",
      "name_en": "Pinamungahan",
      "province": "中米沙鄢",
      "latitude": 10.2708,
      "longitude": 123.5839,
      "timezone": "Asia/Manila"
    },
    {
      "name": "",
      "name_en": "Mansalay",
      "province": "民马罗巴区",
      "latitude": 12.5204,
      "longitude": 121.4385,
      "timezone": "Asia/Manila"
    },
    {
      "name": "",
      "name_en": "Botolan",
      "province": "中央吕宋",
      "latitude": 15.2896,
      "longitude": 120.0245,
      "timezone": "Asia/Manila"
    },
    {
      "name": "",
      "name_en": "Guihulñgan",
      "province": "中米沙鄢",
      "latitude": 10.1195,
      "longitude": 123.2729,
      "timezone": "Asia/Manila"
    },
    {
      "name": "",
      "name_en": "Apas",
      "province": "中米沙鄢",
      "latitude": 10.3408,
      "longitude": 123.9026,
      "timezone": "Asia/Manila"
    },
    {
      "name": "",
      "name_en": "Gumaca",
      "province": "卡拉巴松",
      "latitude": 13.921,
      "longitude": 122.1002,
      "timezone": "Asia/Manila"
    },
    {
      "name": "",
      "name_en": "Bignay Uno",
      "province": "卡拉巴松",
      "latitude": 13.8644,
      "longitude": 121.4879,
      "timezone": "Asia/Manila"
    },
    {
      "name": "",
      "name_en": "Balamban",
      "province": "中米沙鄢",
      "latitude": 10.5039,
      "longitude": 123.7156,
      "timezone": "Asia/Manila"
    },
    {
      "name": "",
      "name_en": "Guiset East",
      "province": "伊罗戈",
      "latitude": 16.0667,
      "longitude": 120.6833,
      "timezone": "Asia/Manila"
    },
    {
      "name": "",
      "name_en": "Loma de Gato",
      "province": "中央吕宋",
      "latitude": 14.7887,
      "longitude": 120.9989,
      "timezone": "Asia/Manila"
    },
    {
      "name": "",
      "name_en": "Malanday",
      "province": "卡拉巴松",
      "latitude": 14.7069,
      "longitude": 121.1306,
      "timezone": "Asia/Manila"
    },
    {
      "name": "",
      "name_en": "Lake Sebu",
      "province": "索科斯克萨尔根",
      "latitude": 6.2248,
      "longitude": 124.7104,
      "timezone": "Asia/Manila"
    },
    {
      "name": "",
      "name_en": "Porac",
      "province": "中央吕宋",
      "latitude": 15.0711,
      "longitude": 120.5423,
      "timezone": "Asia/Manila"
    },
    {
      "name": "",
      "name_en": "Cuenca",
      "province": "卡拉巴松",
      "latitude": 13.902,
      "longitude": 121.0521,
      "timezone": "Asia/Manila"
    },
    {
      "name": "",
      "name_en": "Bansalan",
      "province": "达沃区",
      "latitude": 6.7861,
      "longitude": 125.2133,
      "timezone": "Asia/Manila"
    },
    {
      "name": "",
      "name_en": "Inopacan",
      "province": "东米沙鄢",
      "latitude": 10.4997,
      "longitude": 124.7405,
      "timezone": "Asia/Manila"
    },
    {
      "name": "",
      "name_en": "Jose Pañganiban",
      "province": "比科尔",
      "latitude": 14.2906,
      "longitude": 122.6917,
      "timezone": "Asia/Manila"
    },
    {
      "name": "",
      "name_en": "Dupax del Sur",
      "province": "卡加延河谷",
      "latitude": 16.2838,
      "longitude": 121.0896,
      "timezone": "Asia/Manila"
    },
    {
      "name": "",
      "name_en": "Sasmuan",
      "province": "中央吕宋",
      "latitude": 14.9438,
      "longitude": 120.6229,
      "timezone": "Asia/Manila"
    },
    {
      "name": "",
      "name_en": "Molave",
      "province": "三宝颜半岛",
      "latitude": 8.0844,
      "longitude": 123.491,
      "timezone": "Asia/Manila"
    },
    {
      "name": "",
      "name_en": "Goa",
      "province": "比科尔",
      "latitude": 13.6978,
      "longitude": 123.4892,
      "timezone": "Asia/Manila"
    },
    {
      "name": "",
      "name_en": "Irosin",
      "province": "比科尔",
      "latitude": 12.7001,
      "longitude": 124.0322,
      "timezone": "Asia/Manila"
    },
    {
      "name": "",
      "name_en": "New Corella",
      "province": "达沃区",
      "latitude": 7.5866,
      "longitude": 125.8237,
      "timezone": "Asia/Manila"
    },
    {
      "name": "",
      "name_en": "Binondo",
      "province": "National Capital Region",
      "latitude": 14.603,
      "longitude": 120.974,
      "timezone": "Asia/Manila"
    },
    {
      "name": "",
      "name_en": "Taloc",
      "province": "西米沙鄢",
      "latitude": 10.5746,
      "longitude": 122.8954,
      "timezone": "Asia/Manila"
    },
    {
      "name": "",
      "name_en": "Manay",
      "province": "达沃区",
      "latitude": 7.215,
      "longitude": 126.5397,
      "timezone": "Asia/Manila"
    },
    {
      "name": "",
      "name_en": "Baras",
      "province": "卡拉巴松",
      "latitude": 14.5169,
      "longitude": 121.2658,
      "timezone": "Asia/Manila"
    },
    {
      "name": "",
      "name_en": "Danao",
      "province": "中米沙鄢",
      "latitude": 10.5208,
      "longitude": 124.0272,
      "timezone": "Asia/Manila"
    },
    {
      "name": "",
      "name_en": "Sampaloc",
      "province": "卡拉巴松",
      "latitude": 14.5402,
      "longitude": 121.3602,
      "timezone": "Asia/Manila"
    },
    {
      "name": "",
      "name_en": "Ternate",
      "province": "卡拉巴松",
      "latitude": 14.2897,
      "longitude": 120.7168,
      "timezone": "Asia/Manila"
    },
    {
      "name": "",
      "name_en": "Pacol",
      "province": "西米沙鄢",
      "latitude": 10.45,
      "longitude": 122.8167,
      "timezone": "Asia/Manila"
    },
    {
      "name": "",
      "name_en": "Talitay",
      "province": "棉兰老穆斯林自治区",
      "latitude": 7.0333,
      "longitude": 124.7,
      "timezone": "Asia/Manila"
    },
    {
      "name": "",
      "name_en": "Suay",
      "province": "西米沙鄢",
      "latitude": 10.0533,
      "longitude": 122.8423,
      "timezone": "Asia/Manila"
    },
    {
      "name": "",
      "name_en": "Baao",
      "province": "比科尔",
      "latitude": 13.4549,
      "longitude": 123.3653,
      "timezone": "Asia/Manila"
    },
    {
      "name": "",
      "name_en": "San Francisco",
      "province": "中央吕宋",
      "latitude": 8.5356,
      "longitude": 125.95,
      "timezone": "Asia/Manila"
    },
    {
      "name": "",
      "name_en": "Malabanban Norte",
      "province": "卡拉巴松",
      "latitude": 13.9452,
      "longitude": 121.4306,
      "timezone": "Asia/Manila"
    },
    {
      "name": "",
      "name_en": "Laur",
      "province": "中央吕宋",
      "latitude": 15.5865,
      "longitude": 121.1834,
      "timezone": "Asia/Manila"
    },
    {
      "name": "",
      "name_en": "Ipil",
      "province": "三宝颜半岛",
      "latitude": 7.7844,
      "longitude": 122.5861,
      "timezone": "Asia/Manila"
    },
    {
      "name": "",
      "name_en": "Lagawe",
      "province": "科迪勒拉行政区",
      "latitude": 16.8,
      "longitude": 121.1192,
      "timezone": "Asia/Manila"
    },
    {
      "name": "",
      "name_en": "Malanday",
      "province": "中央吕宋",
      "latitude": 14.7069,
      "longitude": 121.1306,
      "timezone": "Asia/Manila"
    },
    {
      "name": "",
      "name_en": "Nunungan",
      "province": "北棉兰老",
      "latitude": 7.8236,
      "longitude": 123.965,
      "timezone": "Asia/Manila"
    },
    {
      "name": "",
      "name_en": "Sumag",
      "province": "西米沙鄢",
      "latitude": 10.6014,
      "longitude": 122.9192,
      "timezone": "Asia/Manila"
    },
    {
      "name": "",
      "name_en": "Compostela",
      "province": "中米沙鄢",
      "latitude": 7.6731,
      "longitude": 126.0889,
      "timezone": "Asia/Manila"
    },
    {
      "name": "",
      "name_en": "San Marcelino",
      "province": "中央吕宋",
      "latitude": 14.9742,
      "longitude": 120.1573,
      "timezone": "Asia/Manila"
    },
    {
      "name": "",
      "name_en": "San Mariano",
      "province": "达沃区",
      "latitude": 7.5,
      "longitude": 126.0,
      "timezone": "Asia/Manila"
    },
    {
      "name": "",
      "name_en": "San Miguel",
      "province": "中央吕宋",
      "latitude": 15.1423,
      "longitude": 120.9757,
      "timezone": "Asia/Manila"
    },
    {
      "name": "",
      "name_en": "Quezon",
      "province": "中央吕宋",
      "latitude": 14.6488,
      "longitude": 121.0509,
      "timezone": "Asia/Manila"
    },
    {
      "name": "",
      "name_en": "General Mamerto Natividad",
      "province": "中央吕宋",
      "latitude": 15.6025,
      "longitude": 121.0515,
      "timezone": "Asia/Manila"
    },
    {
      "name": "",
      "name_en": "Maasin",
      "province": "东米沙鄢",
      "latitude": 10.1327,
      "longitude": 124.8408,
      "timezone": "Asia/Manila"
    },
    {
      "name": "",
      "name_en": "Veruela",
      "province": "卡拉加区",
      "latitude": 8.0731,
      "longitude": 125.9558,
      "timezone": "Asia/Manila"
    },
    {
      "name": "",
      "name_en": "Labo",
      "province": "比科尔",
      "latitude": 14.1532,
      "longitude": 122.8303,
      "timezone": "Asia/Manila"
    },
    {
      "name": "",
      "name_en": "Del Remedio",
      "province": "卡拉巴松",
      "latitude": 14.0866,
      "longitude": 121.3118,
      "timezone": "Asia/Manila"
    },
    {
      "name": "",
      "name_en": "Wao",
      "province": "棉兰老穆斯林自治区",
      "latitude": 7.6833,
      "longitude": 124.6667,
      "timezone": "Asia/Manila"
    },
    {
      "name": "",
      "name_en": "Pilar",
      "province": "中央吕宋",
      "latitude": 14.66,
      "longitude": 120.5653,
      "timezone": "Asia/Manila"
    },
    {
      "name": "",
      "name_en": "Laguilayan",
      "province": "索科斯克萨尔根",
      "latitude": 6.6721,
      "longitude": 124.5249,
      "timezone": "Asia/Manila"
    },
    {
      "name": "",
      "name_en": "Baybay",
      "province": "东米沙鄢",
      "latitude": 10.6785,
      "longitude": 124.8006,
      "timezone": "Asia/Manila"
    },
    {
      "name": "",
      "name_en": "Esperanza",
      "province": "比科尔",
      "latitude": 11.7365,
      "longitude": 124.042,
      "timezone": "Asia/Manila"
    },
    {
      "name": "",
      "name_en": "Palo",
      "province": "东米沙鄢",
      "latitude": 11.1575,
      "longitude": 124.9908,
      "timezone": "Asia/Manila"
    },
    {
      "name": "",
      "name_en": "Carigara",
      "province": "东米沙鄢",
      "latitude": 11.2981,
      "longitude": 124.679,
      "timezone": "Asia/Manila"
    },
    {
      "name": "",
      "name_en": "Murcia",
      "province": "西米沙鄢",
      "latitude": 10.6052,
      "longitude": 123.0417,
      "timezone": "Asia/Manila"
    },
    {
      "name": "",
      "name_en": "Maganoy",
      "province": "棉兰老穆斯林自治区",
      "latitude": 6.8647,
      "longitude": 124.4417,
      "timezone": "Asia/Manila"
    },
    {
      "name": "",
      "name_en": "Sitangkai",
      "province": "棉兰老穆斯林自治区",
      "latitude": 4.6612,
      "longitude": 119.3965,
      "timezone": "Asia/Manila"
    },
    {
      "name": "",
      "name_en": "Mahayag",
      "province": "三宝颜半岛",
      "latitude": 8.1183,
      "longitude": 123.4455,
      "timezone": "Asia/Manila"
    },
    {
      "name": "",
      "name_en": "Bato",
      "province": "比科尔",
      "latitude": 13.3528,
      "longitude": 123.3677,
      "timezone": "Asia/Manila"
    },
    {
      "name": "",
      "name_en": "Tiwi",
      "province": "比科尔",
      "latitude": 13.4585,
      "longitude": 123.6805,
      "timezone": "Asia/Manila"
    },
    {
      "name": "",
      "name_en": "Santa Maria",
      "province": "达沃区",
      "latitude": 16.9518,
      "longitude": 120.4445,
      "timezone": "Asia/Manila"
    },
    {
      "name": "",
      "name_en": "Laoang",
      "province": "东米沙鄢",
      "latitude": 18.1978,
      "longitude": 120.5957,
      "timezone": "Asia/Manila"
    },
    {
      "name": "",
      "name_en": "Nabunturan",
      "province": "达沃区",
      "latitude": 7.6078,
      "longitude": 125.9664,
      "timezone": "Asia/Manila"
    },
    {
      "name": "",
      "name_en": "Roxas",
      "province": "卡加延河谷",
      "latitude": 11.5853,
      "longitude": 122.7511,
      "timezone": "Asia/Manila"
    },
    {
      "name": "",
      "name_en": "Tanauan",
      "province": "东米沙鄢",
      "latitude": 14.0863,
      "longitude": 121.1497,
      "timezone": "Asia/Manila"
    },
    {
      "name": "",
      "name_en": "Cabayangan",
      "province": "达沃区",
      "latitude": 7.4072,
      "longitude": 125.7331,
      "timezone": "Asia/Manila"
    },
    {
      "name": "",
      "name_en": "Jasaan",
      "province": "北棉兰老",
      "latitude": 8.6542,
      "longitude": 124.7556,
      "timezone": "Asia/Manila"
    },
    {
      "name": "",
      "name_en": "Loboc",
      "province": "中米沙鄢",
      "latitude": 9.6383,
      "longitude": 124.0348,
      "timezone": "Asia/Manila"
    },
    {
      "name": "",
      "name_en": "Zumarraga",
      "province": "东米沙鄢",
      "latitude": 11.6388,
      "longitude": 124.8417,
      "timezone": "Asia/Manila"
    },
    {
      "name": "",
      "name_en": "San Mateo",
      "province": "卡加延河谷",
      "latitude": 14.6982,
      "longitude": 121.1236,
      "timezone": "Asia/Manila"
    },
    {
      "name": "",
      "name_en": "Aurora",
      "province": "卡拉巴松",
      "latitude": 13.3476,
      "longitude": 122.5195,
      "timezone": "Asia/Manila"
    },
    {
      "name": "",
      "name_en": "Morong",
      "province": "中央吕宋",
      "latitude": 14.5185,
      "longitude": 121.2378,
      "timezone": "Asia/Manila"
    },
    {
      "name": "",
      "name_en": "San Vicente",
      "province": "中央吕宋",
      "latitude": 15.2921,
      "longitude": 120.655,
      "timezone": "Asia/Manila"
    },
    {
      "name": "",
      "name_en": "Calatagan",
      "province": "卡拉巴松",
      "latitude": 13.8322,
      "longitude": 120.6322,
      "timezone": "Asia/Manila"
    },
    {
      "name": "",
      "name_en": "Novaliches Proper",
      "province": "National Capital Region",
      "latitude": 14.7226,
      "longitude": 121.0462,
      "timezone": "Asia/Manila"
    },
    {
      "name": "",
      "name_en": "Trento",
      "province": "卡拉加区",
      "latitude": 8.0458,
      "longitude": 126.0636,
      "timezone": "Asia/Manila"
    },
    {
      "name": "",
      "name_en": "Isabela",
      "province": "西米沙鄢",
      "latitude": 6.7041,
      "longitude": 121.9712,
      "timezone": "Asia/Manila"
    },
    {
      "name": "",
      "name_en": "Mankayan",
      "province": "科迪勒拉行政区",
      "latitude": 16.8632,
      "longitude": 120.7829,
      "timezone": "Asia/Manila"
    },
    {
      "name": "",
      "name_en": "Abuyog",
      "province": "东米沙鄢",
      "latitude": 10.747,
      "longitude": 125.0107,
      "timezone": "Asia/Manila"
    },
    {
      "name": "",
      "name_en": "Calumpang",
      "province": "National Capital Region",
      "latitude": 14.6228,
      "longitude": 121.0897,
      "timezone": "Asia/Manila"
    },
    {
      "name": "",
      "name_en": "Talacogon",
      "province": "卡拉加区",
      "latitude": 8.4561,
      "longitude": 125.7842,
      "timezone": "Asia/Manila"
    },
    {
      "name": "",
      "name_en": "Diadi",
      "province": "卡加延河谷",
      "latitude": 16.7262,
      "longitude": 121.3589,
      "timezone": "Asia/Manila"
    },
    {
      "name": "",
      "name_en": "Boroon",
      "province": "北棉兰老",
      "latitude": 8.1828,
      "longitude": 124.177,
      "timezone": "Asia/Manila"
    },
    {
      "name": "",
      "name_en": "Santa Barbara",
      "province": "伊罗戈",
      "latitude": 16.0009,
      "longitude": 120.4023,
      "timezone": "Asia/Manila"
    },
    {
      "name": "",
      "name_en": "Santa Cruz",
      "province": "中央吕宋",
      "latitude": 14.2732,
      "longitude": 121.0764,
      "timezone": "Asia/Manila"
    },
    {
      "name": "",
      "name_en": "Romblon",
      "province": "民马罗巴区",
      "latitude": 12.5751,
      "longitude": 122.2708,
      "timezone": "Asia/Manila"
    },
    {
      "name": "",
      "name_en": "Tagas",
      "province": "比科尔",
      "latitude": 13.1667,
      "longitude": 123.7167,
      "timezone": "Asia/Manila"
    },
    {
      "name": "",
      "name_en": "Lilio",
      "province": "卡拉巴松",
      "latitude": 14.1313,
      "longitude": 121.4362,
      "timezone": "Asia/Manila"
    },
    {
      "name": "",
      "name_en": "Roxas",
      "province": "民马罗巴区",
      "latitude": 11.5853,
      "longitude": 122.7511,
      "timezone": "Asia/Manila"
    },
    {
      "name": "",
      "name_en": "Magarao",
      "province": "比科尔",
      "latitude": 13.6604,
      "longitude": 123.1869,
      "timezone": "Asia/Manila"
    },
    {
      "name": "",
      "name_en": "Dologon",
      "province": "北棉兰老",
      "latitude": 7.8408,
      "longitude": 125.0444,
      "timezone": "Asia/Manila"
    },
    {
      "name": "",
      "name_en": "Domalanoan",
      "province": "伊罗戈",
      "latitude": 16.0029,
      "longitude": 120.2115,
      "timezone": "Asia/Manila"
    },
    {
      "name": "",
      "name_en": "Babo-Pangulo",
      "province": "中央吕宋",
      "latitude": 15.0833,
      "longitude": 120.5167,
      "timezone": "Asia/Manila"
    },
    {
      "name": "",
      "name_en": "Ramos",
      "province": "中央吕宋",
      "latitude": 15.6653,
      "longitude": 120.6406,
      "timezone": "Asia/Manila"
    },
    {
      "name": "",
      "name_en": "Pikit",
      "province": "索科斯克萨尔根",
      "latitude": 7.0544,
      "longitude": 124.6719,
      "timezone": "Asia/Manila"
    },
    {
      "name": "",
      "name_en": "Poblacion, San Felipe",
      "province": "中央吕宋",
      "latitude": 15.0622,
      "longitude": 120.07,
      "timezone": "Asia/Manila"
    },
    {
      "name": "",
      "name_en": "Guiljungan",
      "province": "西米沙鄢",
      "latitude": 9.9805,
      "longitude": 122.6742,
      "timezone": "Asia/Manila"
    },
    {
      "name": "",
      "name_en": "Lusacan",
      "province": "卡拉巴松",
      "latitude": 13.9552,
      "longitude": 121.3448,
      "timezone": "Asia/Manila"
    },
    {
      "name": "",
      "name_en": "New Visayas",
      "province": "达沃区",
      "latitude": 7.5233,
      "longitude": 125.6233,
      "timezone": "Asia/Manila"
    },
    {
      "name": "",
      "name_en": "Agusan",
      "province": "北棉兰老",
      "latitude": 8.4906,
      "longitude": 124.7372,
      "timezone": "Asia/Manila"
    },
    {
      "name": "",
      "name_en": "Lalig",
      "province": "卡拉巴松",
      "latitude": 13.9825,
      "longitude": 121.3265,
      "timezone": "Asia/Manila"
    },
    {
      "name": "",
      "name_en": "Sangali",
      "province": "三宝颜半岛",
      "latitude": 7.0694,
      "longitude": 122.2014,
      "timezone": "Asia/Manila"
    },
    {
      "name": "",
      "name_en": "Santa Elena",
      "province": "比科尔",
      "latitude": 14.1702,
      "longitude": 122.3825,
      "timezone": "Asia/Manila"
    },
    {
      "name": "",
      "name_en": "Buayan",
      "province": "索科斯克萨尔根",
      "latitude": 6.1164,
      "longitude": 125.2347,
      "timezone": "Asia/Manila"
    },
    {
      "name": "",
      "name_en": "Margosatubig",
      "province": "三宝颜半岛",
      "latitude": 7.5777,
      "longitude": 123.1658,
      "timezone": "Asia/Manila"
    },
    {
      "name": "",
      "name_en": "Kansipati",
      "province": "棉兰老穆斯林自治区",
      "latitude": 6.0011,
      "longitude": 121.2344,
      "timezone": "Asia/Manila"
    },
    {
      "name": "",
      "name_en": "Bigaa",
      "province": "比科尔",
      "latitude": 13.1993,
      "longitude": 123.7566,
      "timezone": "Asia/Manila"
    },
    {
      "name": "",
      "name_en": "Kalilangan",
      "province": "北棉兰老",
      "latitude": 7.7451,
      "longitude": 124.7478,
      "timezone": "Asia/Manila"
    },
    {
      "name": "",
      "name_en": "Belison",
      "province": "西米沙鄢",
      "latitude": 10.8384,
      "longitude": 121.9605,
      "timezone": "Asia/Manila"
    },
    {
      "name": "",
      "name_en": "Eustaquio Lopez",
      "province": "西米沙鄢",
      "latitude": 10.8195,
      "longitude": 123.0412,
      "timezone": "Asia/Manila"
    },
    {
      "name": "",
      "name_en": "Oton",
      "province": "西米沙鄢",
      "latitude": 10.6931,
      "longitude": 122.4736,
      "timezone": "Asia/Manila"
    },
    {
      "name": "",
      "name_en": "Roxas",
      "province": "民马罗巴区",
      "latitude": 11.5853,
      "longitude": 122.7511,
      "timezone": "Asia/Manila"
    },
    {
      "name": "",
      "name_en": "Dalipuga",
      "province": "北棉兰老",
      "latitude": 8.3158,
      "longitude": 124.2547,
      "timezone": "Asia/Manila"
    },
    {
      "name": "",
      "name_en": "Bacacay",
      "province": "比科尔",
      "latitude": 13.2934,
      "longitude": 123.7919,
      "timezone": "Asia/Manila"
    },
    {
      "name": "",
      "name_en": "Bulihan",
      "province": "卡拉巴松",
      "latitude": 14.2782,
      "longitude": 120.995,
      "timezone": "Asia/Manila"
    },
    {
      "name": "",
      "name_en": "Dalican",
      "province": "棉兰老穆斯林自治区",
      "latitude": 6.9667,
      "longitude": 124.4,
      "timezone": "Asia/Manila"
    },
    {
      "name": "",
      "name_en": "Ocaña",
      "province": "中米沙鄢",
      "latitude": 10.0656,
      "longitude": 123.6244,
      "timezone": "Asia/Manila"
    },
    {
      "name": "",
      "name_en": "Makilala",
      "province": "索科斯克萨尔根",
      "latitude": 6.9517,
      "longitude": 125.0969,
      "timezone": "Asia/Manila"
    },
    {
      "name": "",
      "name_en": "Manggahan",
      "province": "卡拉巴松",
      "latitude": 14.292,
      "longitude": 120.9014,
      "timezone": "Asia/Manila"
    },
    {
      "name": "",
      "name_en": "Bansud",
      "province": "民马罗巴区",
      "latitude": 12.865,
      "longitude": 121.4564,
      "timezone": "Asia/Manila"
    },
    {
      "name": "",
      "name_en": "Casisang",
      "province": "北棉兰老",
      "latitude": 8.1381,
      "longitude": 125.125,
      "timezone": "Asia/Manila"
    },
    {
      "name": "",
      "name_en": "Bula",
      "province": "比科尔",
      "latitude": 13.4701,
      "longitude": 123.278,
      "timezone": "Asia/Manila"
    },
    {
      "name": "",
      "name_en": "Maranding",
      "province": "北棉兰老",
      "latitude": 7.9248,
      "longitude": 123.7715,
      "timezone": "Asia/Manila"
    },
    {
      "name": "",
      "name_en": "Magapit, Aguiguican",
      "province": "卡加延河谷",
      "latitude": 18.1079,
      "longitude": 121.677,
      "timezone": "Asia/Manila"
    },
    {
      "name": "",
      "name_en": "Nibaliw Central",
      "province": "伊罗戈",
      "latitude": 16.1275,
      "longitude": 120.4027,
      "timezone": "Asia/Manila"
    },
    {
      "name": "",
      "name_en": "Lianga",
      "province": "卡拉加区",
      "latitude": 8.6336,
      "longitude": 126.0947,
      "timezone": "Asia/Manila"
    },
    {
      "name": "",
      "name_en": "Pagsañgahan",
      "province": "卡拉巴松",
      "latitude": 13.2158,
      "longitude": 122.5431,
      "timezone": "Asia/Manila"
    },
    {
      "name": "",
      "name_en": "Minalin",
      "province": "中央吕宋",
      "latitude": 14.9676,
      "longitude": 120.6828,
      "timezone": "Asia/Manila"
    },
    {
      "name": "",
      "name_en": "Pio Duran",
      "province": "比科尔",
      "latitude": 13.0293,
      "longitude": 123.445,
      "timezone": "Asia/Manila"
    },
    {
      "name": "",
      "name_en": "Buco",
      "province": "卡拉巴松",
      "latitude": 14.0832,
      "longitude": 120.9902,
      "timezone": "Asia/Manila"
    },
    {
      "name": "",
      "name_en": "Tucuran",
      "province": "三宝颜半岛",
      "latitude": 7.8524,
      "longitude": 123.5743,
      "timezone": "Asia/Manila"
    },
    {
      "name": "",
      "name_en": "Payocpoc Sur",
      "province": "伊罗戈",
      "latitude": 16.4944,
      "longitude": 120.3281,
      "timezone": "Asia/Manila"
    },
    {
      "name": "",
      "name_en": "Lutayan",
      "province": "索科斯克萨尔根",
      "latitude": 6.6189,
      "longitude": 124.8816,
      "timezone": "Asia/Manila"
    },
    {
      "name": "",
      "name_en": "Codcod",
      "province": "西米沙鄢",
      "latitude": 10.4634,
      "longitude": 123.2495,
      "timezone": "Asia/Manila"
    },
    {
      "name": "",
      "name_en": "Toboso",
      "province": "西米沙鄢",
      "latitude": 10.7143,
      "longitude": 123.5162,
      "timezone": "Asia/Manila"
    },
    {
      "name": "",
      "name_en": "Labuan",
      "province": "三宝颜半岛",
      "latitude": 7.0997,
      "longitude": 121.9042,
      "timezone": "Asia/Manila"
    },
    {
      "name": "",
      "name_en": "Sipocot",
      "province": "比科尔",
      "latitude": 13.768,
      "longitude": 122.9762,
      "timezone": "Asia/Manila"
    },
    {
      "name": "",
      "name_en": "Janiuay",
      "province": "西米沙鄢",
      "latitude": 10.9493,
      "longitude": 122.5061,
      "timezone": "Asia/Manila"
    },
    {
      "name": "",
      "name_en": "Agutaya",
      "province": "民马罗巴区",
      "latitude": 11.148,
      "longitude": 120.9417,
      "timezone": "Asia/Manila"
    },