{
  "country_code": "TJ",
  "country_name": "塔吉克斯坦",
  "cities": [
    {
      "name": "杜尚别",
      "name_en": "Dushanbe",
      "province": "Dushanbe",
      "latitude": 38.5358,
      "longitude": 68.779,
      "timezone": "Asia/Dushanbe"
    },
    {
      "name": "伊斯法拉",
      "name_en": "Isfara",
      "province": "Sughd",
      "latitude": 40.1265,
      "longitude": 70.6253,
      "timezone": "Asia/Dushanbe"
    },
    {
      "name": "伊斯塔拉夫尚",
      "name_en": "Istaravshan",
      "province": "Sughd",
      "latitude": 39.9142,
      "longitude": 69.0033,
      "timezone": "Asia/Dushanbe"
    },
    {
      "name": "",
      "name_en": "Kŭlob",
      "province": "哈特隆州",
      "latitude": 37.9146,
      "longitude": 69.7845,
      "timezone": "Asia/Dushanbe"
    },
    {
      "name": "科尼博多姆",
      "name_en": "Konibodom",
      "province": "Sughd",
      "latitude": 40.2941,
      "longitude": 70.4312,
      "timezone": "Asia/Dushanbe"
    },
    {
      "name": "苦盏",
      "name_en": "Khujand",
      "province": "Sughd",
      "latitude": 40.2826,
      "longitude": 69.6222,
      "timezone": "Asia/Dushanbe"
    },
    {
      "name": "",
      "name_en": "Bokhtar",
      "province": "哈特隆州",
      "latitude": 37.8365,
      "longitude": 68.7776,
      "timezone": "Asia/Dushanbe"
    },
    {
      "name": "",
      "name_en": "Qayroqqum",
      "province": "Sughd",
      "latitude": 40.266,
      "longitude": 69.7959,
      "timezone": "Asia/Dushanbe"
    },
    {
      "name": "",
      "name_en": "Vahdat",
      "province": "Republican Subordination",
      "latitude": 38.5563,
      "longitude": 69.0135,
      "timezone": "Asia/Dushanbe"
    },
    {
      "name": "图尔孙扎德",
      "name_en": "Tursunzoda",
      "province": "Republican Subordination",
      "latitude": 38.5127,
      "longitude": 68.2316,
      "timezone": "Asia/Dushanbe"
    },
    {
      "name": "契卡洛夫斯克",
      "name_en": "Buston",
      "province": "Sughd",
      "latitude": 40.2342,
      "longitude": 69.6948,
      "timezone": "Asia/Dushanbe"
    },
    {
      "name": "彭吉肯特",
      "name_en": "Panjakent",
      "province": "Sughd",
      "latitude": 39.4952,
      "longitude": 67.6093,
      "timezone": "Asia/Dushanbe"
    },
    {
      "name": "",
      "name_en": "Zarhalol",
      "province": "哈特隆州",
      "latitude": 37.4647,
      "longitude": 68.1695,
      "timezone": "Asia/Dushanbe"
    },
    {
      "name": "",
      "name_en": "Khorugh",
      "province": "Gorno-Badakhshan",
      "latitude": 37.4904,
      "longitude": 71.5534,
      "timezone": "Asia/Dushanbe"
    },
    {
      "name": "",
      "name_en": "Muchun",
      "province": "Sughd",
      "latitude": 39.8815,
      "longitude": 69.1822,
      "timezone": "Asia/Dushanbe"
    },
    {
      "name": "",
      "name_en": "Ishqoshim",
      "province": "Gorno-Badakhshan",
      "latitude": 36.7248,
      "longitude": 71.6133,
      "timezone": "Asia/Dushanbe"
    },
    {
      "name": "",
      "name_en": "Hisor",
      "province": "Republican Subordination",
      "latitude": 38.525,
      "longitude": 68.5512,
      "timezone": "Asia/Dushanbe"
    },
    {
      "name": "",
      "name_en": "Boshkengash",
      "province": "Dushanbe",
      "latitude": 38.4661,
      "longitude": 68.8053,
      "timezone": "Asia/Dushanbe"
    },
    {
      "name": "",
      "name_en": "Dalyoni Bolo",
      "province": "Sughd",
      "latitude": 39.749,
      "longitude": 68.9957,
      "timezone": "Asia/Dushanbe"
    },
    {
      "name": "",
      "name_en": "Danghara",
      "province": "哈特隆州",
      "latitude": 38.0958,
      "longitude": 69.34,
      "timezone": "Asia/Dushanbe"
    },
    {
      "name": "",
      "name_en": "Moskovskiy",
      "province": "哈特隆州",
      "latitude": 37.6093,
      "longitude": 68.5809,
      "timezone": "Asia/Dushanbe"
    },
    {
      "name": "",
      "name_en": "Farkhor",
      "province": "哈特隆州",
      "latitude": 37.4922,
      "longitude": 69.4036,
      "timezone": "Asia/Dushanbe"
    },
    {
      "name": "",
      "name_en": "Hulbuk",
      "province": "哈特隆州",
      "latitude": 37.8054,
      "longitude": 69.6452,
      "timezone": "Asia/Dushanbe"
    },
    {
      "name": "",
      "name_en": "Chubek",
      "province": "哈特隆州",
      "latitude": 37.6145,
      "longitude": 69.7053,
      "timezone": "Asia/Dushanbe"
    },
    {
      "name": "",
      "name_en": "Kolkhozobod",
      "province": "哈特隆州",
      "latitude": 37.5882,
      "longitude": 68.6589,
      "timezone": "Asia/Dushanbe"
    },
    {
      "name": "",
      "name_en": "Norak",
      "province": "哈特隆州",
      "latitude": 38.3892,
      "longitude": 69.3227,
      "timezone": "Asia/Dushanbe"
    },
    {
      "name": "",
      "name_en": "Istiqlol",
      "province": "Sughd",
      "latitude": 40.5702,
      "longitude": 69.6418,
      "timezone": "Asia/Dushanbe"
    },
    {
      "name": "",
      "name_en": "Yovon",
      "province": "哈特隆州",
      "latitude": 38.3141,
      "longitude": 69.0378,
      "timezone": "Asia/Dushanbe"
    },
    {
      "name": "",
      "name_en": "Proletar",
      "province": "Sughd",
      "latitude": 40.1671,
      "longitude": 69.5016,
      "timezone": "Asia/Dushanbe"
    },
    {
      "name": "",
      "name_en": "Vakhsh",
      "province": "哈特隆州",
      "latitude": 37.7148,
      "longitude": 68.8346,
      "timezone": "Asia/Dushanbe"
    },
    {
      "name": "",
      "name_en": "Nov",
      "province": "Sughd",
      "latitude": 40.1522,
      "longitude": 69.3708,
      "timezone": "Asia/Dushanbe"
    },
    {
      "name": "",
      "name_en": "Amondara",
      "province": "Sughd",
      "latitude": 39.5144,
      "longitude": 67.8108,
      "timezone": "Asia/Dushanbe"
    },
    {
      "name": "",
      "name_en": "Adrasmon",
      "province": "Sughd",
      "latitude": 40.6493,
      "longitude": 69.9847,
      "timezone": "Asia/Dushanbe"
    },
    {
      "name": "",
      "name_en": "Bŭston",
      "province": "Sughd",
      "latitude": 40.5229,
      "longitude": 69.3331,
      "timezone": "Asia/Dushanbe"
    },
    {
      "name": "",
      "name_en": "Shahritus",
      "province": "哈特隆州",
      "latitude": 37.2621,
      "longitude": 68.1385,
      "timezone": "Asia/Dushanbe"
    },
    {
      "name": "",
      "name_en": "Mŭ’minobod",
      "province": "哈特隆州",
      "latitude": 38.1071,
      "longitude": 70.0321,
      "timezone": "Asia/Dushanbe"
    },
    {
      "name": "",
      "name_en": "Shaydon",
      "province": "Sughd",
      "latitude": 40.6699,
      "longitude": 70.3502,
      "timezone": "Asia/Dushanbe"
    },
    {
      "name": "",
      "name_en": "Murghob",
      "province": "Gorno-Badakhshan",
      "latitude": 38.1702,
      "longitude": 73.9667,
      "timezone": "Asia/Dushanbe"
    },
    {
      "name": "",
      "name_en": "Rasht",
      "province": "Republican Subordination",
      "latitude": 39.0287,
      "longitude": 70.3745,
      "timezone": "Asia/Dushanbe"
    },
    {
      "name": "",
      "name_en": "Avzikent",
      "province": "哈特隆州",
      "latitude": 37.8033,
      "longitude": 69.2772,
      "timezone": "Asia/Dushanbe"
    },
    {
      "name": "",
      "name_en": "Nijoní",
      "province": "Sughd",
      "latitude": 39.9594,
      "longitude": 68.9242,
      "timezone": "Asia/Dushanbe"
    },
    {
      "name": "",
      "name_en": "Abdurahmoni Jomí",
      "province": "哈特隆州",
      "latitude": 37.9464,
      "longitude": 68.8088,
      "timezone": "Asia/Dushanbe"
    },
    {
      "name": "",
      "name_en": "Khodzha-Maston",
      "province": "Republican Subordination",
      "latitude": 38.7446,
      "longitude": 68.627,
      "timezone": "Asia/Dushanbe"
    },
    {
      "name": "",
      "name_en": "Dŭstí",
      "province": "哈特隆州",
      "latitude": 37.3481,
      "longitude": 68.664,
      "timezone": "Asia/Dushanbe"
    },
    {
      "name": "",
      "name_en": "Sovet",
      "province": "哈特隆州",
      "latitude": 38.0467,
      "longitude": 69.5882,
      "timezone": "Asia/Dushanbe"
    },
    {
      "name": "",
      "name_en": "Gharavŭtí",
      "province": "哈特隆州",
      "latitude": 37.567,
      "longitude": 68.4467,
      "timezone": "Asia/Dushanbe"
    },
    {
      "name": "",
      "name_en": "Pakhtakoron",
      "province": "Sughd",
      "latitude": 40.1571,
      "longitude": 68.7466,
      "timezone": "Asia/Dushanbe"
    },
    {
      "name": "",
      "name_en": "Panj",
      "province": "哈特隆州",
      "latitude": 37.2363,
      "longitude": 69.0991,
      "timezone": "Asia/Dushanbe"
    },
    {
      "name": "",
      "name_en": "20-solagii Istiḳlolijati Toçikiston",
      "province": "哈特隆州",
      "latitude": 37.5475,
      "longitude": 68.4605,
      "timezone": "Asia/Dushanbe"
    },
    {
      "name": "",
      "name_en": "Bokhtariyon",
      "province": "哈特隆州",
      "latitude": 37.8818,
      "longitude": 68.7297,
      "timezone": "Asia/Dushanbe"
    },
    {
      "name": "",
      "name_en": "Roghun",
      "province": "Republican Subordination",
      "latitude": 38.7826,
      "longitude": 69.8708,
      "timezone": "Asia/Dushanbe"
    },
    {
      "name": "",
      "name_en": "Kirov",
      "province": "哈特隆州",
      "latitude": 37.8191,
      "longitude": 68.859,
      "timezone": "Asia/Dushanbe"
    },
    {
      "name": "",
      "name_en": "Obigarm",
      "province": "Republican Subordination",
      "latitude": 38.7173,
      "longitude": 69.7088,
      "timezone": "Asia/Dushanbe"
    },
    {
      "name": "",
      "name_en": "Chorbogh",
      "province": "Sughd",
      "latitude": 39.4262,
      "longitude": 67.7602,
      "timezone": "Asia/Dushanbe"
    },
    {
      "name": "",
      "name_en": "Tavildara",
      "province": "Republican Subordination",
      "latitude": 38.6953,
      "longitude": 70.4842,
      "timezone": "Asia/Dushanbe"
    },
    {
      "name": "",
      "name_en": "Konsoy",
      "province": "Sughd",
      "latitude": 40.4915,
      "longitude": 69.7024,
      "timezone": "Asia/Dushanbe"
    },
    {
      "name": "",
      "name_en": "Orzu",
      "province": "哈特隆州",
      "latitude": 37.5582,
      "longitude": 68.8195,
      "timezone": "Asia/Dushanbe"
    },
    {
      "name": "",
      "name_en": "Sarikhosor",
      "province": "哈特隆州",
      "latitude": 38.5385,
      "longitude": 69.8308,
      "timezone": "Asia/Dushanbe"
    },
    {
      "name": "",
      "name_en": "Jilikŭl",
      "province": "哈特隆州",
      "latitude": 37.4917,
      "longitude": 68.5311,
      "timezone": "Asia/Dushanbe"
    },
    {
      "name": "",
      "name_en": "Shahrinav",
      "province": "Republican Subordination",
      "latitude": 38.5709,
      "longitude": 68.335,
      "timezone": "Asia/Dushanbe"
    },
    {
      "name": "",
      "name_en": "Novobod",
      "province": "Republican Subordination",
      "latitude": 39.0108,
      "longitude": 70.1508,
      "timezone": "Asia/Dushanbe"
    },
    {
      "name": "",
      "name_en": "Panji Poyon",
      "province": "哈特隆州",
      "latitude": 37.1944,
      "longitude": 68.5772,
      "timezone": "Asia/Dushanbe"
    }
  ]
}
