{
  "country_code": "DE",
  "country_name": "德国",
  "cities": [
    {
      "name": "柏林",
      "name_en": "Berlin",
      "province": "柏林",
      "latitude": 52.5244,
      "longitude": 13.4105,
      "timezone": "Europe/Berlin"
    },
    {
      "name": "汉堡",
      "name_en": "Hamburg",
      "province": "汉堡",
      "latitude": 53.5507,
      "longitude": 9.993,
      "timezone": "Europe/Berlin"
    },
    {
      "name": "慕尼黑",
      "name_en": "Munich",
      "province": "巴伐利亚州",
      "latitude": 48.1374,
      "longitude": 11.5755,
      "timezone": "Europe/Berlin"
    },
    {
      "name": "科隆",
      "name_en": "Köln",
      "province": "北莱茵－威斯特法伦",
      "latitude": 50.9333,
      "longitude": 6.95,
      "timezone": "Europe/Berlin"
    },
    {
      "name": "法兰克福",
      "name_en": "Frankfurt am Main",
      "province": "黑森州",
      "latitude": 50.1155,
      "longitude": 8.6842,
      "timezone": "Europe/Berlin"
    },
    {
      "name": "斯图加特",
      "name_en": "Stuttgart",
      "province": "巴登－符腾堡",
      "latitude": 48.7823,
      "longitude": 9.177,
      "timezone": "Europe/Berlin"
    },
    {
      "name": "杜塞尔多夫",
      "name_en": "Düsseldorf",
      "province": "北莱茵－威斯特法伦",
      "latitude": 51.2217,
      "longitude": 6.7762,
      "timezone": "Europe/Berlin"
    },
    {
      "name": "埃森",
      "name_en": "Essen",
      "province": "北莱茵－威斯特法伦",
      "latitude": 51.4566,
      "longitude": 7.0123,
      "timezone": "Europe/Berlin"
    },
    {
      "name": "多特蒙德",
      "name_en": "Dortmund",
      "province": "北莱茵－威斯特法伦",
      "latitude": 51.5149,
      "longitude": 7.466,
      "timezone": "Europe/Berlin"
    },
    {
      "name": "德累斯顿",
      "name_en": "Dresden",
      "province": "萨克森州",
      "latitude": 51.0509,
      "longitude": 13.7383,
      "timezone": "Europe/Berlin"
    },
    {
      "name": "不来梅",
      "name_en": "Bremen",
      "province": "不来梅州",
      "latitude": 53.0758,
      "longitude": 8.8072,
      "timezone": "Europe/Berlin"
    },
    {
      "name": "纽伦堡",
      "name_en": "Nürnberg",
      "province": "巴伐利亚州",
      "latitude": 49.4542,
      "longitude": 11.0775,
      "timezone": "Europe/Berlin"
    },
    {
      "name": "汉诺威",
      "name_en": "Hannover",
      "province": "下萨克森",
      "latitude": 52.3705,
      "longitude": 9.7332,
      "timezone": "Europe/Berlin"
    },
    {
      "name": "莱比锡",
      "name_en": "Leipzig",
      "province": "萨克森州",
      "latitude": 51.3396,
      "longitude": 12.3713,
      "timezone": "Europe/Berlin"
    },
    {
      "name": "杜伊斯堡",
      "name_en": "Duisburg",
      "province": "北莱茵－威斯特法伦",
      "latitude": 51.4325,
      "longitude": 6.7652,
      "timezone": "Europe/Berlin"
    },
    {
      "name": "",
      "name_en": "Wandsbek",
      "province": "汉堡",
      "latitude": 53.5833,
      "longitude": 10.0831,
      "timezone": "Europe/Berlin"
    },
    {
      "name": "波鸿",
      "name_en": "Bochum",
      "province": "北莱茵－威斯特法伦",
      "latitude": 51.4817,
      "longitude": 7.2165,
      "timezone": "Europe/Berlin"
    },
    {
      "name": "伍珀塔尔",
      "name_en": "Wuppertal",
      "province": "北莱茵－威斯特法伦",
      "latitude": 51.2563,
      "longitude": 7.1482,
      "timezone": "Europe/Berlin"
    },
    {
      "name": "比勒费尔德",
      "name_en": "Bielefeld",
      "province": "北莱茵－威斯特法伦",
      "latitude": 52.0333,
      "longitude": 8.5333,
      "timezone": "Europe/Berlin"
    },
    {
      "name": "波恩",
      "name_en": "Bonn",
      "province": "北莱茵－威斯特法伦",
      "latitude": 50.7344,
      "longitude": 7.0955,
      "timezone": "Europe/Berlin"
    },
    {
      "name": "汉堡北区",
      "name_en": "Hamburg-Nord",
      "province": "汉堡",
      "latitude": 53.5894,
      "longitude": 9.984,
      "timezone": "Europe/Berlin"
    },
    {
      "name": "曼海姆",
      "name_en": "Mannheim",
      "province": "巴登－符腾堡",
      "latitude": 49.4891,
      "longitude": 8.4669,
      "timezone": "Europe/Berlin"
    },
    {
      "name": "汉堡中区",
      "name_en": "Hamburg-Mitte",
      "province": "汉堡",
      "latitude": 53.55,
      "longitude": 10.0167,
      "timezone": "Europe/Berlin"
    },
    {
      "name": "",
      "name_en": "Marienthal",
      "province": "汉堡",
      "latitude": 53.5667,
      "longitude": 10.0833,
      "timezone": "Europe/Berlin"
    },
    {
      "name": "卡尔斯鲁厄",
      "name_en": "Karlsruhe",
      "province": "巴登－符腾堡",
      "latitude": 49.0094,
      "longitude": 8.4044,
      "timezone": "Europe/Berlin"
    },
    {
      "name": "威斯巴登",
      "name_en": "Wiesbaden",
      "province": "黑森州",
      "latitude": 50.086,
      "longitude": 8.2444,
      "timezone": "Europe/Berlin"
    },
    {
      "name": "明斯特",
      "name_en": "Münster",
      "province": "北莱茵－威斯特法伦",
      "latitude": 51.9624,
      "longitude": 7.6257,
      "timezone": "Europe/Berlin"
    },
    {
      "name": "盖尔森基兴",
      "name_en": "Gelsenkirchen",
      "province": "北莱茵－威斯特法伦",
      "latitude": 51.5051,
      "longitude": 7.0965,
      "timezone": "Europe/Berlin"
    },
    {
      "name": "艾姆斯比特尔区",
      "name_en": "Eimsbüttel",
      "province": "汉堡",
      "latitude": 53.5742,
      "longitude": 9.9568,
      "timezone": "Europe/Berlin"
    },
    {
      "name": "亚琛",
      "name_en": "Aachen",
      "province": "北莱茵－威斯特法伦",
      "latitude": 50.7766,
      "longitude": 6.0834,
      "timezone": "Europe/Berlin"
    },
    {
      "name": "门兴格拉德巴赫",
      "name_en": "Mönchengladbach",
      "province": "北莱茵－威斯特法伦",
      "latitude": 51.1854,
      "longitude": 6.4417,
      "timezone": "Europe/Berlin"
    },
    {
      "name": "奥格斯堡",
      "name_en": "Augsburg",
      "province": "巴伐利亚州",
      "latitude": 48.3715,
      "longitude": 10.8985,
      "timezone": "Europe/Berlin"
    },
    {
      "name": "阿尔托纳区",
      "name_en": "Altona",
      "province": "汉堡",
      "latitude": 53.55,
      "longitude": 9.9333,
      "timezone": "Europe/Berlin"
    },
    {
      "name": "开姆尼茨",
      "name_en": "Chemnitz",
      "province": "萨克森州",
      "latitude": 50.8357,
      "longitude": 12.9292,
      "timezone": "Europe/Berlin"
    },
    {
      "name": "基尔",
      "name_en": "Kiel",
      "province": "石勒苏益格-荷尔斯泰因",
      "latitude": 54.3213,
      "longitude": 10.1349,
      "timezone": "Europe/Berlin"
    },
    {
      "name": "不伦瑞克",
      "name_en": "Braunschweig",
      "province": "下萨克森",
      "latitude": 52.2659,
      "longitude": 10.5267,
      "timezone": "Europe/Berlin"
    },
    {
      "name": "克雷费尔德",
      "name_en": "Krefeld",
      "province": "北莱茵－威斯特法伦",
      "latitude": 51.3364,
      "longitude": 6.5538,
      "timezone": "Europe/Berlin"
    },
    {
      "name": "",
      "name_en": "Halle (Saale)",
      "province": "萨克森-安哈尔特",
      "latitude": 51.4816,
      "longitude": 11.9795,
      "timezone": "Europe/Berlin"
    },
    {
      "name": "马格德堡",
      "name_en": "Magdeburg",
      "province": "萨克森-安哈尔特",
      "latitude": 52.1313,
      "longitude": 11.6319,
      "timezone": "Europe/Berlin"
    },
    {
      "name": "",
      "name_en": "Neue Neustadt",
      "province": "萨克森-安哈尔特",
      "latitude": 52.15,
      "longitude": 11.6333,
      "timezone": "Europe/Berlin"
    },
    {
      "name": "奥伯豪森",
      "name_en": "Oberhausen",
      "province": "北莱茵－威斯特法伦",
      "latitude": 51.4781,
      "longitude": 6.8625,
      "timezone": "Europe/Berlin"
    },
    {
      "name": "美因茨",
      "name_en": "Mainz",
      "province": "莱茵兰－普法尔茨",
      "latitude": 49.9819,
      "longitude": 8.2801,
      "timezone": "Europe/Berlin"
    },
    {
      "name": "弗莱堡",
      "name_en": "Freiburg",
      "province": "巴登－符腾堡",
      "latitude": 47.9959,
      "longitude": 7.8522,
      "timezone": "Europe/Berlin"
    },
    {
      "name": "埃尔福特",
      "name_en": "Erfurt",
      "province": "Thuringia",
      "latitude": 50.9773,
      "longitude": 11.0354,
      "timezone": "Europe/Berlin"
    },
    {
      "name": "吕贝克",
      "name_en": "Lübeck",
      "province": "石勒苏益格-荷尔斯泰因",
      "latitude": 53.8689,
      "longitude": 10.6873,
      "timezone": "Europe/Berlin"
    },
    {
      "name": "",
      "name_en": "Hagen",
      "province": "北莱茵－威斯特法伦",
      "latitude": 51.3608,
      "longitude": 7.4717,
      "timezone": "Europe/Berlin"
    },
    {
      "name": "罗斯托克",
      "name_en": "Rostock",
      "province": "梅克伦堡－前波美拉尼亚",
      "latitude": 54.0887,
      "longitude": 12.1405,
      "timezone": "Europe/Berlin"
    },
    {
      "name": "卡塞尔",
      "name_en": "Kassel",
      "province": "黑森州",
      "latitude": 51.3167,
      "longitude": 9.5,
      "timezone": "Europe/Berlin"
    },
    {
      "name": "波茨坦",
      "name_en": "Potsdam",
      "province": "勃兰登堡",
      "latitude": 52.3989,
      "longitude": 13.0657,
      "timezone": "Europe/Berlin"
    },
    {
      "name": "萨尔布吕肯",
      "name_en": "Saarbrücken",
      "province": "萨尔兰州",
      "latitude": 49.2326,
      "longitude": 7.0098,
      "timezone": "Europe/Berlin"
    },
    {
      "name": "哈姆",
      "name_en": "Hamm",
      "province": "北莱茵－威斯特法伦",
      "latitude": 51.6803,
      "longitude": 7.8209,
      "timezone": "Europe/Berlin"
    },
    {
      "name": "黑尔讷",
      "name_en": "Herne",
      "province": "北莱茵－威斯特法伦",
      "latitude": 51.5388,
      "longitude": 7.2257,
      "timezone": "Europe/Berlin"
    },
    {
      "name": "",
      "name_en": "Mülheim",
      "province": "北莱茵－威斯特法伦",
      "latitude": 51.4322,
      "longitude": 6.8797,
      "timezone": "Europe/Berlin"
    },
    {
      "name": "汉堡区",
      "name_en": "Harburg",
      "province": "汉堡",
      "latitude": 53.4606,
      "longitude": 9.9839,
      "timezone": "Europe/Berlin"
    },
    {
      "name": "奥斯纳布吕克",
      "name_en": "Osnabrück",
      "province": "下萨克森",
      "latitude": 52.2726,
      "longitude": 8.0498,
      "timezone": "Europe/Berlin"
    },
    {
      "name": "",
      "name_en": "Neukölln",
      "province": "柏林",
      "latitude": 52.4772,
      "longitude": 13.4313,
      "timezone": "Europe/Berlin"
    },
    {
      "name": "索林根",
      "name_en": "Solingen",
      "province": "北莱茵－威斯特法伦",
      "latitude": 51.1734,
      "longitude": 7.0845,
      "timezone": "Europe/Berlin"
    },
    {
      "name": "路德维希港",
      "name_en": "Ludwigshafen am Rhein",
      "province": "莱茵兰－普法尔茨",
      "latitude": 49.4812,
      "longitude": 8.4464,
      "timezone": "Europe/Berlin"
    },
    {
      "name": "勒沃库森",
      "name_en": "Leverkusen",
      "province": "北莱茵－威斯特法伦",
      "latitude": 51.0303,
      "longitude": 6.9843,
      "timezone": "Europe/Berlin"
    },
    {
      "name": "奥尔登堡",
      "name_en": "Oldenburg",
      "province": "下萨克森",
      "latitude": 53.1404,
      "longitude": 8.2148,
      "timezone": "Europe/Berlin"
    },
    {
      "name": "克罗伊茨贝格",
      "name_en": "Kreuzberg",
      "province": "柏林",
      "latitude": 52.4997,
      "longitude": 13.4034,
      "timezone": "Europe/Berlin"
    },
    {
      "name": "诺伊斯",
      "name_en": "Neuss",
      "province": "北莱茵－威斯特法伦",
      "latitude": 51.1981,
      "longitude": 6.685,
      "timezone": "Europe/Berlin"
    },
    {
      "name": "普伦茨劳贝格",
      "name_en": "Prenzlauer Berg",
      "province": "柏林",
      "latitude": 52.5388,
      "longitude": 13.4244,
      "timezone": "Europe/Berlin"
    },
    {
      "name": "海德堡",
      "name_en": "Heidelberg",
      "province": "巴登－符腾堡",
      "latitude": 49.4077,
      "longitude": 8.6908,
      "timezone": "Europe/Berlin"
    },
    {
      "name": "帕德博恩",
      "name_en": "Paderborn",
      "province": "北莱茵－威斯特法伦",
      "latitude": 51.7191,
      "longitude": 8.7544,
      "timezone": "Europe/Berlin"
    },
    {
      "name": "达姆施塔特",
      "name_en": "Darmstadt",
      "province": "黑森州",
      "latitude": 49.8717,
      "longitude": 8.6503,
      "timezone": "Europe/Berlin"
    },
    {
      "name": "维尔茨堡",
      "name_en": "Würzburg",
      "province": "巴伐利亚州",
      "latitude": 49.7939,
      "longitude": 9.9512,
      "timezone": "Europe/Berlin"
    },
    {
      "name": "夏洛滕堡",
      "name_en": "Charlottenburg",
      "province": "柏林",
      "latitude": 52.5167,
      "longitude": 13.2833,
      "timezone": "Europe/Berlin"
    },
    {
      "name": "雷根斯堡",
      "name_en": "Regensburg",
      "province": "巴伐利亚州",
      "latitude": 49.0151,
      "longitude": 12.1016,
      "timezone": "Europe/Berlin"
    },
    {
      "name": "沃尔夫斯堡",
      "name_en": "Wolfsburg",
      "province": "下萨克森",
      "latitude": 52.4245,
      "longitude": 10.7815,
      "timezone": "Europe/Berlin"
    },
    {
      "name": "",
      "name_en": "Schöneberg",
      "province": "柏林",
      "latitude": 52.498,
      "longitude": 13.3443,
      "timezone": "Europe/Berlin"
    },
    {
      "name": "雷克林豪森",
      "name_en": "Recklinghausen",
      "province": "北莱茵－威斯特法伦",
      "latitude": 51.6138,
      "longitude": 7.1974,
      "timezone": "Europe/Berlin"
    },
    {
      "name": "哥廷根",
      "name_en": "Göttingen",
      "province": "下萨克森",
      "latitude": 51.5344,
      "longitude": 9.9323,
      "timezone": "Europe/Berlin"
    },
    {
      "name": "海尔布隆",
      "name_en": "Heilbronn",
      "province": "巴登－符腾堡",
      "latitude": 49.1399,
      "longitude": 9.2205,
      "timezone": "Europe/Berlin"
    },
    {
      "name": "",
      "name_en": "Ingolstadt",
      "province": "巴伐利亚州",
      "latitude": 48.7651,
      "longitude": 11.4237,
      "timezone": "Europe/Berlin"
    },
    {
      "name": "乌尔姆",
      "name_en": "Ulm",
      "province": "巴登－符腾堡",
      "latitude": 48.3984,
      "longitude": 9.9916,
      "timezone": "Europe/Berlin"
    },
    {
      "name": "博特罗普",
      "name_en": "Bottrop",
      "province": "北莱茵－威斯特法伦",
      "latitude": 51.5239,
      "longitude": 6.9285,
      "timezone": "Europe/Berlin"
    },
    {
      "name": "贝格多夫区",
      "name_en": "Bergedorf",
      "province": "汉堡",
      "latitude": 53.4846,
      "longitude": 10.229,
      "timezone": "Europe/Berlin"
    },
    {
      "name": "普福尔茨海姆",
      "name_en": "Pforzheim",
      "province": "巴登－符腾堡",
      "latitude": 48.8844,
      "longitude": 8.6989,
      "timezone": "Europe/Berlin"
    },
    {
      "name": "",
      "name_en": "Offenbach",
      "province": "黑森州",
      "latitude": 50.1006,
      "longitude": 8.7665,
      "timezone": "Europe/Berlin"
    },
    {
      "name": "腓特烈斯海因",
      "name_en": "Friedrichshain",
      "province": "柏林",
      "latitude": 52.5156,
      "longitude": 13.4548,
      "timezone": "Europe/Berlin"
    },
    {
      "name": "雷姆沙伊德",
      "name_en": "Remscheid",
      "province": "北莱茵－威斯特法伦",
      "latitude": 51.1798,
      "longitude": 7.1925,
      "timezone": "Europe/Berlin"
    },
    {
      "name": "不来梅哈芬",
      "name_en": "Bremerhaven",
      "province": "不来梅州",
      "latitude": 53.5536,
      "longitude": 8.5755,
      "timezone": "Europe/Berlin"
    },
    {
      "name": "",
      "name_en": "Nippes",
      "province": "北莱茵－威斯特法伦",
      "latitude": 50.9654,
      "longitude": 6.9531,
      "timezone": "Europe/Berlin"
    },
    {
      "name": "",
      "name_en": "Porz am Rhein",
      "province": "北莱茵－威斯特法伦",
      "latitude": 50.8864,
      "longitude": 7.0583,
      "timezone": "Europe/Berlin"
    },
    {
      "name": "罗伊特林根",
      "name_en": "Reutlingen",
      "province": "巴登－符腾堡",
      "latitude": 48.4914,
      "longitude": 9.2043,
      "timezone": "Europe/Berlin"
    },
    {
      "name": "菲尔特",
      "name_en": "Fürth",
      "province": "巴伐利亚州",
      "latitude": 49.4759,
      "longitude": 10.9886,
      "timezone": "Europe/Berlin"
    },
    {
      "name": "",
      "name_en": "Marzahn",
      "province": "柏林",
      "latitude": 52.5453,
      "longitude": 13.5698,
      "timezone": "Europe/Berlin"
    },
    {
      "name": "",
      "name_en": "Rodenkirchen",
      "province": "北莱茵－威斯特法伦",
      "latitude": 50.8933,
      "longitude": 6.9948,
      "timezone": "Europe/Berlin"
    },
    {
      "name": "科布伦茨",
      "name_en": "Koblenz",
      "province": "莱茵兰－普法尔茨",
      "latitude": 50.3536,
      "longitude": 7.5788,
      "timezone": "Europe/Berlin"
    },
    {
      "name": "",
      "name_en": "Siegen",
      "province": "北莱茵－威斯特法伦",
      "latitude": 50.8748,
      "longitude": 8.0243,
      "timezone": "Europe/Berlin"
    },
    {
      "name": "",
      "name_en": "Bergisch Gladbach",
      "province": "北莱茵－威斯特法伦",
      "latitude": 50.9856,
      "longitude": 7.133,
      "timezone": "Europe/Berlin"
    },
    {
      "name": "耶拿",
      "name_en": "Jena",
      "province": "Thuringia",
      "latitude": 50.9288,
      "longitude": 11.5899,
      "timezone": "Europe/Berlin"
    },
    {
      "name": "格拉",
      "name_en": "Gera",
      "province": "Thuringia",
      "latitude": 50.8803,
      "longitude": 12.0819,
      "timezone": "Europe/Berlin"
    },
    {
      "name": "萨尔茨吉特",
      "name_en": "Salzgitter",
      "province": "下萨克森",
      "latitude": 52.157,
      "longitude": 10.4154,
      "timezone": "Europe/Berlin"
    },
    {
      "name": "默尔斯",
      "name_en": "Moers",
      "province": "北莱茵－威斯特法伦",
      "latitude": 51.4534,
      "longitude": 6.6326,
      "timezone": "Europe/Berlin"
    },
    {
      "name": "希尔德斯海姆",
      "name_en": "Hildesheim",
      "province": "下萨克森",
      "latitude": 52.1508,
      "longitude": 9.9511,
      "timezone": "Europe/Berlin"
    },
    {
      "name": "埃尔兰根",
      "name_en": "Erlangen",
      "province": "巴伐利亚州",
      "latitude": 49.591,
      "longitude": 11.0078,
      "timezone": "Europe/Berlin"
    },
    {
      "name": "",
      "name_en": "Mitte",
      "province": "柏林",
      "latitude": 52.52,
      "longitude": 13.4049,
      "timezone": "Europe/Berlin"
    },
    {
      "name": "",
      "name_en": "Wilmersdorf",
      "province": "柏林",
      "latitude": 52.4833,
      "longitude": 13.3167,
      "timezone": "Europe/Berlin"
    },
    {
      "name": "维滕",
      "name_en": "Witten",
      "province": "北莱茵－威斯特法伦",
      "latitude": 51.4436,
      "longitude": 7.3526,
      "timezone": "Europe/Berlin"
    },
    {
      "name": "特里尔",
      "name_en": "Trier",
      "province": "莱茵兰－普法尔茨",
      "latitude": 49.7557,
      "longitude": 6.6394,
      "timezone": "Europe/Berlin"
    },
    {
      "name": "茨维考",
      "name_en": "Zwickau",
      "province": "萨克森州",
      "latitude": 50.7272,
      "longitude": 12.4884,
      "timezone": "Europe/Berlin"
    },
    {
      "name": "凯撒斯劳滕",
      "name_en": "Kaiserslautern",
      "province": "莱茵兰－普法尔茨",
      "latitude": 49.443,
      "longitude": 7.7716,
      "timezone": "Europe/Berlin"
    },
    {
      "name": "伊瑟隆",
      "name_en": "Iserlohn",
      "province": "北莱茵－威斯特法伦",
      "latitude": 51.3755,
      "longitude": 7.7028,
      "timezone": "Europe/Berlin"
    },
    {
      "name": "什未林",
      "name_en": "Schwerin",
      "province": "梅克伦堡－前波美拉尼亚",
      "latitude": 53.6294,
      "longitude": 11.4132,
      "timezone": "Europe/Berlin"
    },
    {
      "name": "居特斯洛",
      "name_en": "Gütersloh",
      "province": "北莱茵－威斯特法伦",
      "latitude": 51.9069,
      "longitude": 8.3785,
      "timezone": "Europe/Berlin"
    },
    {
      "name": "",
      "name_en": "Gesundbrunnen",
      "province": "柏林",
      "latitude": 52.5504,
      "longitude": 13.3914,
      "timezone": "Europe/Berlin"
    },
    {
      "name": "迪伦",
      "name_en": "Düren",
      "province": "北莱茵－威斯特法伦",
      "latitude": 50.8043,
      "longitude": 6.493,
      "timezone": "Europe/Berlin"
    },
    {
      "name": "",
      "name_en": "Rahlstedt",
      "province": "汉堡",
      "latitude": 53.6019,
      "longitude": 10.1567,
      "timezone": "Europe/Berlin"
    },
    {
      "name": "",
      "name_en": "Esslingen",
      "province": "巴登－符腾堡",
      "latitude": 48.7396,
      "longitude": 9.3047,
      "timezone": "Europe/Berlin"
    },
    {
      "name": "拉廷根",
      "name_en": "Ratingen",
      "province": "北莱茵－威斯特法伦",
      "latitude": 51.2972,
      "longitude": 6.8493,
      "timezone": "Europe/Berlin"
    },
    {
      "name": "马尔",
      "name_en": "Marl",
      "province": "北莱茵－威斯特法伦",
      "latitude": 51.6567,
      "longitude": 7.0904,
      "timezone": "Europe/Berlin"
    },
    {
      "name": "吕嫩",
      "name_en": "Lünen",
      "province": "北莱茵－威斯特法伦",
      "latitude": 51.6163,
      "longitude": 7.5287,
      "timezone": "Europe/Berlin"
    },
    {
      "name": "",
      "name_en": "Hanau am Main",
      "province": "黑森州",
      "latitude": 50.1342,
      "longitude": 8.9142,
      "timezone": "Europe/Berlin"
    },
    {
      "name": "费尔贝特",
      "name_en": "Velbert",
      "province": "北莱茵－威斯特法伦",
      "latitude": 51.3354,
      "longitude": 7.0435,
      "timezone": "Europe/Berlin"
    },
    {
      "name": "路德维希堡",
      "name_en": "Ludwigsburg",
      "province": "巴登－符腾堡",
      "latitude": 48.8973,
      "longitude": 9.1916,
      "timezone": "Europe/Berlin"
    },
    {
      "name": "",
      "name_en": "Lichterfelde",
      "province": "柏林",
      "latitude": 52.4333,
      "longitude": 13.3076,
      "timezone": "Europe/Berlin"
    },
    {
      "name": "弗伦斯堡",
      "name_en": "Flensburg",
      "province": "石勒苏益格-荷尔斯泰因",
      "latitude": 54.788,
      "longitude": 9.4372,
      "timezone": "Europe/Berlin"
    },
    {
      "name": "威丁",
      "name_en": "Wedding",
      "province": "柏林",
      "latitude": 52.5473,
      "longitude": 13.3559,
      "timezone": "Europe/Berlin"
    },
    {
      "name": "科特布斯",
      "name_en": "Cottbus",
      "province": "勃兰登堡",
      "latitude": 51.7577,
      "longitude": 14.3289,
      "timezone": "Europe/Berlin"
    },
    {
      "name": "威廉港",
      "name_en": "Wilhelmshaven",
      "province": "下萨克森",
      "latitude": 53.5476,
      "longitude": 8.1039,
      "timezone": "Europe/Berlin"
    },
    {
      "name": "",
      "name_en": "Hellersdorf",
      "province": "柏林",
      "latitude": 52.5332,
      "longitude": 13.6088,
      "timezone": "Europe/Berlin"
    },
    {
      "name": "",
      "name_en": "Reinickendorf",
      "province": "柏林",
      "latitude": 52.5639,
      "longitude": 13.3355,
      "timezone": "Europe/Berlin"
    },
    {
      "name": "图宾根",
      "name_en": "Tübingen",
      "province": "巴登－符腾堡",
      "latitude": 48.5227,
      "longitude": 9.0522,
      "timezone": "Europe/Berlin"
    },
    {
      "name": "明登",
      "name_en": "Minden",
      "province": "北莱茵－威斯特法伦",
      "latitude": 52.2895,
      "longitude": 8.9146,
      "timezone": "Europe/Berlin"
    },
    {
      "name": "菲林根-施文宁根",
      "name_en": "Villingen-Schwenningen",
      "province": "巴登－符腾堡",
      "latitude": 48.0623,
      "longitude": 8.4936,
      "timezone": "Europe/Berlin"
    },
    {
      "name": "康斯坦茨",
      "name_en": "Konstanz",
      "province": "巴登－符腾堡",
      "latitude": 47.6603,
      "longitude": 9.1758,
      "timezone": "Europe/Berlin"
    },
    {
      "name": "沃尔姆斯",
      "name_en": "Worms",
      "province": "莱茵兰－普法尔茨",
      "latitude": 49.6328,
      "longitude": 8.3592,
      "timezone": "Europe/Berlin"
    },
    {
      "name": "",
      "name_en": "Moabit",
      "province": "柏林",
      "latitude": 52.5264,
      "longitude": 13.339,
      "timezone": "Europe/Berlin"
    },
    {
      "name": "新明斯特",
      "name_en": "Neumünster",
      "province": "石勒苏益格-荷尔斯泰因",
      "latitude": 54.074,
      "longitude": 9.9846,
      "timezone": "Europe/Berlin"
    },
    {
      "name": "多斯滕",
      "name_en": "Dorsten",
      "province": "北莱茵－威斯特法伦",
      "latitude": 51.6617,
      "longitude": 6.9651,
      "timezone": "Europe/Berlin"
    },
    {
      "name": "吕登沙伊德",
      "name_en": "Lüdenscheid",
      "province": "北莱茵－威斯特法伦",
      "latitude": 51.2198,
      "longitude": 7.6273,
      "timezone": "Europe/Berlin"
    },
    {
      "name": "",
      "name_en": "Marburg an der Lahn",
      "province": "黑森州",
      "latitude": 50.809,
      "longitude": 8.7707,
      "timezone": "Europe/Berlin"
    },
    {
      "name": "",
      "name_en": "Rheinhausen",
      "province": "北莱茵－威斯特法伦",
      "latitude": 51.4006,
      "longitude": 6.7119,
      "timezone": "Europe/Berlin"
    },
    {
      "name": "卡斯特罗普-劳克塞尔",
      "name_en": "Castrop-Rauxel",
      "province": "北莱茵－威斯特法伦",
      "latitude": 51.5566,
      "longitude": 7.3116,
      "timezone": "Europe/Berlin"
    },
    {
      "name": "",
      "name_en": "Bogenhausen",
      "province": "巴伐利亚州",
      "latitude": 48.1522,
      "longitude": 11.6159,
      "timezone": "Europe/Berlin"
    },
    {
      "name": "格拉德贝克",
      "name_en": "Gladbeck",
      "province": "北莱茵－威斯特法伦",
      "latitude": 51.5708,
      "longitude": 6.9859,
      "timezone": "Europe/Berlin"
    },
    {
      "name": "阿恩斯贝格",
      "name_en": "Arnsberg",
      "province": "北莱茵－威斯特法伦",
      "latitude": 51.3833,
      "longitude": 8.0833,
      "timezone": "Europe/Berlin"
    },
    {
      "name": "赖内",
      "name_en": "Rheine",
      "province": "北莱茵－威斯特法伦",
      "latitude": 52.2851,
      "longitude": 7.4405,
      "timezone": "Europe/Berlin"
    },
    {
      "name": "菲尔森",
      "name_en": "Viersen",
      "province": "北莱茵－威斯特法伦",
      "latitude": 51.2544,
      "longitude": 6.3944,
      "timezone": "Europe/Berlin"
    },
    {
      "name": "代尔门霍斯特",
      "name_en": "Delmenhorst",
      "province": "下萨克森",
      "latitude": 53.0511,
      "longitude": 8.6309,
      "timezone": "Europe/Berlin"
    },
    {
      "name": "拜罗伊特",
      "name_en": "Bayreuth",
      "province": "巴伐利亚州",
      "latitude": 49.9478,
      "longitude": 11.5789,
      "timezone": "Europe/Berlin"
    },
    {
      "name": "特罗斯多夫",
      "name_en": "Troisdorf",
      "province": "北莱茵－威斯特法伦",
      "latitude": 50.809,
      "longitude": 7.1497,
      "timezone": "Europe/Berlin"
    },
    {
      "name": "吉森",
      "name_en": "Gießen",
      "province": "黑森州",
      "latitude": 50.5873,
      "longitude": 8.6755,
      "timezone": "Europe/Berlin"
    },
    {
      "name": "博霍尔特",
      "name_en": "Bocholt",
      "province": "北莱茵－威斯特法伦",
      "latitude": 51.8388,
      "longitude": 6.6153,
      "timezone": "Europe/Berlin"
    },
    {
      "name": "代特莫尔德",
      "name_en": "Detmold",
      "province": "北莱茵－威斯特法伦",
      "latitude": 51.9385,
      "longitude": 8.8732,
      "timezone": "Europe/Berlin"
    },
    {
      "name": "",
      "name_en": "Steglitz",
      "province": "柏林",
      "latitude": 52.4561,
      "longitude": 13.332,
      "timezone": "Europe/Berlin"
    },
    {
      "name": "诺德施泰特",
      "name_en": "Norderstedt",
      "province": "石勒苏益格-荷尔斯泰因",
      "latitude": 53.7018,
      "longitude": 9.9933,
      "timezone": "Europe/Berlin"
    },
    {
      "name": "吕内堡",
      "name_en": "Lüneburg",
      "province": "下萨克森",
      "latitude": 53.2512,
      "longitude": 10.4155,
      "timezone": "Europe/Berlin"
    },
    {
      "name": "",
      "name_en": "Billstedt",
      "province": "汉堡",
      "latitude": 53.55,
      "longitude": 10.1333,
      "timezone": "Europe/Berlin"
    },
    {
      "name": "策勒",
      "name_en": "Celle",
      "province": "下萨克森",
      "latitude": 52.6226,
      "longitude": 10.0805,
      "timezone": "Europe/Berlin"
    },
    {
      "name": "丁斯拉肯",
      "name_en": "Dinslaken",
      "province": "北莱茵－威斯特法伦",
      "latitude": 51.5623,
      "longitude": 6.7434,
      "timezone": "Europe/Berlin"
    },
    {
      "name": "班堡",
      "name_en": "Bamberg",
      "province": "巴伐利亚州",
      "latitude": 49.8987,
      "longitude": 10.9007,
      "timezone": "Europe/Berlin"
    },
    {
      "name": "阿沙芬堡",
      "name_en": "Aschaffenburg",
      "province": "巴伐利亚州",
      "latitude": 49.977,
      "longitude": 9.1521,
      "timezone": "Europe/Berlin"
    },
    {
      "name": "新勃兰登堡",
      "name_en": "Neubrandenburg",
      "province": "梅克伦堡－前波美拉尼亚",
      "latitude": 53.5573,
      "longitude": 13.261,
      "timezone": "Europe/Berlin"
    },
    {
      "name": "德绍",
      "name_en": "Dessau",
      "province": "萨克森-安哈尔特",
      "latitude": 51.8386,
      "longitude": 12.2455,
      "timezone": "Europe/Berlin"
    },
    {
      "name": "利普施塔特",
      "name_en": "Lippstadt",
      "province": "北莱茵－威斯特法伦",
      "latitude": 51.6737,
      "longitude": 8.3448,
      "timezone": "Europe/Berlin"
    },
    {
      "name": "",
      "name_en": "Köpenick",
      "province": "柏林",
      "latitude": 52.4455,
      "longitude": 13.5746,
      "timezone": "Europe/Berlin"
    },
    {
      "name": "阿伦",
      "name_en": "Aalen",
      "province": "巴登－符腾堡",
      "latitude": 48.8378,
      "longitude": 10.0933,
      "timezone": "Europe/Berlin"
    },
    {
      "name": "新维德",
      "name_en": "Neuwied",
      "province": "莱茵兰－普法尔茨",
      "latitude": 50.4336,
      "longitude": 7.4706,
      "timezone": "Europe/Berlin"
    },
    {
      "name": "翁纳",
      "name_en": "Unna",
      "province": "北莱茵－威斯特法伦",
      "latitude": 51.538,
      "longitude": 7.6897,
      "timezone": "Europe/Berlin"
    },
    {
      "name": "普劳恩",
      "name_en": "Plauen",
      "province": "萨克森州",
      "latitude": 50.4973,
      "longitude": 12.1378,
      "timezone": "Europe/Berlin"
    },
    {
      "name": "",
      "name_en": "Pankow",
      "province": "柏林",
      "latitude": 52.5693,
      "longitude": 13.4019,
      "timezone": "Europe/Berlin"
    },
    {
      "name": "黑尔滕",
      "name_en": "Herten",
      "province": "北莱茵－威斯特法伦",
      "latitude": 51.5964,
      "longitude": 7.1439,
      "timezone": "Europe/Berlin"
    },
    {
      "name": "黑尔福德",
      "name_en": "Herford",
      "province": "北莱茵－威斯特法伦",
      "latitude": 52.1146,
      "longitude": 8.6734,
      "timezone": "Europe/Berlin"
    },
    {
      "name": "格雷文布罗伊希",
      "name_en": "Grevenbroich",
      "province": "北莱茵－威斯特法伦",
      "latitude": 51.091,
      "longitude": 6.5827,
      "timezone": "Europe/Berlin"
    },
    {
      "name": "魏玛",
      "name_en": "Weimar",
      "province": "Thuringia",
      "latitude": 50.9803,
      "longitude": 11.329,
      "timezone": "Europe/Berlin"
    },
    {
      "name": "克尔彭",
      "name_en": "Kerpen",
      "province": "北莱茵－威斯特法伦",
      "latitude": 50.8699,
      "longitude": 6.6969,
      "timezone": "Europe/Berlin"
    },
    {
      "name": "富尔达",
      "name_en": "Fulda",
      "province": "黑森州",
      "latitude": 50.5516,
      "longitude": 9.6752,
      "timezone": "Europe/Berlin"
    },
    {
      "name": "多尔马根",
      "name_en": "Dormagen",
      "province": "北莱茵－威斯特法伦",
      "latitude": 51.0968,
      "longitude": 6.8317,
      "timezone": "Europe/Berlin"
    },
    {
      "name": "",
      "name_en": "Bergheim",
      "province": "北莱茵－威斯特法伦",
      "latitude": 50.9557,
      "longitude": 6.6399,
      "timezone": "Europe/Berlin"
    },
    {
      "name": "加布森",
      "name_en": "Garbsen",
      "province": "下萨克森",
      "latitude": 52.4137,
      "longitude": 9.5899,
      "timezone": "Europe/Berlin"
    },
    {
      "name": "",
      "name_en": "Tempelhof",
      "province": "柏林",
      "latitude": 52.4667,
      "longitude": 13.4,
      "timezone": "Europe/Berlin"
    },
    {
      "name": "韦塞尔",
      "name_en": "Wesel",
      "province": "北莱茵－威斯特法伦",
      "latitude": 51.6669,
      "longitude": 6.6204,
      "timezone": "Europe/Berlin"
    },
    {
      "name": "",
      "name_en": "Kempten (Allgäu)",
      "province": "巴伐利亚州",
      "latitude": 47.7267,
      "longitude": 10.3139,
      "timezone": "Europe/Berlin"
    },
    {
      "name": "辛德尔芬根",
      "name_en": "Sindelfingen",
      "province": "巴登－符腾堡",
      "latitude": 48.7,
      "longitude": 9.0167,
      "timezone": "Europe/Berlin"
    },
    {
      "name": "施瓦本格明德",
      "name_en": "Schwäbisch Gmünd",
      "province": "巴登－符腾堡",
      "latitude": 48.7995,
      "longitude": 9.7981,
      "timezone": "Europe/Berlin"
    },
    {
      "name": "兰茨胡特",
      "name_en": "Landshut",
      "province": "巴伐利亚州",
      "latitude": 48.5296,
      "longitude": 12.1618,
      "timezone": "Europe/Berlin"
    },
    {
      "name": "罗森海姆",
      "name_en": "Rosenheim",
      "province": "巴伐利亚州",
      "latitude": 47.8564,
      "longitude": 12.1225,
      "timezone": "Europe/Berlin"
    },
    {
      "name": "哈弗尔河畔勃兰登堡",
      "name_en": "Brandenburg an der Havel",
      "province": "勃兰登堡",
      "latitude": 52.4167,
      "longitude": 12.55,
      "timezone": "Europe/Berlin"
    },
    {
      "name": "吕塞尔斯海姆",
      "name_en": "Rüsselsheim am Main",
      "province": "黑森州",
      "latitude": 49.9896,
      "longitude": 8.4225,
      "timezone": "Europe/Berlin"
    },
    {
      "name": "",
      "name_en": "Berlin Köpenick",
      "province": "柏林",
      "latitude": 52.4455,
      "longitude": 13.5746,
      "timezone": "Europe/Berlin"
    },
    {
      "name": "奥芬堡",
      "name_en": "Offenburg",
      "province": "巴登－符腾堡",
      "latitude": 48.4738,
      "longitude": 7.945,
      "timezone": "Europe/Berlin"
    },
    {
      "name": "朗根费尔德",
      "name_en": "Langenfeld",
      "province": "北莱茵－威斯特法伦",
      "latitude": 51.1082,
      "longitude": 6.9483,
      "timezone": "Europe/Berlin"
    },
    {
      "name": "施特拉尔松",
      "name_en": "Stralsund",
      "province": "梅克伦堡－前波美拉尼亚",
      "latitude": 54.3091,
      "longitude": 13.0818,
      "timezone": "Europe/Berlin"
    },
    {
      "name": "哈默尔恩",
      "name_en": "Hameln",
      "province": "下萨克森",
      "latitude": 52.104,
      "longitude": 9.3562,
      "timezone": "Europe/Berlin"
    },
    {
      "name": "腓特烈港",
      "name_en": "Friedrichshafen",
      "province": "巴登－符腾堡",
      "latitude": 47.6569,
      "longitude": 9.4755,
      "timezone": "Europe/Berlin"
    },
    {
      "name": "格平根",
      "name_en": "Göppingen",
      "province": "巴登－符腾堡",
      "latitude": 48.7035,
      "longitude": 9.6521,
      "timezone": "Europe/Berlin"
    },
    {
      "name": "格尔利茨",
      "name_en": "Görlitz",
      "province": "萨克森州",
      "latitude": 51.1552,
      "longitude": 14.9885,
      "timezone": "Europe/Berlin"
    },
    {
      "name": "",
      "name_en": "Frankfurt (Oder)",
      "province": "勃兰登堡",
      "latitude": 52.3471,
      "longitude": 14.5506,
      "timezone": "Europe/Berlin"
    },
    {
      "name": "",
      "name_en": "Neu-Hohenschönhausen",
      "province": "柏林",
      "latitude": 52.5668,
      "longitude": 13.5125,
      "timezone": "Europe/Berlin"
    },
    {
      "name": "哈廷根",
      "name_en": "Hattingen",
      "province": "北莱茵－威斯特法伦",
      "latitude": 51.3989,
      "longitude": 7.1856,
      "timezone": "Europe/Berlin"
    },
    {
      "name": "希尔登",
      "name_en": "Hilden",
      "province": "北莱茵－威斯特法伦",
      "latitude": 51.1682,
      "longitude": 6.9309,
      "timezone": "Europe/Berlin"
    },
    {
      "name": "",
      "name_en": "Winterhude",
      "province": "汉堡",
      "latitude": 53.5937,
      "longitude": 10.0112,
      "timezone": "Europe/Berlin"
    },
    {
      "name": "施托尔贝格",
      "name_en": "Stolberg",
      "province": "北莱茵－威斯特法伦",
      "latitude": 50.7737,
      "longitude": 6.226,
      "timezone": "Europe/Berlin"
    },
    {
      "name": "圣奥古斯丁",
      "name_en": "Sankt Augustin",
      "province": "北莱茵－威斯特法伦",
      "latitude": 50.7754,
      "longitude": 7.197,
      "timezone": "Europe/Berlin"
    },
    {
      "name": "埃施韦勒",
      "name_en": "Eschweiler",
      "province": "北莱茵－威斯特法伦",
      "latitude": 50.8185,
      "longitude": 6.2718,
      "timezone": "Europe/Berlin"
    },
    {
      "name": "巴登-巴登",
      "name_en": "Baden-Baden",
      "province": "巴登－符腾堡",
      "latitude": 48.7606,
      "longitude": 8.2398,
      "timezone": "Europe/Berlin"
    },
    {
      "name": "",
      "name_en": "Friedrichsfelde",
      "province": "柏林",
      "latitude": 52.5057,
      "longitude": 13.5081,
      "timezone": "Europe/Berlin"
    },
    {
      "name": "阿伦",
      "name_en": "Ahlen",
      "province": "北莱茵－威斯特法伦",
      "latitude": 51.7634,
      "longitude": 7.8887,
      "timezone": "Europe/Berlin"
    },
    {
      "name": "巴特萨尔茨乌夫伦",
      "name_en": "Bad Salzuflen",
      "province": "北莱茵－威斯特法伦",
      "latitude": 52.0862,
      "longitude": 8.7443,
      "timezone": "Europe/Berlin"
    },
    {
      "name": "奥伊斯基兴",
      "name_en": "Euskirchen",
      "province": "北莱茵－威斯特法伦",
      "latitude": 50.6606,
      "longitude": 6.7872,
      "timezone": "Europe/Berlin"
    },
    {
      "name": "梅尔布施",
      "name_en": "Meerbusch",
      "province": "北莱茵－威斯特法伦",
      "latitude": 51.2527,
      "longitude": 6.6881,
      "timezone": "Europe/Berlin"
    },
    {
      "name": "沃尔芬比特尔",
      "name_en": "Wolfenbüttel",
      "province": "下萨克森",
      "latitude": 52.1644,
      "longitude": 10.541,
      "timezone": "Europe/Berlin"
    },
    {
      "name": "许尔特",
      "name_en": "Hürth",
      "province": "北莱茵－威斯特法伦",
      "latitude": 50.8708,
      "longitude": 6.8676,
      "timezone": "Europe/Berlin"
    },
    {
      "name": "",
      "name_en": "Zehlendorf",
      "province": "柏林",
      "latitude": 52.4333,
      "longitude": 13.25,
      "timezone": "Europe/Berlin"
    },
    {
      "name": "施韦因富特",
      "name_en": "Schweinfurt",
      "province": "巴伐利亚州",
      "latitude": 50.0494,
      "longitude": 10.2218,
      "timezone": "Europe/Berlin"
    },
    {
      "name": "葡萄酒之路上的新城",
      "name_en": "Neustadt an der Weinstraße",
      "province": "莱茵兰－普法尔茨",
      "latitude": 49.3501,
      "longitude": 8.1389,
      "timezone": "Europe/Berlin"
    },
    {
      "name": "普尔海姆",
      "name_en": "Pulheim",
      "province": "北莱茵－威斯特法伦",
      "latitude": 50.9997,
      "longitude": 6.8063,
      "timezone": "Europe/Berlin"
    },
    {
      "name": "古梅尔斯巴赫",
      "name_en": "Gummersbach",
      "province": "北莱茵－威斯特法伦",
      "latitude": 51.0261,
      "longitude": 7.5647,
      "timezone": "Europe/Berlin"
    },
    {
      "name": "",
      "name_en": "Wilhelmsburg",
      "province": "汉堡",
      "latitude": 53.4962,
      "longitude": 10.0171,
      "timezone": "Europe/Berlin"
    },
    {
      "name": "魏布林根",
      "name_en": "Waiblingen",
      "province": "巴登－符腾堡",
      "latitude": 48.8324,
      "longitude": 9.3164,
      "timezone": "Europe/Berlin"
    },
    {
      "name": "诺德霍恩",
      "name_en": "Nordhorn",
      "province": "下萨克森",
      "latitude": 52.4308,
      "longitude": 7.0683,
      "timezone": "Europe/Berlin"
    },
    {
      "name": "",
      "name_en": "Mariendorf",
      "province": "柏林",
      "latitude": 52.4378,
      "longitude": 13.3811,
      "timezone": "Europe/Berlin"
    },
    {
      "name": "格赖夫斯瓦尔德",
      "name_en": "Universitäts- und Hansestadt Greifswald",
      "province": "梅克伦堡－前波美拉尼亚",
      "latitude": 54.0891,
      "longitude": 13.4024,
      "timezone": "Europe/Berlin"
    },
    {
      "name": "库克斯港",
      "name_en": "Cuxhaven",
      "province": "下萨克森",
      "latitude": 53.8683,
      "longitude": 8.699,
      "timezone": "Europe/Berlin"
    },
    {
      "name": "韦茨拉尔",
      "name_en": "Wetzlar",
      "province": "黑森州",
      "latitude": 50.5611,
      "longitude": 8.5049,
      "timezone": "Europe/Berlin"
    },
    {
      "name": "门登",
      "name_en": "Menden",
      "province": "北莱茵－威斯特法伦",
      "latitude": 51.4434,
      "longitude": 7.7782,
      "timezone": "Europe/Berlin"
    },
    {
      "name": "贝格卡门",
      "name_en": "Bergkamen",
      "province": "北莱茵－威斯特法伦",
      "latitude": 51.6163,
      "longitude": 7.6445,
      "timezone": "Europe/Berlin"
    },
    {
      "name": "",
      "name_en": "Lichtenrade",
      "province": "柏林",
      "latitude": 52.3984,
      "longitude": 13.4064,
      "timezone": "Europe/Berlin"
    },
    {
      "name": "巴特洪堡",
      "name_en": "Bad Homburg vor der Höhe",
      "province": "黑森州",
      "latitude": 50.2268,
      "longitude": 8.6182,
      "timezone": "Europe/Berlin"
    },
    {
      "name": "维利希",
      "name_en": "Willich",
      "province": "北莱茵－威斯特法伦",
      "latitude": 51.2637,
      "longitude": 6.5473,
      "timezone": "Europe/Berlin"
    },
    {
      "name": "埃姆登",
      "name_en": "Emden",
      "province": "下萨克森",
      "latitude": 53.3659,
      "longitude": 7.2085,
      "timezone": "Europe/Berlin"
    },
    {
      "name": "新乌尔姆",
      "name_en": "Neu-Ulm",
      "province": "巴伐利亚州",
      "latitude": 48.3928,
      "longitude": 10.0111,
      "timezone": "Europe/Berlin"
    },
    {
      "name": "林根",
      "name_en": "Lingen",
      "province": "下萨克森",
      "latitude": 52.5214,
      "longitude": 7.3185,
      "timezone": "Europe/Berlin"
    },
    {
      "name": "埃尔夫特施塔特",
      "name_en": "Erftstadt",
      "province": "北莱茵－威斯特法伦",
      "latitude": 50.8148,
      "longitude": 6.7939,
      "timezone": "Europe/Berlin"
    },
    {
      "name": "",
      "name_en": "Neubrück",
      "province": "北莱茵－威斯特法伦",
      "latitude": 51.1343,
      "longitude": 6.6386,
      "timezone": "Europe/Berlin"
    },
    {
      "name": "伊本比伦",
      "name_en": "Ibbenbueren",
      "province": "北莱茵－威斯特法伦",
      "latitude": 52.2796,
      "longitude": 7.7146,
      "timezone": "Europe/Berlin"
    },
    {
      "name": "帕绍",
      "name_en": "Passau",
      "province": "巴伐利亚州",
      "latitude": 48.5665,
      "longitude": 13.4312,
      "timezone": "Europe/Berlin"
    },
    {
      "name": "朗根哈根",
      "name_en": "Langenhagen",
      "province": "下萨克森",
      "latitude": 52.4476,
      "longitude": 9.7374,
      "timezone": "Europe/Berlin"
    },
    {
      "name": "施韦特",
      "name_en": "Schwerte",
      "province": "北莱茵－威斯特法伦",
      "latitude": 51.4439,
      "longitude": 7.5675,
      "timezone": "Europe/Berlin"
    },
    {
      "name": "施派尔",
      "name_en": "Speyer",
      "province": "莱茵兰－普法尔茨",
      "latitude": 49.3208,
      "longitude": 8.4311,
      "timezone": "Europe/Berlin"
    },
    {
      "name": "",
      "name_en": "Alt-Hohenschönhausen",
      "province": "柏林",
      "latitude": 52.5461,
      "longitude": 13.5013,
      "timezone": "Europe/Berlin"
    },
    {
      "name": "海登海姆",
      "name_en": "Heidenheim an der Brenz",
      "province": "巴登－符腾堡",
      "latitude": 48.678,
      "longitude": 10.1516,
      "timezone": "Europe/Berlin"
    },
    {
      "name": "",
      "name_en": "Treptow",
      "province": "柏林",
      "latitude": 52.4938,
      "longitude": 13.4447,
      "timezone": "Europe/Berlin"
    },
    {
      "name": "派内",
      "name_en": "Peine",
      "province": "下萨克森",
      "latitude": 52.3193,
      "longitude": 10.2352,
      "timezone": "Europe/Berlin"
    },
    {
      "name": "诺因基兴",
      "name_en": "Neunkirchen",
      "province": "萨尔兰州",
      "latitude": 49.3445,
      "longitude": 7.1805,
      "timezone": "Europe/Berlin"
    },
    {
      "name": "巴特恩豪森",
      "name_en": "Bad Oeynhausen",
      "province": "北莱茵－威斯特法伦",
      "latitude": 52.207,
      "longitude": 8.8036,
      "timezone": "Europe/Berlin"
    },
    {
      "name": "霍夫",
      "name_en": "Hof",
      "province": "巴伐利亚州",
      "latitude": 50.313,
      "longitude": 11.9126,
      "timezone": "Europe/Berlin"
    },
    {
      "name": "",
      "name_en": "Kleve",
      "province": "北莱茵－威斯特法伦",
      "latitude": 51.7883,
      "longitude": 6.1387,
      "timezone": "Europe/Berlin"
    },
    {
      "name": "拉芬斯堡",
      "name_en": "Ravensburg",
      "province": "巴登－符腾堡",
      "latitude": 47.782,
      "longitude": 9.6106,
      "timezone": "Europe/Berlin"
    },
    {
      "name": "弗雷兴",
      "name_en": "Frechen",
      "province": "北莱茵－威斯特法伦",
      "latitude": 50.9149,
      "longitude": 6.8118,
      "timezone": "Europe/Berlin"
    },
    {
      "name": "埃尔姆斯霍恩",
      "name_en": "Elmshorn",
      "province": "石勒苏益格-荷尔斯泰因",
      "latitude": 53.7491,
      "longitude": 9.6618,
      "timezone": "Europe/Berlin"
    },
    {
      "name": "",
      "name_en": "Bornheim",
      "province": "北莱茵－威斯特法伦",
      "latitude": 50.7631,
      "longitude": 6.9909,
      "timezone": "Europe/Berlin"
    },
    {
      "name": "索斯特",
      "name_en": "Soest",
      "province": "北莱茵－威斯特法伦",
      "latitude": 51.5756,
      "longitude": 8.1062,
      "timezone": "Europe/Berlin"
    },
    {
      "name": "辛根",
      "name_en": "Singen",
      "province": "巴登－符腾堡",
      "latitude": 47.7593,
      "longitude": 8.8403,
      "timezone": "Europe/Berlin"
    },
    {
      "name": "亨内夫",
      "name_en": "Hennef (Sieg)",
      "province": "北莱茵－威斯特法伦",
      "latitude": 50.7756,
      "longitude": 7.2831,
      "timezone": "Europe/Berlin"
    },
    {
      "name": "拉施塔特",
      "name_en": "Rastatt",
      "province": "巴登－符腾堡",
      "latitude": 48.8585,
      "longitude": 8.2096,
      "timezone": "Europe/Berlin"
    },
    {
      "name": "埃尔克拉特",
      "name_en": "Erkrath",
      "province": "北莱茵－威斯特法伦",
      "latitude": 51.2223,
      "longitude": 6.9083,
      "timezone": "Europe/Berlin"
    },
    {
      "name": "",
      "name_en": "Weißensee",
      "province": "柏林",
      "latitude": 52.5563,
      "longitude": 13.4665,
      "timezone": "Europe/Berlin"
    },
    {
      "name": "拉尔",
      "name_en": "Lahr",
      "province": "巴登－符腾堡",
      "latitude": 48.3404,
      "longitude": 7.8689,
      "timezone": "Europe/Berlin"
    },
    {
      "name": "",
      "name_en": "Stuttgart-Ost",
      "province": "巴登－符腾堡",
      "latitude": 48.7836,
      "longitude": 9.2103,
      "timezone": "Europe/Berlin"
    },
    {
      "name": "迪尔门",
      "name_en": "Dülmen",
      "province": "北莱茵－威斯特法伦",
      "latitude": 51.8315,
      "longitude": 7.2808,
      "timezone": "Europe/Berlin"
    },
    {
      "name": "弗兰肯塔尔",
      "name_en": "Frankenthal",
      "province": "莱茵兰－普法尔茨",
      "latitude": 49.5341,
      "longitude": 8.3536,
      "timezone": "Europe/Berlin"
    },
    {
      "name": "黑尔措根拉特",
      "name_en": "Herzogenrath",
      "province": "北莱茵－威斯特法伦",
      "latitude": 50.8687,
      "longitude": 6.0932,
      "timezone": "Europe/Berlin"
    },
    {
      "name": "罗拉赫",
      "name_en": "Lörrach",
      "province": "巴登－符腾堡",
      "latitude": 47.615,
      "longitude": 7.6646,
      "timezone": "Europe/Berlin"
    },
    {
      "name": "",
      "name_en": "Oberursel",
      "province": "黑森州",
      "latitude": 50.2073,
      "longitude": 8.5775,
      "timezone": "Europe/Berlin"
    },
    {
      "name": "阿尔布斯塔特",
      "name_en": "Albstadt",
      "province": "巴登－符腾堡",
      "latitude": 48.2164,
      "longitude": 9.026,
      "timezone": "Europe/Berlin"
    },
    {
      "name": "哥达",
      "name_en": "Gotha",
      "province": "Thuringia",
      "latitude": 50.9482,
      "longitude": 10.7019,
      "timezone": "Europe/Berlin"
    },
    {
      "name": "梅勒",
      "name_en": "Melle",
      "province": "下萨克森",
      "latitude": 52.202,
      "longitude": 8.3383,
      "timezone": "Europe/Berlin"
    },
    {
      "name": "",
      "name_en": "Staaken",
      "province": "柏林",
      "latitude": 52.5366,
      "longitude": 13.1506,
      "timezone": "Europe/Berlin"
    },
    {
      "name": "阿尔斯多夫",
      "name_en": "Alsdorf",
      "province": "北莱茵－威斯特法伦",
      "latitude": 50.8767,
      "longitude": 6.164,
      "timezone": "Europe/Berlin"
    },
    {
      "name": "伯布林根",
      "name_en": "Böblingen",
      "province": "巴登－符腾堡",
      "latitude": 48.6821,
      "longitude": 9.0117,
      "timezone": "Europe/Berlin"
    },
    {
      "name": "",
      "name_en": "Langenhorn",
      "province": "汉堡",
      "latitude": 53.6667,
      "longitude": 10.0167,
      "timezone": "Europe/Berlin"
    },
    {
      "name": "格罗瑙",
      "name_en": "Gronau",
      "province": "北莱茵－威斯特法伦",
      "latitude": 52.211,
      "longitude": 7.0224,
      "timezone": "Europe/Berlin"
    },
    {
      "name": "雷达-维登布吕克",
      "name_en": "Rheda-Wiedenbrück",
      "province": "北莱茵－威斯特法伦",
      "latitude": 51.8497,
      "longitude": 8.3002,
      "timezone": "Europe/Berlin"
    },
    {
      "name": "吕本山麓诺伊施塔特",
      "name_en": "Neustadt am Rübenberge",
      "province": "下萨克森",
      "latitude": 52.5046,
      "longitude": 9.4587,
      "timezone": "Europe/Berlin"
    },
    {
      "name": "卡门",
      "name_en": "Kamen",
      "province": "北莱茵－威斯特法伦",
      "latitude": 51.5923,
      "longitude": 7.6638,
      "timezone": "Europe/Berlin"
    },
    {
      "name": "",
      "name_en": "Gohlis",
      "province": "萨克森州",
      "latitude": 51.366,
      "longitude": 12.367,
      "timezone": "Europe/Berlin"
    },
    {
      "name": "莱翁贝格",
      "name_en": "Leonberg",
      "province": "巴登－符腾堡",
      "latitude": 48.8,
      "longitude": 9.0167,
      "timezone": "Europe/Berlin"
    },
    {
      "name": "施塔德",
      "name_en": "Hansestadt Stade",
      "province": "下萨克森",
      "latitude": 53.5941,
      "longitude": 9.473,
      "timezone": "Europe/Berlin"
    },
    {
      "name": "",
      "name_en": "Bünde",
      "province": "北莱茵－威斯特法伦",
      "latitude": 52.1984,
      "longitude": 8.5864,
      "timezone": "Europe/Berlin"
    },
    {
      "name": "布鲁萨尔",
      "name_en": "Bruchsal",
      "province": "巴登－符腾堡",
      "latitude": 49.1243,
      "longitude": 8.598,
      "timezone": "Europe/Berlin"
    },
    {
      "name": "",
      "name_en": "Meiderich",
      "province": "北莱茵－威斯特法伦",
      "latitude": 51.4667,
      "longitude": 6.7667,
      "timezone": "Europe/Berlin"
    },
    {
      "name": "维斯马",
      "name_en": "Wismar",
      "province": "梅克伦堡－前波美拉尼亚",
      "latitude": 53.8922,
      "longitude": 11.4556,
      "timezone": "Europe/Berlin"
    },
    {
      "name": "安贝格",
      "name_en": "Amberg",
      "province": "巴伐利亚州",
      "latitude": 49.4429,
      "longitude": 11.8627,
      "timezone": "Europe/Berlin"
    },
    {
      "name": "埃尔克伦茨",
      "name_en": "Erkelenz",
      "province": "北莱茵－威斯特法伦",
      "latitude": 51.0795,
      "longitude": 6.3153,
      "timezone": "Europe/Berlin"
    },
    {
      "name": "",
      "name_en": "Homburg",
      "province": "萨尔兰州",
      "latitude": 49.3264,
      "longitude": 7.3387,
      "timezone": "Europe/Berlin"
    },
    {
      "name": "施特劳宾",
      "name_en": "Straubing",
      "province": "巴伐利亚州",
      "latitude": 48.8813,
      "longitude": 12.5739,
      "timezone": "Europe/Berlin"
    },
    {
      "name": "",
      "name_en": "Halle-Neustadt",
      "province": "萨克森-安哈尔特",
      "latitude": 51.4792,
      "longitude": 11.9161,
      "timezone": "Europe/Berlin"
    },
    {
      "name": "",
      "name_en": "Brühl",
      "province": "北莱茵－威斯特法伦",
      "latitude": 50.8293,
      "longitude": 6.905,
      "timezone": "Europe/Berlin"
    },
    {
      "name": "费尔巴赫",
      "name_en": "Fellbach",
      "province": "巴登－符腾堡",
      "latitude": 48.8091,
      "longitude": 9.277,
      "timezone": "Europe/Berlin"
    },
    {
      "name": "莱尔特",
      "name_en": "Lehrte",
      "province": "下萨克森",
      "latitude": 52.3719,
      "longitude": 9.9792,
      "timezone": "Europe/Berlin"
    },
    {
      "name": "北豪森",
      "name_en": "Nordhausen",
      "province": "Thuringia",
      "latitude": 51.5018,
      "longitude": 10.7957,
      "timezone": "Europe/Berlin"
    },
    {
      "name": "艾森纳赫",
      "name_en": "Eisenach",
      "province": "Thuringia",
      "latitude": 50.9807,
      "longitude": 10.3152,
      "timezone": "Europe/Berlin"
    },
    {
      "name": "霍耶斯韦达",
      "name_en": "Hoyerswerda",
      "province": "萨克森州",
      "latitude": 51.4379,
      "longitude": 14.2355,
      "timezone": "Europe/Berlin"
    },
    {
      "name": "弗莱贝格",
      "name_en": "Freiberg",
      "province": "萨克森州",
      "latitude": 50.9109,
      "longitude": 13.3388,
      "timezone": "Europe/Berlin"
    },
    {
      "name": "皮尔马森斯",
      "name_en": "Pirmasens",
      "province": "莱茵兰－普法尔茨",
      "latitude": 49.2015,
      "longitude": 7.6053,
      "timezone": "Europe/Berlin"
    },
    {
      "name": "戈斯拉尔",
      "name_en": "Goslar",
      "province": "下萨克森",
      "latitude": 51.9042,
      "longitude": 10.4277,
      "timezone": "Europe/Berlin"
    },
    {
      "name": "",
      "name_en": "Lankwitz",
      "province": "柏林",
      "latitude": 52.4362,
      "longitude": 13.3459,
      "timezone": "Europe/Berlin"
    },
    {
      "name": "菲尔德尔斯塔特",
      "name_en": "Filderstadt",
      "province": "巴登－符腾堡",
      "latitude": 48.657,
      "longitude": 9.2205,
      "timezone": "Europe/Berlin"
    },
    {
      "name": "苏尔",
      "name_en": "Suhl",
      "province": "Thuringia",
      "latitude": 50.6091,
      "longitude": 10.694,
      "timezone": "Europe/Berlin"
    },
    {
      "name": "韦因海姆",
      "name_en": "Weinheim",
      "province": "巴登－符腾堡",
      "latitude": 49.5489,
      "longitude": 8.667,
      "timezone": "Europe/Berlin"
    },
    {
      "name": "罗德高",
      "name_en": "Rodgau",
      "province": "黑森州",
      "latitude": 50.0263,
      "longitude": 8.8859,
      "timezone": "Europe/Berlin"
    },
    {
      "name": "巴特克罗伊茨纳赫",
      "name_en": "Bad Kreuznach",
      "province": "莱茵兰－普法尔茨",
      "latitude": 49.8414,
      "longitude": 7.8671,
      "timezone": "Europe/Berlin"
    },
    {
      "name": "",
      "name_en": "Ohligs",
      "province": "北莱茵－威斯特法伦",
      "latitude": 51.15,
      "longitude": 7.0,
      "timezone": "Europe/Berlin"
    },
    {
      "name": "",
      "name_en": "Monheim am Rhein",
      "province": "北莱茵－威斯特法伦",
      "latitude": 51.0916,
      "longitude": 6.8922,
      "timezone": "Europe/Berlin"
    },
    {
      "name": "吉夫霍恩",
      "name_en": "Gifhorn",
      "province": "下萨克森",
      "latitude": 52.4777,
      "longitude": 10.5511,
      "timezone": "Europe/Berlin"
    },
    {
      "name": "布里茨",
      "name_en": "Britz",
      "province": "柏林",
      "latitude": 52.4429,
      "longitude": 13.4339,
      "timezone": "Europe/Berlin"
    },
    {
      "name": "",
      "name_en": "Rottenburg",
      "province": "巴登－符腾堡",
      "latitude": 48.4763,
      "longitude": 8.9353,
      "timezone": "Europe/Berlin"
    },
    {
      "name": "",
      "name_en": "Rudow",
      "province": "柏林",
      "latitude": 52.4241,
      "longitude": 13.4853,
      "timezone": "Europe/Berlin"
    },
    {
      "name": "弗赖辛",
      "name_en": "Freising",
      "province": "巴伐利亚州",
      "latitude": 48.4035,
      "longitude": 11.7488,
      "timezone": "Europe/Berlin"
    },
    {
      "name": "",
      "name_en": "Weiden",
      "province": "巴伐利亚州",
      "latitude": 49.6768,
      "longitude": 12.1561,
      "timezone": "Europe/Berlin"
    },
    {
      "name": "考夫博伊伦",
      "name_en": "Kaufbeuren",
      "province": "巴伐利亚州",
      "latitude": 47.8824,
      "longitude": 10.6219,
      "timezone": "Europe/Berlin"
    },
    {
      "name": "内特塔尔",
      "name_en": "Nettetal",
      "province": "北莱茵－威斯特法伦",
      "latitude": 51.3167,
      "longitude": 6.2833,
      "timezone": "Europe/Berlin"
    },
    {
      "name": "卡尔斯特",
      "name_en": "Kaarst",
      "province": "北莱茵－威斯特法伦",
      "latitude": 51.2293,
      "longitude": 6.6188,
      "timezone": "Europe/Berlin"
    },
    {
      "name": "文斯托夫",
      "name_en": "Wunstorf",
      "province": "下萨克森",
      "latitude": 52.4238,
      "longitude": 9.4359,
      "timezone": "Europe/Berlin"
    },
    {
      "name": "",
      "name_en": "Gallus",
      "province": "黑森州",
      "latitude": 50.1004,
      "longitude": 8.6295,
      "timezone": "Europe/Berlin"
    },
    {
      "name": "埃贝尔斯瓦尔德",
      "name_en": "Eberswalde",
      "province": "勃兰登堡",
      "latitude": 52.8349,
      "longitude": 13.8195,
      "timezone": "Europe/Berlin"
    },
    {
      "name": "包岑",
      "name_en": "Bautzen",
      "province": "萨克森州",
      "latitude": 51.1803,
      "longitude": 14.4349,
      "timezone": "Europe/Berlin"
    },
    {
      "name": "莱姆戈",
      "name_en": "Lemgo",
      "province": "北莱茵－威斯特法伦",
      "latitude": 52.0279,
      "longitude": 8.899,
      "timezone": "Europe/Berlin"
    },
    {
      "name": "科堡",
      "name_en": "Coburg",
      "province": "巴伐利亚州",
      "latitude": 50.2594,
      "longitude": 10.9638,
      "timezone": "Europe/Berlin"
    },
    {
      "name": "比蒂格海姆-比辛根",
      "name_en": "Bietigheim-Bissingen",
      "province": "巴登－符腾堡",
      "latitude": 48.9441,
      "longitude": 9.1175,
      "timezone": "Europe/Berlin"
    },
    {
      "name": "",
      "name_en": "Mülheim",
      "province": "北莱茵－威斯特法伦",
      "latitude": 51.4322,
      "longitude": 6.8797,
      "timezone": "Europe/Berlin"
    },
    {
      "name": "",
      "name_en": "Landau in der Pfalz",
      "province": "莱茵兰－普法尔茨",
      "latitude": 49.1984,
      "longitude": 8.1169,
      "timezone": "Europe/Berlin"
    },
    {
      "name": "海因斯贝格",
      "name_en": "Heinsberg",
      "province": "北莱茵－威斯特法伦",
      "latitude": 51.0636,
      "longitude": 6.0998,
      "timezone": "Europe/Berlin"
    },
    {
      "name": "",
      "name_en": "Lichtenberg",
      "province": "柏林",
      "latitude": 52.514,
      "longitude": 13.4998,
      "timezone": "Europe/Berlin"
    },
    {
      "name": "",
      "name_en": "Westend",
      "province": "柏林",
      "latitude": 52.5171,
      "longitude": 13.2764,
      "timezone": "Europe/Berlin"
    },
    {
      "name": "塞费塔尔",
      "name_en": "Seevetal",
      "province": "下萨克森",
      "latitude": 53.4,
      "longitude": 9.9667,
      "timezone": "Europe/Berlin"
    },
    {
      "name": "克尼格斯温特尔",
      "name_en": "Königswinter",
      "province": "北莱茵－威斯特法伦",
      "latitude": 50.6773,
      "longitude": 7.1925,
      "timezone": "Europe/Berlin"
    },
    {
      "name": "梅明根",
      "name_en": "Memmingen",
      "province": "巴伐利亚州",
      "latitude": 47.9837,
      "longitude": 10.1853,
      "timezone": "Europe/Berlin"
    },
    {
      "name": "弗尔克林根",
      "name_en": "Völklingen",
      "province": "萨尔兰州",
      "latitude": 49.2516,
      "longitude": 6.8587,
      "timezone": "Europe/Berlin"
    },
    {
      "name": "宁多夫",
      "name_en": "Niendorf",
      "province": "汉堡",
      "latitude": 53.6177,
      "longitude": 9.9503,
      "timezone": "Europe/Berlin"
    },
    {
      "name": "博尔肯",
      "name_en": "Borken",
      "province": "北莱茵－威斯特法伦",
      "latitude": 51.8438,
      "longitude": 6.8577,
      "timezone": "Europe/Berlin"
    },
    {
      "name": "诺尔登堤岸布赫霍尔茨",
      "name_en": "Buchholz in der Nordheide",
      "province": "下萨克森",
      "latitude": 53.3304,
      "longitude": 9.866,
      "timezone": "Europe/Berlin"
    },
    {
      "name": "奥拉宁堡",
      "name_en": "Oranienburg",
      "province": "勃兰登堡",
      "latitude": 52.7558,
      "longitude": 13.242,
      "timezone": "Europe/Berlin"
    },
    {
      "name": "平讷贝格",
      "name_en": "Pinneberg",
      "province": "石勒苏益格-荷尔斯泰因",
      "latitude": 53.6589,
      "longitude": 9.797,
      "timezone": "Europe/Berlin"
    },
    {
      "name": "",
      "name_en": "Südstadt",
      "province": "下萨克森",
      "latitude": 52.3597,
      "longitude": 9.7508,
      "timezone": "Europe/Berlin"
    },
    {
      "name": "格尔梅林格",
      "name_en": "Germering",
      "province": "巴伐利亚州",
      "latitude": 48.1339,
      "longitude": 11.3765,
      "timezone": "Europe/Berlin"
    },
    {
      "name": "",
      "name_en": "Wilhelmstadt",
      "province": "柏林",
      "latitude": 52.5238,
      "longitude": 13.1892,
      "timezone": "Europe/Berlin"
    },
    {
      "name": "德赖艾希",
      "name_en": "Dreieich",
      "province": "黑森州",
      "latitude": 50.02,
      "longitude": 8.6961,
      "timezone": "Europe/Berlin"
    },
    {
      "name": "皮尔纳",
      "name_en": "Pirna",
      "province": "萨克森州",
      "latitude": 50.9584,
      "longitude": 13.937,
      "timezone": "Europe/Berlin"
    },
    {
      "name": "奥里希",
      "name_en": "Aurich",
      "province": "下萨克森",
      "latitude": 53.4696,
      "longitude": 7.4824,
      "timezone": "Europe/Berlin"
    },
    {
      "name": "",
      "name_en": "Barmbek-Nord",
      "province": "汉堡",
      "latitude": 53.6052,
      "longitude": 10.0399,
      "timezone": "Europe/Berlin"
    },
    {
      "name": "尼尔廷根",
      "name_en": "Nürtingen",
      "province": "巴登－符腾堡",
      "latitude": 48.6257,
      "longitude": 9.342,
      "timezone": "Europe/Berlin"
    },
    {
      "name": "泰克山下基尔夏伊姆",
      "name_en": "Kirchheim unter Teck",
      "province": "巴登－符腾堡",
      "latitude": 48.6468,
      "longitude": 9.4538,
      "timezone": "Europe/Berlin"
    },
    {
      "name": "",
      "name_en": "Buckow",
      "province": "柏林",
      "latitude": 52.4216,
      "longitude": 13.4361,
      "timezone": "Europe/Berlin"
    },
    {
      "name": "",
      "name_en": "Märkisches Viertel",
      "province": "柏林",
      "latitude": 52.5984,
      "longitude": 13.3577,
      "timezone": "Europe/Berlin"
    },
    {
      "name": "拉岑",
      "name_en": "Laatzen",
      "province": "下萨克森",
      "latitude": 52.3151,
      "longitude": 9.7974,
      "timezone": "Europe/Berlin"
    },
    {
      "name": "许克尔霍芬",
      "name_en": "Hückelhoven",
      "province": "北莱茵－威斯特法伦",
      "latitude": 51.0555,
      "longitude": 6.2266,
      "timezone": "Europe/Berlin"
    },
    {
      "name": "达豪",
      "name_en": "Dachau",
      "province": "巴伐利亚州",
      "latitude": 48.26,
      "longitude": 11.434,
      "timezone": "Europe/Berlin"
    },
    {
      "name": "哈伯斯塔特",
      "name_en": "Halberstadt",
      "province": "萨克森-安哈尔特",
      "latitude": 51.8956,
      "longitude": 11.0562,
      "timezone": "Europe/Berlin"
    },
    {
      "name": "绍恩多夫",
      "name_en": "Schorndorf",
      "province": "巴登－符腾堡",
      "latitude": 48.8054,
      "longitude": 9.5272,
      "timezone": "Europe/Berlin"
    },
    {
      "name": "",
      "name_en": "Spandau",
      "province": "柏林",
      "latitude": 52.5511,
      "longitude": 13.1992,
      "timezone": "Europe/Berlin"
    },
    {
      "name": "诺伊马克特",
      "name_en": "Neumarkt in der Oberpfalz",
      "province": "巴伐利亚州",
      "latitude": 49.2803,
      "longitude": 11.4628,
      "timezone": "Europe/Berlin"
    },
    {
      "name": "梅特曼",
      "name_en": "Mettmann",
      "province": "北莱茵－威斯特法伦",
      "latitude": 51.2504,
      "longitude": 6.9754,
      "timezone": "Europe/Berlin"
    },
    {
      "name": "勒讷",
      "name_en": "Löhne",
      "province": "北莱茵－威斯特法伦",
      "latitude": 52.1885,
      "longitude": 8.6922,
      "timezone": "Europe/Berlin"
    },
    {
      "name": "坎普-林特福尔特",
      "name_en": "Kamp-Lintfort",
      "province": "北莱茵－威斯特法伦",
      "latitude": 51.5047,
      "longitude": 6.5459,
      "timezone": "Europe/Berlin"
    },
    {
      "name": "本斯海姆",
      "name_en": "Bensheim",
      "province": "黑森州",
      "latitude": 49.6837,
      "longitude": 8.6184,
      "timezone": "Europe/Berlin"
    },
    {
      "name": "锡格堡",
      "name_en": "Siegburg",
      "province": "北莱茵－威斯特法伦",
      "latitude": 50.8002,
      "longitude": 7.2077,
      "timezone": "Europe/Berlin"
    },
    {
      "name": "弗赖塔尔",
      "name_en": "Freital",
      "province": "萨克森州",
      "latitude": 51.0017,
      "longitude": 13.6488,
      "timezone": "Europe/Berlin"
    },
    {
      "name": "埃特林根",
      "name_en": "Ettlingen",
      "province": "巴登－符腾堡",
      "latitude": 48.9409,
      "longitude": 8.4076,
      "timezone": "Europe/Berlin"
    },
    {
      "name": "",
      "name_en": "Biebrich",
      "province": "黑森州",
      "latitude": 50.0415,
      "longitude": 8.2488,
      "timezone": "Europe/Berlin"
    },
    {
      "name": "瓦伦多尔夫",
      "name_en": "Warendorf",
      "province": "北莱茵－威斯特法伦",
      "latitude": 51.9511,
      "longitude": 7.9876,
      "timezone": "Europe/Berlin"
    },
    {
      "name": "",
      "name_en": "Sankt Ingbert",
      "province": "萨尔兰州",
      "latitude": 49.277,
      "longitude": 7.1167,
      "timezone": "Europe/Berlin"
    },
    {
      "name": "",
      "name_en": "Falkenhagener Feld",
      "province": "柏林",
      "latitude": 52.5519,
      "longitude": 13.168,
      "timezone": "Europe/Berlin"
    },
    {
      "name": "阿尔滕堡",
      "name_en": "Altenburg",
      "province": "Thuringia",
      "latitude": 50.9876,
      "longitude": 12.4368,
      "timezone": "Europe/Berlin"
    },
    {
      "name": "施瓦巴赫",
      "name_en": "Schwabach",
      "province": "巴伐利亚州",
      "latitude": 49.3305,
      "longitude": 11.0235,
      "timezone": "Europe/Berlin"
    },
    {
      "name": "",
      "name_en": "Leuben",
      "province": "萨克森州",
      "latitude": 51.0112,
      "longitude": 13.8203,
      "timezone": "Europe/Berlin"
    },
    {
      "name": "萨尔路易",
      "name_en": "Saarlouis",
      "province": "萨尔兰州",
      "latitude": 49.3137,
      "longitude": 6.7515,
      "timezone": "Europe/Berlin"
    },
    {
      "name": "迈因塔尔",
      "name_en": "Maintal",
      "province": "黑森州",
      "latitude": 50.15,
      "longitude": 8.8333,
      "timezone": "Europe/Berlin"
    },
    {
      "name": "",
      "name_en": "Linden",
      "province": "下萨克森",
      "latitude": 52.3645,
      "longitude": 9.7116,
      "timezone": "Europe/Berlin"
    },
    {
      "name": "",
      "name_en": "Buxtehude",
      "province": "下萨克森",
      "latitude": 53.4699,
      "longitude": 9.6897,
      "timezone": "Europe/Berlin"
    },
    {
      "name": "阿豪斯",
      "name_en": "Ahaus",
      "province": "北莱茵－威斯特法伦",
      "latitude": 52.0794,
      "longitude": 7.0134,
      "timezone": "Europe/Berlin"
    },
    {
      "name": "米尔豪森",
      "name_en": "Mühlhausen",
      "province": "Thuringia",
      "latitude": 51.209,
      "longitude": 10.4527,
      "timezone": "Europe/Berlin"
    },
    {
      "name": "",
      "name_en": "Hamm",
      "province": "汉堡",
      "latitude": 51.6803,
      "longitude": 7.8209,
      "timezone": "Europe/Berlin"
    },
    {
      "name": "",
      "name_en": "Neustadt/Süd",
      "province": "北莱茵－威斯特法伦",
      "latitude": 50.9251,
      "longitude": 6.9476,
      "timezone": "Europe/Berlin"
    },
    {
      "name": "",
      "name_en": "Horn",
      "province": "汉堡",
      "latitude": 53.5541,
      "longitude": 10.0899,
      "timezone": "Europe/Berlin"
    },
    {
      "name": "",
      "name_en": "Haltern am See",
      "province": "北莱茵－威斯特法伦",
      "latitude": 51.743,
      "longitude": 7.1816,
      "timezone": "Europe/Berlin"
    },
    {
      "name": "贝库姆",
      "name_en": "Beckum",
      "province": "北莱茵－威斯特法伦",
      "latitude": 51.7557,
      "longitude": 8.0407,
      "timezone": "Europe/Berlin"
    },
    {
      "name": "陶努斯山麓霍夫海姆",
      "name_en": "Hofheim am Taunus",
      "province": "黑森州",
      "latitude": 50.0902,
      "longitude": 8.4493,
      "timezone": "Europe/Berlin"
    },
    {
      "name": "施滕达尔",
      "name_en": "Stendal",
      "province": "萨克森-安哈尔特",
      "latitude": 52.6069,
      "longitude": 11.8587,
      "timezone": "Europe/Berlin"
    },
    {
      "name": "",
      "name_en": "Gropiusstadt",
      "province": "柏林",
      "latitude": 52.4269,
      "longitude": 13.4605,
      "timezone": "Europe/Berlin"
    },
    {
      "name": "黑默",
      "name_en": "Hemer",
      "province": "北莱茵－威斯特法伦",
      "latitude": 51.3871,
      "longitude": 7.7702,
      "timezone": "Europe/Berlin"
    },
    {
      "name": "法尔肯塞",
      "name_en": "Falkensee",
      "province": "勃兰登堡",
      "latitude": 52.5601,
      "longitude": 13.0927,
      "timezone": "Europe/Berlin"
    },
    {
      "name": "里萨",
      "name_en": "Riesa",
      "province": "萨克森州",
      "latitude": 51.3078,
      "longitude": 13.2917,
      "timezone": "Europe/Berlin"
    },
    {
      "name": "维尔塞伦",
      "name_en": "Würselen",
      "province": "北莱茵－威斯特法伦",
      "latitude": 50.8181,
      "longitude": 6.1347,
      "timezone": "Europe/Berlin"
    },
    {
      "name": "韦默尔斯基兴",
      "name_en": "Wermelskirchen",
      "province": "北莱茵－威斯特法伦",
      "latitude": 51.1397,
      "longitude": 7.2158,
      "timezone": "Europe/Berlin"
    },
    {
      "name": "",
      "name_en": "Tegel",
      "province": "柏林",
      "latitude": 52.576,
      "longitude": 13.2939,
      "timezone": "Europe/Berlin"
    },
    {
      "name": "莱因费尔登-埃希特尔丁根",
      "name_en": "Leinfelden-Echterdingen",
      "province": "巴登－符腾堡",
      "latitude": 48.6941,
      "longitude": 9.1681,
      "timezone": "Europe/Berlin"
    },
    {
      "name": "科埃斯费尔德",
      "name_en": "Coesfeld",
      "province": "北莱茵－威斯特法伦",
      "latitude": 51.9435,
      "longitude": 7.1681,
      "timezone": "Europe/Berlin"
    },
    {
      "name": "",
      "name_en": "Schwäbisch Hall",
      "province": "巴登－符腾堡",
      "latitude": 49.1113,
      "longitude": 9.7391,
      "timezone": "Europe/Berlin"
    },
    {
      "name": "",
      "name_en": "Lurup",
      "province": "汉堡",
      "latitude": 53.5927,
      "longitude": 9.877,
      "timezone": "Europe/Berlin"
    },
    {
      "name": "下卡塞尔",
      "name_en": "Niederkassel",
      "province": "北莱茵－威斯特法伦",
      "latitude": 50.815,
      "longitude": 7.0378,
      "timezone": "Europe/Berlin"
    },
    {
      "name": "",
      "name_en": "Porta Westfalica",
      "province": "北莱茵－威斯特法伦",
      "latitude": 52.2296,
      "longitude": 8.9161,
      "timezone": "Europe/Berlin"
    },
    {
      "name": "达特尔恩",
      "name_en": "Datteln",
      "province": "北莱茵－威斯特法伦",
      "latitude": 51.656,
      "longitude": 7.3453,
      "timezone": "Europe/Berlin"
    },
    {
      "name": "肯彭",
      "name_en": "Kempen",
      "province": "北莱茵－威斯特法伦",
      "latitude": 51.3643,
      "longitude": 6.4186,
      "timezone": "Europe/Berlin"
    },
    {
      "name": "福埃尔德",
      "name_en": "Voerde",
      "province": "北莱茵－威斯特法伦",
      "latitude": 51.597,
      "longitude": 6.6863,
      "timezone": "Europe/Berlin"
    },
    {
      "name": "",
      "name_en": "Barmbek-Süd",
      "province": "汉堡",
      "latitude": 53.5801,
      "longitude": 10.0407,
      "timezone": "Europe/Berlin"
    },
    {
      "name": "巴克南",
      "name_en": "Backnang",
      "province": "巴登－符腾堡",
      "latitude": 48.9474,
      "longitude": 9.4372,
      "timezone": "Europe/Berlin"
    },
    {
      "name": "",
      "name_en": "Pasing",
      "province": "巴伐利亚州",
      "latitude": 48.1415,
      "longitude": 11.456,
      "timezone": "Europe/Berlin"
    },
    {
      "name": "韦瑟灵",
      "name_en": "Wesseling",
      "province": "北莱茵－威斯特法伦",
      "latitude": 50.8271,
      "longitude": 6.9747,
      "timezone": "Europe/Berlin"
    },
    {
      "name": "埃姆斯代滕",
      "name_en": "Emsdetten",
      "province": "北莱茵－威斯特法伦",
      "latitude": 52.1734,
      "longitude": 7.5278,
      "timezone": "Europe/Berlin"
    },
    {
      "name": "",
      "name_en": "Farmsen-Berne",
      "province": "汉堡",
      "latitude": 53.6064,
      "longitude": 10.1197,
      "timezone": "Europe/Berlin"
    },
    {
      "name": "",
      "name_en": "Langen",
      "province": "黑森州",
      "latitude": 49.9896,
      "longitude": 8.6685,
      "timezone": "Europe/Berlin"
    },
    {
      "name": "",
      "name_en": "Neu-Isenburg",
      "province": "黑森州",
      "latitude": 50.0483,
      "longitude": 8.6941,
      "timezone": "Europe/Berlin"
    },
    {
      "name": "茨魏布吕肯",
      "name_en": "Zweibrücken",
      "province": "莱茵兰－普法尔茨",
      "latitude": 49.2469,
      "longitude": 7.3698,
      "timezone": "Europe/Berlin"
    },
    {
      "name": "辛斯海姆",
      "name_en": "Sinsheim",
      "province": "巴登－符腾堡",
      "latitude": 49.2529,
      "longitude": 8.8787,
      "timezone": "Europe/Berlin"
    },
    {
      "name": "",
      "name_en": "Ottensen",
      "province": "汉堡",
      "latitude": 53.5521,
      "longitude": 9.9242,
      "timezone": "Europe/Berlin"
    },
    {
      "name": "格雷芬",
      "name_en": "Greven",
      "province": "北莱茵－威斯特法伦",
      "latitude": 52.0936,
      "longitude": 7.594,
      "timezone": "Europe/Berlin"
    },
    {
      "name": "",
      "name_en": "Eidelstedt",
      "province": "汉堡",
      "latitude": 53.607,
      "longitude": 9.9054,
      "timezone": "Europe/Berlin"
    },
    {
      "name": "",
      "name_en": "Bonn Hardtberg",
      "province": "北莱茵－威斯特法伦",
      "latitude": 50.704,
      "longitude": 7.054,
      "timezone": "Europe/Berlin"
    },
    {
      "name": "于尔岑",
      "name_en": "Uelzen",
      "province": "下萨克森",
      "latitude": 52.9657,
      "longitude": 10.5611,
      "timezone": "Europe/Berlin"
    },
    {
      "name": "拉格",
      "name_en": "Lage",
      "province": "北莱茵－威斯特法伦",
      "latitude": 51.9922,
      "longitude": 8.793,
      "timezone": "Europe/Berlin"
    },
    {
      "name": "柏林附近贝尔瑙",
      "name_en": "Bernau bei Berlin",
      "province": "勃兰登堡",
      "latitude": 52.6798,
      "longitude": 13.5871,
      "timezone": "Europe/Berlin"
    },
    {
      "name": "图特林根",
      "name_en": "Tuttlingen",
      "province": "巴登－符腾堡",
      "latitude": 47.9846,
      "longitude": 8.8177,
      "timezone": "Europe/Berlin"
    },
    {
      "name": "梅泽堡",
      "name_en": "Merseburg",
      "province": "萨克森-安哈尔特",
      "latitude": 51.3548,
      "longitude": 11.9892,
      "timezone": "Europe/Berlin"
    },
    {
      "name": "",
      "name_en": "Vegesack",
      "province": "不来梅州",
      "latitude": 53.1792,
      "longitude": 8.6223,
      "timezone": "Europe/Berlin"
    },
    {
      "name": "施泰因富尔特",
      "name_en": "Steinfurt",
      "province": "北莱茵－威斯特法伦",
      "latitude": 52.1504,
      "longitude": 7.3366,
      "timezone": "Europe/Berlin"
    },
    {
      "name": "韦尔尼格罗德",
      "name_en": "Wernigerode",
      "province": "萨克森-安哈尔特",
      "latitude": 51.8365,
      "longitude": 10.7822,
      "timezone": "Europe/Berlin"
    },
    {
      "name": "巴林根",
      "name_en": "Balingen",
      "province": "巴登－符腾堡",
      "latitude": 48.2752,
      "longitude": 8.8546,
      "timezone": "Europe/Berlin"
    },
    {
      "name": "",
      "name_en": "Meppen",
      "province": "下萨克森",
      "latitude": 52.6906,
      "longitude": 7.291,
      "timezone": "Europe/Berlin"
    },
    {
      "name": "帕彭堡",
      "name_en": "Papenburg",
      "province": "下萨克森",
      "latitude": 53.0777,
      "longitude": 7.4152,
      "timezone": "Europe/Berlin"
    },
    {
      "name": "格尔德尔恩",
      "name_en": "Geldern",
      "province": "北莱茵－威斯特法伦",
      "latitude": 51.5191,
      "longitude": 6.3236,
      "timezone": "Europe/Berlin"
    },
    {
      "name": "凯尔",
      "name_en": "Kehl",
      "province": "巴登－符腾堡",
      "latitude": 48.573,
      "longitude": 7.8152,
      "timezone": "Europe/Berlin"
    },
    {
      "name": "于利希",
      "name_en": "Jülich",
      "province": "北莱茵－威斯特法伦",
      "latitude": 50.9215,
      "longitude": 6.3627,
      "timezone": "Europe/Berlin"
    },
    {
      "name": "",
      "name_en": "Leer",
      "province": "下萨克森",
      "latitude": 53.2316,
      "longitude": 7.461,
      "timezone": "Europe/Berlin"
    },
    {
      "name": "兰河畔林堡",
      "name_en": "Limburg an der Lahn",
      "province": "黑森州",
      "latitude": 50.3836,
      "longitude": 8.0503,
      "timezone": "Europe/Berlin"
    },
    {
      "name": "",
      "name_en": "Fennpfuhl",
      "province": "柏林",
      "latitude": 52.5292,
      "longitude": 13.4727,
      "timezone": "Europe/Berlin"
    },
    {
      "name": "戈赫",
      "name_en": "Goch",
      "province": "北莱茵－威斯特法伦",
      "latitude": 51.6787,
      "longitude": 6.1589,
      "timezone": "Europe/Berlin"
    },
    {
      "name": "",
      "name_en": "Ostfildern",
      "province": "巴登－符腾堡",
      "latitude": 48.727,
      "longitude": 9.2495,
      "timezone": "Europe/Berlin"
    },
    {
      "name": "菲尔斯滕瓦尔德",
      "name_en": "Fürstenwalde",
      "province": "勃兰登堡",
      "latitude": 52.3607,
      "longitude": 14.0618,
      "timezone": "Europe/Berlin"
    },
    {
      "name": "菲尔斯滕费尔德布鲁克",
      "name_en": "Fürstenfeldbruck",
      "province": "巴伐利亚州",
      "latitude": 48.179,
      "longitude": 11.2547,
      "timezone": "Europe/Berlin"
    },
    {
      "name": "埃尔丁",
      "name_en": "Erding",
      "province": "巴伐利亚州",
      "latitude": 48.306,
      "longitude": 11.9069,
      "timezone": "Europe/Berlin"
    },
    {
      "name": "科尔申布罗伊希",
      "name_en": "Korschenbroich",
      "province": "北莱茵－威斯特法伦",
      "latitude": 51.1914,
      "longitude": 6.5135,
      "timezone": "Europe/Berlin"
    },
    {
      "name": "迪岑巴赫",
      "name_en": "Dietzenbach",
      "province": "黑森州",
      "latitude": 50.0098,
      "longitude": 8.7778,
      "timezone": "Europe/Berlin"
    },
    {
      "name": "伊策霍埃",
      "name_en": "Itzehoe",
      "province": "石勒苏益格-荷尔斯泰因",
      "latitude": 53.921,
      "longitude": 9.5153,
      "timezone": "Europe/Berlin"
    },
    {
      "name": "",
      "name_en": "Burglesum",
      "province": "不来梅州",
      "latitude": 53.1653,
      "longitude": 8.6887,
      "timezone": "Europe/Berlin"
    },
    {
      "name": "",
      "name_en": "Buer",
      "province": "北莱茵－威斯特法伦",
      "latitude": 51.5774,
      "longitude": 7.0518,
      "timezone": "Europe/Berlin"
    },
    {
      "name": "塞尔策",
      "name_en": "Seelze",
      "province": "下萨克森",
      "latitude": 52.3963,
      "longitude": 9.5973,
      "timezone": "Europe/Berlin"
    },
    {
      "name": "默费尔登-瓦尔多夫",
      "name_en": "Mörfelden-Walldorf",
      "province": "黑森州",
      "latitude": 49.9947,
      "longitude": 8.5836,
      "timezone": "Europe/Berlin"
    },
    {
      "name": "赫克斯特尔",
      "name_en": "Höxter",
      "province": "北莱茵－威斯特法伦",
      "latitude": 51.775,
      "longitude": 9.3816,
      "timezone": "Europe/Berlin"
    },
    {
      "name": "盖沃尔斯贝格",
      "name_en": "Gevelsberg",
      "province": "北莱茵－威斯特法伦",
      "latitude": 51.3197,
      "longitude": 7.3392,
      "timezone": "Europe/Berlin"
    },
    {
      "name": "",
      "name_en": "Winsen",
      "province": "下萨克森",
      "latitude": 53.3578,
      "longitude": 10.2116,
      "timezone": "Europe/Berlin"
    },
    {
      "name": "黑伦贝格",
      "name_en": "Herrenberg",
      "province": "巴登－符腾堡",
      "latitude": 48.5952,
      "longitude": 8.8665,
      "timezone": "Europe/Berlin"
    },
    {
      "name": "拉德博伊尔",
      "name_en": "Radebeul",
      "province": "萨克森州",
      "latitude": 51.1065,
      "longitude": 13.6605,
      "timezone": "Europe/Berlin"
    },
    {
      "name": "宁布尔格",
      "name_en": "Nienburg",
      "province": "下萨克森",
      "latitude": 52.6461,
      "longitude": 9.2209,
      "timezone": "Europe/Berlin"
    },
    {
      "name": "菲尔恩海姆",
      "name_en": "Viernheim",
      "province": "黑森州",
      "latitude": 49.5403,
      "longitude": 8.5782,
      "timezone": "Europe/Berlin"
    },
    {
      "name": "埃内佩塔尔",
      "name_en": "Ennepetal",
      "province": "北莱茵－威斯特法伦",
      "latitude": 51.2985,
      "longitude": 7.3629,
      "timezone": "Europe/Berlin"
    },
    {
      "name": "格奥尔格斯马林许特",
      "name_en": "Georgsmarienhütte",
      "province": "下萨克森",
      "latitude": 52.203,
      "longitude": 8.0448,
      "timezone": "Europe/Berlin"
    },
    {
      "name": "",
      "name_en": "Rheinfelden",
      "province": "巴登－符腾堡",
      "latitude": 47.5601,
      "longitude": 7.7871,
      "timezone": "Europe/Berlin"
    },
    {
      "name": "柯尼希斯武斯特豪森",
      "name_en": "Königs Wusterhausen",
      "province": "勃兰登堡",
      "latitude": 52.3014,
      "longitude": 13.633,
      "timezone": "Europe/Berlin"
    },
    {
      "name": "",
      "name_en": "Stuhr",
      "province": "下萨克森",
      "latitude": 53.0333,
      "longitude": 8.75,
      "timezone": "Europe/Berlin"
    },
    {
      "name": "里斯河畔比伯拉赫",
      "name_en": "Biberach an der Riß",
      "province": "巴登－符腾堡",
      "latitude": 48.0934,
      "longitude": 9.7905,
      "timezone": "Europe/Berlin"
    },
    {
      "name": "",
      "name_en": "Marienfelde",
      "province": "柏林",
      "latitude": 52.4187,
      "longitude": 13.3672,
      "timezone": "Europe/Berlin"
    },
    {
      "name": "克赖尔斯海姆",
      "name_en": "Crailsheim",
      "province": "巴登－符腾堡",
      "latitude": 49.1344,
      "longitude": 10.0719,
      "timezone": "Europe/Berlin"
    },
    {
      "name": "梅舍德",
      "name_en": "Meschede",
      "province": "北莱茵－威斯特法伦",
      "latitude": 51.3502,
      "longitude": 8.2833,
      "timezone": "Europe/Berlin"
    },
    {
      "name": "",
      "name_en": "Rheinberg",
      "province": "北莱茵－威斯特法伦",
      "latitude": 51.5465,
      "longitude": 6.5953,
      "timezone": "Europe/Berlin"
    },
    {
      "name": "韦尔",
      "name_en": "Werl",
      "province": "北莱茵－威斯特法伦",
      "latitude": 51.5549,
      "longitude": 7.914,
      "timezone": "Europe/Berlin"
    },
    {
      "name": "贝尔恩布尔格",
      "name_en": "Bernburg",
      "province": "萨克森-安哈尔特",
      "latitude": 51.7946,
      "longitude": 11.7401,
      "timezone": "Europe/Berlin"
    },
    {
      "name": "",
      "name_en": "Neugraben-Fischbek",
      "province": "汉堡",
      "latitude": 53.4658,
      "longitude": 9.8434,
      "timezone": "Europe/Berlin"
    },
    {
      "name": "艾森许滕斯塔特",
      "name_en": "Eisenhüttenstadt",
      "province": "勃兰登堡",
      "latitude": 52.15,
      "longitude": 14.65,
      "timezone": "Europe/Berlin"
    },
    {
      "name": "",
      "name_en": "Langendreer",
      "province": "北莱茵－威斯特法伦",
      "latitude": 51.4602,
      "longitude": 7.3258,
      "timezone": "Europe/Berlin"
    },
    {
      "name": "",
      "name_en": "Niederschönhausen",
      "province": "柏林",
      "latitude": 52.5848,
      "longitude": 13.4027,
      "timezone": "Europe/Berlin"
    },
    {
      "name": "韦德尔",
      "name_en": "Wedel",
      "province": "石勒苏益格-荷尔斯泰因",
      "latitude": 53.5837,
      "longitude": 9.6983,
      "timezone": "Europe/Berlin"
    },
    {
      "name": "诺伊鲁平",
      "name_en": "Neuruppin",
      "province": "勃兰登堡",
      "latitude": 52.9282,
      "longitude": 12.8031,
      "timezone": "Europe/Berlin"
    },
    {
      "name": "安斯巴赫",
      "name_en": "Ansbach",
      "province": "巴伐利亚州",
      "latitude": 49.3048,
      "longitude": 10.5931,
      "timezone": "Europe/Berlin"
    },
    {
      "name": "克罗伊茨塔尔",
      "name_en": "Kreuztal",
      "province": "北莱茵－威斯特法伦",
      "latitude": 50.9678,
      "longitude": 7.9885,
      "timezone": "Europe/Berlin"
    },
    {
      "name": "兰佩尔泰姆",
      "name_en": "Lampertheim",
      "province": "黑森州",
      "latitude": 49.5979,
      "longitude": 8.4725,
      "timezone": "Europe/Berlin"
    },
    {
      "name": "伊达尔-奥伯施泰因",
      "name_en": "Idar-Oberstein",
      "province": "莱茵兰－普法尔茨",
      "latitude": 49.7144,
      "longitude": 7.3078,
      "timezone": "Europe/Berlin"
    },
    {
      "name": "奥斯特罗尔茨-沙尔恩贝克",
      "name_en": "Osterholz-Scharmbeck",
      "province": "下萨克森",
      "latitude": 53.2266,
      "longitude": 8.7923,
      "timezone": "Europe/Berlin"
    },
    {
      "name": "布拉姆舍",
      "name_en": "Bramsche",
      "province": "下萨克森",
      "latitude": 52.4088,
      "longitude": 7.9729,
      "timezone": "Europe/Berlin"
    },
    {
      "name": "洛马尔",
      "name_en": "Lohmar",
      "province": "北莱茵－威斯特法伦",
      "latitude": 50.8387,
      "longitude": 7.214,
      "timezone": "Europe/Berlin"
    },
    {
      "name": "",
      "name_en": "Hakenfelde",
      "province": "柏林",
      "latitude": 52.5588,
      "longitude": 13.2083,
      "timezone": "Europe/Berlin"
    },
    {
      "name": "居斯特罗",
      "name_en": "Güstrow",
      "province": "梅克伦堡－前波美拉尼亚",
      "latitude": 53.7972,
      "longitude": 12.1734,
      "timezone": "Europe/Berlin"
    },
    {
      "name": "克洛彭堡",
      "name_en": "Cloppenburg",
      "province": "下萨克森",
      "latitude": 52.8475,
      "longitude": 8.0474,
      "timezone": "Europe/Berlin"
    },
    {
      "name": "甘德尔克塞",
      "name_en": "Ganderkesee",
      "province": "下萨克森",
      "latitude": 53.0362,
      "longitude": 8.5451,
      "timezone": "Europe/Berlin"
    },
    {
      "name": "梅尔齐希",
      "name_en": "Merzig",
      "province": "萨尔兰州",
      "latitude": 49.4433,
      "longitude": 6.6387,
      "timezone": "Europe/Berlin"
    },
    {
      "name": "代根多夫",
      "name_en": "Deggendorf",
      "province": "巴伐利亚州",
      "latitude": 48.8409,
      "longitude": 12.9607,
      "timezone": "Europe/Berlin"
    },
    {
      "name": "科尔恩韦斯泰姆",
      "name_en": "Kornwestheim",
      "province": "巴登－符腾堡",
      "latitude": 48.8616,
      "longitude": 9.1857,
      "timezone": "Europe/Berlin"
    },
    {
      "name": "",
      "name_en": "Burgdorf",
      "province": "下萨克森",
      "latitude": 52.4463,
      "longitude": 10.0064,
      "timezone": "Europe/Berlin"
    },
    {
      "name": "诺尔泰姆",
      "name_en": "Northeim",
      "province": "下萨克森",
      "latitude": 51.7066,
      "longitude": 10.0,
      "timezone": "Europe/Berlin"
    },
    {
      "name": "莱茵河畔埃默里希",
      "name_en": "Emmerich",
      "province": "北莱茵－威斯特法伦",
      "latitude": 51.8393,
      "longitude": 6.2479,
      "timezone": "Europe/Berlin"
    },
    {
      "name": "韦尔内",
      "name_en": "Werne",
      "province": "北莱茵－威斯特法伦",
      "latitude": 51.6645,
      "longitude": 7.6342,
      "timezone": "Europe/Berlin"
    },
    {
      "name": "巴德菲尔贝尔",
      "name_en": "Bad Vilbel",
      "province": "黑森州",
      "latitude": 50.1787,
      "longitude": 8.7376,
      "timezone": "Europe/Berlin"
    },
    {
      "name": "巴特黑斯费尔德",
      "name_en": "Bad Hersfeld",
      "province": "黑森州",
      "latitude": 50.872,
      "longitude": 9.7089,
      "timezone": "Europe/Berlin"
    },
    {
      "name": "福希海姆",
      "name_en": "Forchheim",
      "province": "巴伐利亚州",
      "latitude": 49.7175,
      "longitude": 11.0588,
      "timezone": "Europe/Berlin"
    },
    {
      "name": "奥埃尔-埃尔肯施维克",
      "name_en": "Oer-Erkenschwick",
      "province": "北莱茵－威斯特法伦",
      "latitude": 51.642,
      "longitude": 7.2645,
      "timezone": "Europe/Berlin"
    },
    {
      "name": "舍纳贝克",
      "name_en": "Schönebeck",
      "province": "萨克森-安哈尔特",
      "latitude": 52.0168,
      "longitude": 11.7307,
      "timezone": "Europe/Berlin"
    },
    {
      "name": "特尼斯福尔斯特",
      "name_en": "Tönisvorst",
      "province": "北莱茵－威斯特法伦",
      "latitude": 51.3209,
      "longitude": 6.4941,
      "timezone": "Europe/Berlin"
    },
    {
      "name": "巴德瑙海姆",
      "name_en": "Bad Nauheim",
      "province": "黑森州",
      "latitude": 50.3646,
      "longitude": 8.7386,
      "timezone": "Europe/Berlin"
    },
    {
      "name": "施韦尔姆",
      "name_en": "Schwelm",
      "province": "北莱茵－威斯特法伦",
      "latitude": 51.2863,
      "longitude": 7.2939,
      "timezone": "Europe/Berlin"
    },
    {
      "name": "瓦尔特罗普",
      "name_en": "Waltrop",
      "province": "北莱茵－威斯特法伦",
      "latitude": 51.6213,
      "longitude": 7.4024,
      "timezone": "Europe/Berlin"
    },
    {
      "name": "",
      "name_en": "Schwedt (Oder)",
      "province": "勃兰登堡",
      "latitude": 53.0596,
      "longitude": 14.2815,
      "timezone": "Europe/Berlin"
    },
    {
      "name": "阿伦斯堡",
      "name_en": "Ahrensburg",
      "province": "石勒苏益格-荷尔斯泰因",
      "latitude": 53.6766,
      "longitude": 10.237,
      "timezone": "Europe/Berlin"
    },
    {
      "name": "",
      "name_en": "Schnelsen",
      "province": "汉堡",
      "latitude": 53.6374,
      "longitude": 9.9197,
      "timezone": "Europe/Berlin"
    },
    {
      "name": "博登湖畔拉多夫采尔",
      "name_en": "Radolfzell",
      "province": "巴登－符腾堡",
      "latitude": 47.7419,
      "longitude": 8.971,
      "timezone": "Europe/Berlin"
    },
    {
      "name": "阿希姆",
      "name_en": "Achim",
      "province": "下萨克森",
      "latitude": 53.0142,
      "longitude": 9.0263,
      "timezone": "Europe/Berlin"
    },
    {
      "name": "",
      "name_en": "Wittenberg",
      "province": "萨克森-安哈尔特",
      "latitude": 51.8661,
      "longitude": 12.6497,
      "timezone": "Europe/Berlin"
    },
    {
      "name": "",
      "name_en": "Friedberg",
      "province": "巴伐利亚州",
      "latitude": 48.3569,
      "longitude": 10.9846,
      "timezone": "Europe/Berlin"
    },
    {
      "name": "德尔布吕克",
      "name_en": "Delbrück",
      "province": "北莱茵－威斯特法伦",
      "latitude": 51.765,
      "longitude": 8.5622,
      "timezone": "Europe/Berlin"
    },
    {
      "name": "施普林格",
      "name_en": "Springe",
      "province": "下萨克森",
      "latitude": 52.2084,
      "longitude": 9.5542,
      "timezone": "Europe/Berlin"
    },
    {
      "name": "魏森费尔斯",
      "name_en": "Weißenfels",
      "province": "萨克森-安哈尔特",
      "latitude": 51.2015,
      "longitude": 11.9684,
      "timezone": "Europe/Berlin"
    },
    {
      "name": "",
      "name_en": "Mahlsdorf",
      "province": "柏林",
      "latitude": 52.5093,
      "longitude": 13.6137,
      "timezone": "Europe/Berlin"
    },
    {
      "name": "费希塔",
      "name_en": "Vechta",
      "province": "下萨克森",
      "latitude": 52.7263,
      "longitude": 8.286,
      "timezone": "Europe/Berlin"
    },
    {
      "name": "瑙姆堡",
      "name_en": "Naumburg",
      "province": "萨克森-安哈尔特",
      "latitude": 51.1499,
      "longitude": 11.8098,
      "timezone": "Europe/Berlin"
    },
    {
      "name": "韦格贝格",
      "name_en": "Wegberg",
      "province": "北莱茵－威斯特法伦",
      "latitude": 51.1422,
      "longitude": 6.2844,
      "timezone": "Europe/Berlin"
    },
    {
      "name": "安德纳赫",
      "name_en": "Andernach",
      "province": "莱茵兰－普法尔茨",
      "latitude": 50.4311,
      "longitude": 7.4043,
      "timezone": "Europe/Berlin"
    },
    {
      "name": "",
      "name_en": "Altglienicke",
      "province": "柏林",
      "latitude": 52.4112,
      "longitude": 13.5355,
      "timezone": "Europe/Berlin"
    },
    {
      "name": "莱茵河畔魏尔",
      "name_en": "Weil am Rhein",
      "province": "巴登－符腾堡",
      "latitude": 47.5933,
      "longitude": 7.6208,
      "timezone": "Europe/Berlin"
    },
    {
      "name": "陶努斯泰因",
      "name_en": "Taunusstein",
      "province": "黑森州",
      "latitude": 50.1499,
      "longitude": 8.1521,
      "timezone": "Europe/Berlin"
    },
    {
      "name": "加格瑙",
      "name_en": "Gaggenau",
      "province": "巴登－符腾堡",
      "latitude": 48.8,
      "longitude": 8.3333,
      "timezone": "Europe/Berlin"
    },
    {
      "name": "格斯塔特",
      "name_en": "Geesthacht",
      "province": "石勒苏益格-荷尔斯泰因",
      "latitude": 53.4366,
      "longitude": 10.3734,
      "timezone": "Europe/Berlin"
    },
    {
      "name": "蔡茨",
      "name_en": "Zeitz",
      "province": "萨克森-安哈尔特",
      "latitude": 51.0496,
      "longitude": 12.1369,
      "timezone": "Europe/Berlin"
    },
    {
      "name": "",
      "name_en": "Altona-Altstadt",
      "province": "汉堡",
      "latitude": 53.5502,
      "longitude": 9.9465,
      "timezone": "Europe/Berlin"
    },
    {
      "name": "",
      "name_en": "Haan",
      "province": "北莱茵－威斯特法伦",
      "latitude": 51.1938,
      "longitude": 7.0133,
      "timezone": "Europe/Berlin"
    },
    {
      "name": "厄尔德",
      "name_en": "Oelde",
      "province": "北莱茵－威斯特法伦",
      "latitude": 51.8289,
      "longitude": 8.1472,
      "timezone": "Europe/Berlin"
    },
    {
      "name": "",
      "name_en": "Bühl",
      "province": "巴登－符腾堡",
      "latitude": 48.6968,
      "longitude": 8.1352,
      "timezone": "Europe/Berlin"
    },
    {
      "name": "",
      "name_en": "Kelkheim",
      "province": "黑森州",
      "latitude": 50.137,
      "longitude": 8.4502,
      "timezone": "Europe/Berlin"
    },
    {
      "name": "",
      "name_en": "Wetter",
      "province": "北莱茵－威斯特法伦",
      "latitude": 51.3875,
      "longitude": 7.3928,
      "timezone": "Europe/Berlin"
    },
    {
      "name": "",
      "name_en": "Blankenfelde-Mahlow",
      "province": "勃兰登堡",
      "latitude": 52.3364,
      "longitude": 13.4132,
      "timezone": "Europe/Berlin"
    },
    {
      "name": "森夫滕贝格",
      "name_en": "Senftenberg",
      "province": "勃兰登堡",
      "latitude": 51.5252,
      "longitude": 14.0016,
      "timezone": "Europe/Berlin"
    },
    {
      "name": "",
      "name_en": "Biesdorf",
      "province": "柏林",
      "latitude": 52.5091,
      "longitude": 13.5534,
      "timezone": "Europe/Berlin"
    },
    {
      "name": "",
      "name_en": "Düsseldorf-Pempelfort",
      "province": "北莱茵－威斯特法伦",
      "latitude": 51.2381,
      "longitude": 6.7868,
      "timezone": "Europe/Berlin"
    },
    {
      "name": "恩茨河畔法伊欣根",
      "name_en": "Vaihingen an der Enz",
      "province": "巴登－符腾堡",
      "latitude": 48.9356,
      "longitude": 8.9604,
      "timezone": "Europe/Berlin"
    },
    {
      "name": "克滕",
      "name_en": "Köthen",
      "province": "萨克森-安哈尔特",
      "latitude": 51.7518,
      "longitude": 11.9709,
      "timezone": "Europe/Berlin"
    },
    {
      "name": "里特贝格",
      "name_en": "Rietberg",
      "province": "北莱茵－威斯特法伦",
      "latitude": 51.8092,
      "longitude": 8.4284,
      "timezone": "Europe/Berlin"
    },
    {
      "name": "坡道旁盖斯林根",
      "name_en": "Geislingen an der Steige",
      "province": "巴登－符腾堡",
      "latitude": 48.6242,
      "longitude": 9.8274,
      "timezone": "Europe/Berlin"
    },
    {
      "name": "美因河畔米赫尔海姆",
      "name_en": "Mühlheim am Main",
      "province": "黑森州",
      "latitude": 50.1167,
      "longitude": 8.8333,
      "timezone": "Europe/Berlin"
    },
    {
      "name": "瓦尔斯泰因",
      "name_en": "Warstein",
      "province": "北莱茵－威斯特法伦",
      "latitude": 51.4449,
      "longitude": 8.3485,
      "timezone": "Europe/Berlin"
    },
    {
      "name": "迈森",
      "name_en": "Meissen",
      "province": "萨克森州",
      "latitude": 51.1616,
      "longitude": 13.4737,
      "timezone": "Europe/Berlin"
    },
    {
      "name": "纽因堡",
      "name_en": "Neuburg an der Donau",
      "province": "巴伐利亚州",
      "latitude": 48.7322,
      "longitude": 11.1871,
      "timezone": "Europe/Berlin"
    },
    {
      "name": "盖伦基兴",
      "name_en": "Geilenkirchen",
      "province": "北莱茵－威斯特法伦",
      "latitude": 50.9674,
      "longitude": 6.1176,
      "timezone": "Europe/Berlin"
    },
    {
      "name": "温嫩登",
      "name_en": "Winnenden",
      "province": "巴登－符腾堡",
      "latitude": 48.8756,
      "longitude": 9.3982,
      "timezone": "Europe/Berlin"
    },
    {
      "name": "伦茨堡",
      "name_en": "Rendsburg",
      "province": "石勒苏益格-荷尔斯泰因",
      "latitude": 54.3018,
      "longitude": 9.6717,
      "timezone": "Europe/Berlin"
    },
    {
      "name": "",
      "name_en": "Schwandorf in Bayern",
      "province": "巴伐利亚州",
      "latitude": 49.3253,
      "longitude": 12.1098,
      "timezone": "Europe/Berlin"
    },
    {
      "name": "",
      "name_en": "Karlshorst",
      "province": "柏林",
      "latitude": 52.4842,
      "longitude": 13.5319,
      "timezone": "Europe/Berlin"
    },
    {
      "name": "普莱滕贝格",
      "name_en": "Plettenberg",
      "province": "北莱茵－威斯特法伦",
      "latitude": 51.2095,
      "longitude": 7.8726,
      "timezone": "Europe/Berlin"
    },
    {
      "name": "鲍纳塔尔",
      "name_en": "Baunatal",
      "province": "黑森州",
      "latitude": 51.2518,
      "longitude": 9.4075,
      "timezone": "Europe/Berlin"
    },
    {
      "name": "",
      "name_en": "Neustadt/Nord",
      "province": "北莱茵－威斯特法伦",
      "latitude": 50.949,
      "longitude": 6.9479,
      "timezone": "Europe/Berlin"
    },
    {
      "name": "布雷滕",
      "name_en": "Bretten",
      "province": "巴登－符腾堡",
      "latitude": 49.0369,
      "longitude": 8.7074,
      "timezone": "Europe/Berlin"
    },
    {
      "name": "",
      "name_en": "Neukirchen-Vluyn",
      "province": "北莱茵－威斯特法伦",
      "latitude": 51.4466,
      "longitude": 6.5519,
      "timezone": "Europe/Berlin"
    },
    {
      "name": "莱内斯塔特",
      "name_en": "Lennestadt",
      "province": "北莱茵－威斯特法伦",
      "latitude": 51.1172,
      "longitude": 8.0671,
      "timezone": "Europe/Berlin"
    },
    {
      "name": "克费拉埃尔",
      "name_en": "Kevelaer",
      "province": "北莱茵－威斯特法伦",
      "latitude": 51.5824,
      "longitude": 6.246,
      "timezone": "Europe/Berlin"
    },
    {
      "name": "",
      "name_en": "Stuttgart Feuerbach",
      "province": "巴登－符腾堡",
      "latitude": 48.8087,
      "longitude": 9.1572,
      "timezone": "Europe/Berlin"
    },
    {
      "name": "萨尔费尔德",
      "name_en": "Saalfeld",
      "province": "Thuringia",
      "latitude": 50.6483,
      "longitude": 11.3654,
      "timezone": "Europe/Berlin"
    },
    {
      "name": "",
      "name_en": "Friedenau",
      "province": "柏林",
      "latitude": 52.4713,
      "longitude": 13.3281,
      "timezone": "Europe/Berlin"
    },
    {
      "name": "埃因贝克",
      "name_en": "Einbeck",
      "province": "下萨克森",
      "latitude": 51.8202,
      "longitude": 9.8696,
      "timezone": "Europe/Berlin"
    },
    {
      "name": "莱希林根",
      "name_en": "Leichlingen",
      "province": "北莱茵－威斯特法伦",
      "latitude": 51.1063,
      "longitude": 7.0187,
      "timezone": "Europe/Berlin"
    },
    {
      "name": "巴斯韦勒",
      "name_en": "Baesweiler",
      "province": "北莱茵－威斯特法伦",
      "latitude": 50.9096,
      "longitude": 6.1887,
      "timezone": "Europe/Berlin"
    },
    {
      "name": "巴特诺因阿尔-阿尔韦勒",
      "name_en": "Bad Neuenahr-Ahrweiler",
      "province": "莱茵兰－普法尔茨",
      "latitude": 50.5432,
      "longitude": 7.1113,
      "timezone": "Europe/Berlin"
    },
    {
      "name": "诺尔登哈姆",
      "name_en": "Nordenham",
      "province": "下萨克森",
      "latitude": 53.501,
      "longitude": 8.4896,
      "timezone": "Europe/Berlin"
    },
    {
      "name": "海利根豪斯",
      "name_en": "Heiligenhaus",
      "province": "北莱茵－威斯特法伦",
      "latitude": 51.3266,
      "longitude": 6.9711,
      "timezone": "Europe/Berlin"
    },
    {
      "name": "",
      "name_en": "Hörde",
      "province": "北莱茵－威斯特法伦",
      "latitude": 51.4837,
      "longitude": 7.5003,
      "timezone": "Europe/Berlin"
    },
    {
      "name": "",
      "name_en": "Dorstfeld",
      "province": "北莱茵－威斯特法伦",
      "latitude": 51.5014,
      "longitude": 7.4108,
      "timezone": "Europe/Berlin"
    },
    {
      "name": "库尔姆巴赫",
      "name_en": "Kulmbach",
      "province": "巴伐利亚州",
      "latitude": 50.1007,
      "longitude": 11.4503,
      "timezone": "Europe/Berlin"
    },
    {
      "name": "",
      "name_en": "Dotzheim",
      "province": "黑森州",
      "latitude": 50.0744,
      "longitude": 8.195,
      "timezone": "Europe/Berlin"
    },
    {
      "name": "孙登",
      "name_en": "Sundern",
      "province": "北莱茵－威斯特法伦",
      "latitude": 51.3281,
      "longitude": 8.0037,
      "timezone": "Europe/Berlin"
    },
    {
      "name": "巴特茨维申安",
      "name_en": "Bad Zwischenahn",
      "province": "下萨克森",
      "latitude": 53.1848,
      "longitude": 8.0029,
      "timezone": "Europe/Berlin"
    },
    {
      "name": "塞尔姆",
      "name_en": "Selm",
      "province": "北莱茵－威斯特法伦",
      "latitude": 51.6969,
      "longitude": 7.4681,
      "timezone": "Europe/Berlin"
    },
    {
      "name": "梅歇尔尼希",
      "name_en": "Mechernich",
      "province": "北莱茵－威斯特法伦",
      "latitude": 50.593,
      "longitude": 6.6522,
      "timezone": "Europe/Berlin"
    },