{
  "country_code": "IN",
  "country_name": "印度",
  "cities": [
    {
      "name": "孟买",
      "name_en": "Mumbai",
      "province": "马哈拉施特拉邦",
      "latitude": 19.0728,
      "longitude": 72.8826,
      "timezone": "Asia/Kolkata"
    },
    {
      "name": "德里",
      "name_en": "Delhi",
      "province": "Delhi",
      "latitude": 28.6519,
      "longitude": 77.2315,
      "timezone": "Asia/Kolkata"
    },
    {
      "name": "班加罗尔",
      "name_en": "Bengaluru",
      "province": "卡纳塔克邦",
      "latitude": 12.9719,
      "longitude": 77.5937,
      "timezone": "Asia/Kolkata"
    },
    {
      "name": "海得拉巴",
      "name_en": "Hyderabad",
      "province": "特伦甘纳邦",
      "latitude": 17.384,
      "longitude": 78.4564,
      "timezone": "Asia/Kolkata"
    },
    {
      "name": "艾哈迈达巴德",
      "name_en": "Ahmedabad",
      "province": "古吉拉特邦",
      "latitude": 23.0258,
      "longitude": 72.5873,
      "timezone": "Asia/Kolkata"
    },
    {
      "name": "金奈",
      "name_en": "Chennai",
      "province": "泰米尔纳德邦",
      "latitude": 13.0878,
      "longitude": 80.2785,
      "timezone": "Asia/Kolkata"
    },
    {
      "name": "加尔各答",
      "name_en": "Kolkata",
      "province": "西孟加拉邦",
      "latitude": 22.5626,
      "longitude": 88.363,
      "timezone": "Asia/Kolkata"
    },
    {
      "name": "苏拉特",
      "name_en": "Surat",
      "province": "古吉拉特邦",
      "latitude": 21.1959,
      "longitude": 72.8302,
      "timezone": "Asia/Kolkata"
    },
    {
      "name": "浦那",
      "name_en": "Pune",
      "province": "马哈拉施特拉邦",
      "latitude": 18.5196,
      "longitude": 73.8554,
      "timezone": "Asia/Kolkata"
    },
    {
      "name": "斋浦尔",
      "name_en": "Jaipur",
      "province": "拉贾斯坦邦",
      "latitude": 26.9196,
      "longitude": 75.7878,
      "timezone": "Asia/Kolkata"
    },
    {
      "name": "",
      "name_en": "Kanpur",
      "province": "北方邦",
      "latitude": 26.4652,
      "longitude": 80.3498,
      "timezone": "Asia/Kolkata"
    },
    {
      "name": "新孟买",
      "name_en": "Navi Mumbai",
      "province": "马哈拉施特拉邦",
      "latitude": 19.0368,
      "longitude": 73.0158,
      "timezone": "Asia/Kolkata"
    },
    {
      "name": "勒克瑙",
      "name_en": "Lucknow",
      "province": "北方邦",
      "latitude": 26.8393,
      "longitude": 80.9231,
      "timezone": "Asia/Kolkata"
    },
    {
      "name": "那格浦尔",
      "name_en": "Nagpur",
      "province": "马哈拉施特拉邦",
      "latitude": 21.1463,
      "longitude": 79.0849,
      "timezone": "Asia/Kolkata"
    },
    {
      "name": "哥印拜陀",
      "name_en": "Coimbatore",
      "province": "泰米尔纳德邦",
      "latitude": 11.0055,
      "longitude": 76.9661,
      "timezone": "Asia/Kolkata"
    },
    {
      "name": "印多尔",
      "name_en": "Indore",
      "province": "中央邦",
      "latitude": 22.7179,
      "longitude": 75.8333,
      "timezone": "Asia/Kolkata"
    },
    {
      "name": "塔那",
      "name_en": "Thāne",
      "province": "马哈拉施特拉邦",
      "latitude": 19.197,
      "longitude": 72.9635,
      "timezone": "Asia/Kolkata"
    },
    {
      "name": "瓦多达拉",
      "name_en": "Vadodara",
      "province": "古吉拉特邦",
      "latitude": 22.2994,
      "longitude": 73.2081,
      "timezone": "Asia/Kolkata"
    },
    {
      "name": "博帕尔",
      "name_en": "Bhopal",
      "province": "中央邦",
      "latitude": 23.2547,
      "longitude": 77.4029,
      "timezone": "Asia/Kolkata"
    },
    {
      "name": "",
      "name_en": "Rasapūdipalem",
      "province": "安得拉邦",
      "latitude": 17.7331,
      "longitude": 83.3162,
      "timezone": "Asia/Kolkata"
    },
    {
      "name": "宾布里金杰沃德",
      "name_en": "Pimpri-Chinchwad",
      "province": "马哈拉施特拉邦",
      "latitude": 18.6187,
      "longitude": 73.8037,
      "timezone": "Asia/Kolkata"
    },
    {
      "name": "巴特那",
      "name_en": "Patna",
      "province": "比哈尔邦",
      "latitude": 25.5941,
      "longitude": 85.1356,
      "timezone": "Asia/Kolkata"
    },
    {
      "name": "",
      "name_en": "Kallakurichi",
      "province": "泰米尔纳德邦",
      "latitude": 11.7338,
      "longitude": 78.9592,
      "timezone": "Asia/Kolkata"
    },
    {
      "name": "卢迪亚纳",
      "name_en": "Ludhiana",
      "province": "旁遮普邦",
      "latitude": 30.912,
      "longitude": 75.8538,
      "timezone": "Asia/Kolkata"
    },
    {
      "name": "纳西克",
      "name_en": "Nashik",
      "province": "马哈拉施特拉邦",
      "latitude": 19.9973,
      "longitude": 73.791,
      "timezone": "Asia/Kolkata"
    },
    {
      "name": "马杜赖",
      "name_en": "Madurai",
      "province": "泰米尔纳德邦",
      "latitude": 9.919,
      "longitude": 78.1195,
      "timezone": "Asia/Kolkata"
    },
    {
      "name": "蒂鲁内尔维利",
      "name_en": "Tirunelveli",
      "province": "泰米尔纳德邦",
      "latitude": 8.7274,
      "longitude": 77.6838,
      "timezone": "Asia/Kolkata"
    },
    {
      "name": "阿格拉",
      "name_en": "Agra",
      "province": "北方邦",
      "latitude": 27.1833,
      "longitude": 78.0167,
      "timezone": "Asia/Kolkata"
    },
    {
      "name": "",
      "name_en": "Faridabad",
      "province": "哈里亚纳邦",
      "latitude": 28.4112,
      "longitude": 77.3132,
      "timezone": "Asia/Kolkata"
    },
    {
      "name": "",
      "name_en": "Rājkot",
      "province": "古吉拉特邦",
      "latitude": 22.2916,
      "longitude": 70.7932,
      "timezone": "Asia/Kolkata"
    },
    {
      "name": "纳嘉夫嘎尔",
      "name_en": "Najafgarh",
      "province": "Delhi",
      "latitude": 28.6092,
      "longitude": 76.9798,
      "timezone": "Asia/Kolkata"
    },
    {
      "name": "贾姆谢德布尔",
      "name_en": "Jamshedpur",
      "province": "贾坎德邦",
      "latitude": 22.8028,
      "longitude": 86.1855,
      "timezone": "Asia/Kolkata"
    },
    {
      "name": "",
      "name_en": "Gorakhpur",
      "province": "哈里亚纳邦",
      "latitude": 29.4477,
      "longitude": 75.6721,
      "timezone": "Asia/Kolkata"
    },
    {
      "name": "",
      "name_en": "Pimpri",
      "province": "马哈拉施特拉邦",
      "latitude": 18.6229,
      "longitude": 73.807,
      "timezone": "Asia/Kolkata"
    },
    {
      "name": "",
      "name_en": "Kalyān",
      "province": "马哈拉施特拉邦",
      "latitude": 19.2437,
      "longitude": 73.1355,
      "timezone": "Asia/Kolkata"
    },
    {
      "name": "东比夫里",
      "name_en": "Dombivali",
      "province": "马哈拉施特拉邦",
      "latitude": 19.2167,
      "longitude": 73.0833,
      "timezone": "Asia/Kolkata"
    },
    {
      "name": "密拉特",
      "name_en": "Meerut",
      "province": "北方邦",
      "latitude": 28.98,
      "longitude": 77.7064,
      "timezone": "Asia/Kolkata"
    },
    {
      "name": "",
      "name_en": "Virār",
      "province": "马哈拉施特拉邦",
      "latitude": 19.4559,
      "longitude": 72.8114,
      "timezone": "Asia/Kolkata"
    },
    {
      "name": "",
      "name_en": "Nowrangapur",
      "province": "Odisha",
      "latitude": 19.2311,
      "longitude": 82.5483,
      "timezone": "Asia/Kolkata"
    },
    {
      "name": "斯利那加",
      "name_en": "Srinagar",
      "province": "Jammu and Kashmir",
      "latitude": 34.0857,
      "longitude": 74.8055,
      "timezone": "Asia/Kolkata"
    },
    {
      "name": "",
      "name_en": "Ghāziābād",
      "province": "北方邦",
      "latitude": 28.6654,
      "longitude": 77.4391,
      "timezone": "Asia/Kolkata"
    },
    {
      "name": "",
      "name_en": "Dhanbad",
      "province": "贾坎德邦",
      "latitude": 23.7976,
      "longitude": 86.4299,
      "timezone": "Asia/Kolkata"
    },
    {
      "name": "",
      "name_en": "Aurangabad",
      "province": "马哈拉施特拉邦",
      "latitude": 19.8776,
      "longitude": 75.3423,
      "timezone": "Asia/Kolkata"
    },
    {
      "name": "瓦腊纳西",
      "name_en": "Varanasi",
      "province": "北方邦",
      "latitude": 25.3167,
      "longitude": 83.0104,
      "timezone": "Asia/Kolkata"
    },
    {
      "name": "阿姆利则",
      "name_en": "Amritsar",
      "province": "旁遮普邦",
      "latitude": 31.6223,
      "longitude": 74.8753,
      "timezone": "Asia/Kolkata"
    },
    {
      "name": "维杰亚瓦达",
      "name_en": "Vijayawada",
      "province": "安得拉邦",
      "latitude": 16.5074,
      "longitude": 80.6466,
      "timezone": "Asia/Kolkata"
    },
    {
      "name": "兰契",
      "name_en": "Ranchi",
      "province": "贾坎德邦",
      "latitude": 23.3432,
      "longitude": 85.3094,
      "timezone": "Asia/Kolkata"
    },
    {
      "name": "贾巴尔普尔",
      "name_en": "Jabalpur",
      "province": "中央邦",
      "latitude": 23.167,
      "longitude": 79.9501,
      "timezone": "Asia/Kolkata"
    },
    {
      "name": "安拉阿巴德",
      "name_en": "Prayagraj",
      "province": "北方邦",
      "latitude": 25.4448,
      "longitude": 81.8432,
      "timezone": "Asia/Kolkata"
    },
    {
      "name": "维沙卡帕特南",
      "name_en": "Visakhapatnam",
      "province": "安得拉邦",
      "latitude": 17.7331,
      "longitude": 83.3162,
      "timezone": "Asia/Kolkata"
    },
    {
      "name": "焦特布尔",
      "name_en": "Jodhpur",
      "province": "拉贾斯坦邦",
      "latitude": 26.2684,
      "longitude": 73.0059,
      "timezone": "Asia/Kolkata"
    },
    {
      "name": "",
      "name_en": "Gwalior",
      "province": "中央邦",
      "latitude": 26.2298,
      "longitude": 78.1734,
      "timezone": "Asia/Kolkata"
    },
    {
      "name": "",
      "name_en": "Teni",
      "province": "泰米尔纳德邦",
      "latitude": 10.0112,
      "longitude": 77.4777,
      "timezone": "Asia/Kolkata"
    },
    {
      "name": "",
      "name_en": "Howrah",
      "province": "西孟加拉邦",
      "latitude": 22.5769,
      "longitude": 88.3186,
      "timezone": "Asia/Kolkata"
    },
    {
      "name": "赖布尔",
      "name_en": "Raipur",
      "province": "恰蒂斯加尔邦",
      "latitude": 21.2333,
      "longitude": 81.6333,
      "timezone": "Asia/Kolkata"
    },
    {
      "name": "蒂鲁吉拉帕利",
      "name_en": "Tiruchirappalli",
      "province": "泰米尔纳德邦",
      "latitude": 10.8155,
      "longitude": 78.6965,
      "timezone": "Asia/Kolkata"
    },
    {
      "name": "科塔",
      "name_en": "Kota",
      "province": "拉贾斯坦邦",
      "latitude": 25.1825,
      "longitude": 75.8391,
      "timezone": "Asia/Kolkata"
    },
    {
      "name": "",
      "name_en": "Shivaji Nagar",
      "province": "马哈拉施特拉邦",
      "latitude": 18.5302,
      "longitude": 73.8526,
      "timezone": "Asia/Kolkata"
    },
    {
      "name": "",
      "name_en": "Sholapur",
      "province": "马哈拉施特拉邦",
      "latitude": 17.6715,
      "longitude": 75.9104,
      "timezone": "Asia/Kolkata"
    },
    {
      "name": "昌迪加尔",
      "name_en": "Chandigarh",
      "province": "昌迪加尔",
      "latitude": 30.7363,
      "longitude": 76.7884,
      "timezone": "Asia/Kolkata"
    },
    {
      "name": "蒂鲁普",
      "name_en": "Tiruppur",
      "province": "泰米尔纳德邦",
      "latitude": 11.1154,
      "longitude": 77.3546,
      "timezone": "Asia/Kolkata"
    },
    {
      "name": "古瓦哈提",
      "name_en": "Guwahati",
      "province": "阿萨姆邦",
      "latitude": 26.1844,
      "longitude": 91.7458,
      "timezone": "Asia/Kolkata"
    },
    {
      "name": "",
      "name_en": "Hubballi",
      "province": "卡纳塔克邦",
      "latitude": 15.3478,
      "longitude": 75.1338,
      "timezone": "Asia/Kolkata"
    },
    {
      "name": "迈索尔",
      "name_en": "Mysuru",
      "province": "卡纳塔克邦",
      "latitude": 12.2979,
      "longitude": 76.6393,
      "timezone": "Asia/Kolkata"
    },
    {
      "name": "塞勒姆",
      "name_en": "Salem",
      "province": "泰米尔纳德邦",
      "latitude": 11.6538,
      "longitude": 78.1554,
      "timezone": "Asia/Kolkata"
    },
    {
      "name": "古尔冈",
      "name_en": "Gurugram",
      "province": "哈里亚纳邦",
      "latitude": 28.4601,
      "longitude": 77.0263,
      "timezone": "Asia/Kolkata"
    },
    {
      "name": "",
      "name_en": "Bhubaneswar",
      "province": "Odisha",
      "latitude": 20.2724,
      "longitude": 85.8338,
      "timezone": "Asia/Kolkata"
    },
    {
      "name": "皮文迪",
      "name_en": "Bhiwandi",
      "province": "马哈拉施特拉邦",
      "latitude": 19.3002,
      "longitude": 73.0588,
      "timezone": "Asia/Kolkata"
    },
    {
      "name": "贾朗达尔",
      "name_en": "Jalandhar",
      "province": "旁遮普邦",
      "latitude": 31.3256,
      "longitude": 75.5792,
      "timezone": "Asia/Kolkata"
    },
    {
      "name": "",
      "name_en": "Rohini",
      "province": "Delhi",
      "latitude": 28.7432,
      "longitude": 77.0678,
      "timezone": "Asia/Kolkata"
    },
    {
      "name": "",
      "name_en": "Kanayannur",
      "province": "喀拉拉邦",
      "latitude": 9.9667,
      "longitude": 76.2667,
      "timezone": "Asia/Kolkata"
    },
    {
      "name": "",
      "name_en": "Bhayandar",
      "province": "马哈拉施特拉邦",
      "latitude": 19.3016,
      "longitude": 72.8511,
      "timezone": "Asia/Kolkata"
    },
    {
      "name": "",
      "name_en": "Narela",
      "province": "Delhi",
      "latitude": 28.8527,
      "longitude": 77.0929,
      "timezone": "Asia/Kolkata"
    },
    {
      "name": "特里凡得琅",
      "name_en": "Thiruvananthapuram",
      "province": "喀拉拉邦",
      "latitude": 8.4855,
      "longitude": 76.9492,
      "timezone": "Asia/Kolkata"
    },
    {
      "name": "",
      "name_en": "Alīgarh",
      "province": "北方邦",
      "latitude": 27.8815,
      "longitude": 78.0746,
      "timezone": "Asia/Kolkata"
    },
    {
      "name": "巴雷利",
      "name_en": "Bareilly",
      "province": "北方邦",
      "latitude": 28.3668,
      "longitude": 79.4317,
      "timezone": "Asia/Kolkata"
    },
    {
      "name": "",
      "name_en": "Morādābād",
      "province": "北方邦",
      "latitude": 28.8389,
      "longitude": 78.7768,
      "timezone": "Asia/Kolkata"
    },
    {
      "name": "瓦朗加尔",
      "name_en": "Warangal",
      "province": "特伦甘纳邦",
      "latitude": 18.0,
      "longitude": 79.5833,
      "timezone": "Asia/Kolkata"
    },
    {
      "name": "",
      "name_en": "Dhārāvi",
      "province": "马哈拉施特拉邦",
      "latitude": 19.05,
      "longitude": 72.8667,
      "timezone": "Asia/Kolkata"
    },
    {
      "name": "戈勒克布尔",
      "name_en": "Gorakhpur",
      "province": "北方邦",
      "latitude": 29.4477,
      "longitude": 75.6721,
      "timezone": "Asia/Kolkata"
    },
    {
      "name": "贡土尔",
      "name_en": "Guntur",
      "province": "安得拉邦",
      "latitude": 16.2997,
      "longitude": 80.4573,
      "timezone": "Asia/Kolkata"
    },
    {
      "name": "本地治里市",
      "name_en": "Puducherry",
      "province": "本地治里",
      "latitude": 11.9338,
      "longitude": 79.8298,
      "timezone": "Asia/Kolkata"
    },
    {
      "name": "",
      "name_en": "Amravati",
      "province": "马哈拉施特拉邦",
      "latitude": 20.9333,
      "longitude": 77.75,
      "timezone": "Asia/Kolkata"
    },
    {
      "name": "",
      "name_en": "Bikaner",
      "province": "拉贾斯坦邦",
      "latitude": 28.0176,
      "longitude": 73.3149,
      "timezone": "Asia/Kolkata"
    },
    {
      "name": "柯枝",
      "name_en": "Kochi",
      "province": "喀拉拉邦",
      "latitude": 9.9399,
      "longitude": 76.2602,
      "timezone": "Asia/Kolkata"
    },
    {
      "name": "比莱",
      "name_en": "Bhilai",
      "province": "恰蒂斯加尔邦",
      "latitude": 21.2092,
      "longitude": 81.4285,
      "timezone": "Asia/Kolkata"
    },
    {
      "name": "克塔克",
      "name_en": "Cuttack",
      "province": "Odisha",
      "latitude": 20.465,
      "longitude": 85.8793,
      "timezone": "Asia/Kolkata"
    },
    {
      "name": "包里瓦利",
      "name_en": "Borivli",
      "province": "马哈拉施特拉邦",
      "latitude": 19.235,
      "longitude": 72.8598,
      "timezone": "Asia/Kolkata"
    },
    {
      "name": "巴夫那加尔",
      "name_en": "Bhavnagar",
      "province": "古吉拉特邦",
      "latitude": 21.7629,
      "longitude": 72.1533,
      "timezone": "Asia/Kolkata"
    },
    {
      "name": "",
      "name_en": "Sāngli",
      "province": "马哈拉施特拉邦",
      "latitude": 16.8544,
      "longitude": 74.5642,
      "timezone": "Asia/Kolkata"
    },
    {
      "name": "贾姆讷格尔",
      "name_en": "Jamnagar",
      "province": "古吉拉特邦",
      "latitude": 22.4729,
      "longitude": 70.0667,
      "timezone": "Asia/Kolkata"
    },
    {
      "name": "贾姆穆",
      "name_en": "Jammu",
      "province": "Jammu and Kashmir",
      "latitude": 32.7353,
      "longitude": 74.8617,
      "timezone": "Asia/Kolkata"
    },
    {
      "name": "",
      "name_en": "Bokāro",
      "province": "贾坎德邦",
      "latitude": 23.6693,
      "longitude": 86.1516,
      "timezone": "Asia/Kolkata"
    },
    {
      "name": "楠代德",
      "name_en": "Nanded",
      "province": "马哈拉施特拉邦",
      "latitude": 19.1602,
      "longitude": 77.315,
      "timezone": "Asia/Kolkata"
    },
    {
      "name": "科泽科德",
      "name_en": "Kozhikode",
      "province": "喀拉拉邦",
      "latitude": 11.248,
      "longitude": 75.7804,
      "timezone": "Asia/Kolkata"
    },
    {
      "name": "",
      "name_en": "Kolhāpur",
      "province": "马哈拉施特拉邦",
      "latitude": 16.6956,
      "longitude": 74.2317,
      "timezone": "Asia/Kolkata"
    },
    {
      "name": "内洛尔",
      "name_en": "Nellore",
      "province": "安得拉邦",
      "latitude": 14.4499,
      "longitude": 79.987,
      "timezone": "Asia/Kolkata"
    },
    {
      "name": "古尔伯加",
      "name_en": "Kalaburagi",
      "province": "卡纳塔克邦",
      "latitude": 17.3358,
      "longitude": 76.8376,
      "timezone": "Asia/Kolkata"
    },
    {
      "name": "阿杰梅尔",
      "name_en": "Ajmer",
      "province": "拉贾斯坦邦",
      "latitude": 26.4521,
      "longitude": 74.6387,
      "timezone": "Asia/Kolkata"
    },
    {
      "name": "德拉敦",
      "name_en": "Dehradun",
      "province": "Uttarakhand",
      "latitude": 30.3244,
      "longitude": 78.0339,
      "timezone": "Asia/Kolkata"
    },
    {
      "name": "埃罗德",
      "name_en": "Erode",
      "province": "泰米尔纳德邦",
      "latitude": 11.3428,
      "longitude": 77.7274,
      "timezone": "Asia/Kolkata"
    },
    {
      "name": "杜尔加布尔",
      "name_en": "Durgapur",
      "province": "西孟加拉邦",
      "latitude": 23.5158,
      "longitude": 87.308,
      "timezone": "Asia/Kolkata"
    },
    {
      "name": "乌尔哈斯讷格尔",
      "name_en": "Ulhasnagar",
      "province": "马哈拉施特拉邦",
      "latitude": 19.2167,
      "longitude": 73.15,
      "timezone": "Asia/Kolkata"
    },
    {
      "name": "",
      "name_en": "Loni",
      "province": "北方邦",
      "latitude": 28.7514,
      "longitude": 77.2902,
      "timezone": "Asia/Kolkata"
    },
    {
      "name": "西里古里",
      "name_en": "Siliguri",
      "province": "西孟加拉邦",
      "latitude": 26.71,
      "longitude": 88.4285,
      "timezone": "Asia/Kolkata"
    },
    {
      "name": "乌贾因",
      "name_en": "Ujjain",
      "province": "中央邦",
      "latitude": 23.1824,
      "longitude": 75.7764,
      "timezone": "Asia/Kolkata"
    },
    {
      "name": "",
      "name_en": "Bilimora",
      "province": "古吉拉特邦",
      "latitude": 20.7696,
      "longitude": 72.9613,
      "timezone": "Asia/Kolkata"
    },
    {
      "name": "",
      "name_en": "Karol Bāgh",
      "province": "Delhi",
      "latitude": 28.6514,
      "longitude": 77.1907,
      "timezone": "Asia/Kolkata"
    },
    {
      "name": "",
      "name_en": "Āsansol",
      "province": "西孟加拉邦",
      "latitude": 23.6833,
      "longitude": 86.9833,
      "timezone": "Asia/Kolkata"
    },
    {
      "name": "门格洛尔",
      "name_en": "Mangaluru",
      "province": "卡纳塔克邦",
      "latitude": 12.9172,
      "longitude": 74.856,
      "timezone": "Asia/Kolkata"
    },
    {
      "name": "贝尔高姆",
      "name_en": "Belagavi",
      "province": "卡纳塔克邦",
      "latitude": 15.8521,
      "longitude": 74.5045,
      "timezone": "Asia/Kolkata"
    },
    {
      "name": "",
      "name_en": "Sahāranpur",
      "province": "北方邦",
      "latitude": 29.9679,
      "longitude": 77.5452,
      "timezone": "Asia/Kolkata"
    },
    {
      "name": "韦洛尔",
      "name_en": "Vellore",
      "province": "泰米尔纳德邦",
      "latitude": 12.9184,
      "longitude": 79.1325,
      "timezone": "Asia/Kolkata"
    },
    {
      "name": "",
      "name_en": "Bhātpāra",
      "province": "西孟加拉邦",
      "latitude": 22.8664,
      "longitude": 88.4011,
      "timezone": "Asia/Kolkata"
    },
    {
      "name": "",
      "name_en": "Malegaon",
      "province": "马哈拉施特拉邦",
      "latitude": 20.5497,
      "longitude": 74.5346,
      "timezone": "Asia/Kolkata"
    },
    {
      "name": "",
      "name_en": "Gaya",
      "province": "比哈尔邦",
      "latitude": 24.7969,
      "longitude": 85.0038,
      "timezone": "Asia/Kolkata"
    },
    {
      "name": "",
      "name_en": "Ambattur",
      "province": "泰米尔纳德邦",
      "latitude": 13.0982,
      "longitude": 80.1615,
      "timezone": "Asia/Kolkata"
    },
    {
      "name": "加尔冈",
      "name_en": "Jalgaon",
      "province": "马哈拉施特拉邦",
      "latitude": 21.0029,
      "longitude": 75.566,
      "timezone": "Asia/Kolkata"
    },
    {
      "name": "卡努尔",
      "name_en": "Kurnool",
      "province": "安得拉邦",
      "latitude": 15.8289,
      "longitude": 78.036,
      "timezone": "Asia/Kolkata"
    },
    {
      "name": "",
      "name_en": "Rāmgundam",
      "province": "特伦甘纳邦",
      "latitude": 18.8008,
      "longitude": 79.4521,
      "timezone": "Asia/Kolkata"
    },
    {
      "name": "乌代浦",
      "name_en": "Udaipur",
      "province": "拉贾斯坦邦",
      "latitude": 24.5858,
      "longitude": 73.7135,
      "timezone": "Asia/Kolkata"
    },
    {
      "name": "",
      "name_en": "Maheshtala",
      "province": "西孟加拉邦",
      "latitude": 22.5086,
      "longitude": 88.2532,
      "timezone": "Asia/Kolkata"
    },
    {
      "name": "",
      "name_en": "Patiāla",
      "province": "旁遮普邦",
      "latitude": 30.3362,
      "longitude": 76.3922,
      "timezone": "Asia/Kolkata"
    },
    {
      "name": "",
      "name_en": "Shyamnagar",
      "province": "西孟加拉邦",
      "latitude": 22.8333,
      "longitude": 88.3667,
      "timezone": "Asia/Kolkata"
    },
    {
      "name": "",
      "name_en": "Davangere",
      "province": "卡纳塔克邦",
      "latitude": 14.4669,
      "longitude": 75.9269,
      "timezone": "Asia/Kolkata"
    },
    {
      "name": "阿科拉",
      "name_en": "Akola",
      "province": "马哈拉施特拉邦",
      "latitude": 20.7096,
      "longitude": 76.9981,
      "timezone": "Asia/Kolkata"
    },
    {
      "name": "",
      "name_en": "Rajpur Sonarpur",
      "province": "西孟加拉邦",
      "latitude": 22.4382,
      "longitude": 88.4321,
      "timezone": "Asia/Kolkata"
    },
    {
      "name": "",
      "name_en": "Korba",
      "province": "恰蒂斯加尔邦",
      "latitude": 22.3458,
      "longitude": 82.6963,
      "timezone": "Asia/Kolkata"
    },
    {
      "name": "",
      "name_en": "Jhānsi",
      "province": "北方邦",
      "latitude": 25.4589,
      "longitude": 78.5799,
      "timezone": "Asia/Kolkata"
    },
    {
      "name": "杜蒂戈林",
      "name_en": "Thoothukudi",
      "province": "泰米尔纳德邦",
      "latitude": 8.7674,
      "longitude": 78.1342,
      "timezone": "Asia/Kolkata"
    },
    {
      "name": "贝拉里",
      "name_en": "Ballari",
      "province": "卡纳塔克邦",
      "latitude": 15.142,
      "longitude": 76.924,
      "timezone": "Asia/Kolkata"
    },
    {
      "name": "",
      "name_en": "Bhāgalpur",
      "province": "比哈尔邦",
      "latitude": 25.2445,
      "longitude": 86.9718,
      "timezone": "Asia/Kolkata"
    },
    {
      "name": "阿加尔塔拉",
      "name_en": "Agartala",
      "province": "特里普拉邦",
      "latitude": 23.8361,
      "longitude": 91.2794,
      "timezone": "Asia/Kolkata"
    },
    {
      "name": "",
      "name_en": "Kākināda",
      "province": "安得拉邦",
      "latitude": 16.9604,
      "longitude": 82.2381,
      "timezone": "Asia/Kolkata"
    },
    {
      "name": "拉杜尔",
      "name_en": "Latur",
      "province": "马哈拉施特拉邦",
      "latitude": 18.3972,
      "longitude": 76.5678,
      "timezone": "Asia/Kolkata"
    },
    {
      "name": "",
      "name_en": "Pānihāti",
      "province": "西孟加拉邦",
      "latitude": 22.6909,
      "longitude": 88.374,
      "timezone": "Asia/Kolkata"
    },
    {
      "name": "",
      "name_en": "Rajamahendravaram",
      "province": "安得拉邦",
      "latitude": 17.0052,
      "longitude": 81.7778,
      "timezone": "Asia/Kolkata"
    },
    {
      "name": "图莱",
      "name_en": "Dhule",
      "province": "马哈拉施特拉邦",
      "latitude": 20.9013,
      "longitude": 74.7774,
      "timezone": "Asia/Kolkata"
    },
    {
      "name": "罗赫塔克",
      "name_en": "Rohtak",
      "province": "哈里亚纳邦",
      "latitude": 28.8945,
      "longitude": 76.5892,
      "timezone": "Asia/Kolkata"
    },
    {
      "name": "",
      "name_en": "Ahilyanagar",
      "province": "马哈拉施特拉邦",
      "latitude": 19.0946,
      "longitude": 74.7384,
      "timezone": "Asia/Kolkata"
    },
    {
      "name": "奎隆",
      "name_en": "Kollam",
      "province": "喀拉拉邦",
      "latitude": 8.8811,
      "longitude": 76.5847,
      "timezone": "Asia/Kolkata"
    },
    {
      "name": "",
      "name_en": "Bilāspur",
      "province": "恰蒂斯加尔邦",
      "latitude": 22.08,
      "longitude": 82.1554,
      "timezone": "Asia/Kolkata"
    },
    {
      "name": "",
      "name_en": "Bhilwara",
      "province": "拉贾斯坦邦",
      "latitude": 25.3471,
      "longitude": 74.6408,
      "timezone": "Asia/Kolkata"
    },
    {
      "name": "布拉赫马普尔",
      "name_en": "Brahmapur",
      "province": "Odisha",
      "latitude": 19.3115,
      "longitude": 84.7929,
      "timezone": "Asia/Kolkata"
    },
    {
      "name": "穆扎夫法尔普尔",
      "name_en": "Muzaffarpur",
      "province": "比哈尔邦",
      "latitude": 26.1226,
      "longitude": 85.3906,
      "timezone": "Asia/Kolkata"
    },
    {
      "name": "",
      "name_en": "Punāsa",
      "province": "中央邦",
      "latitude": 22.2351,
      "longitude": 76.3933,
      "timezone": "Asia/Kolkata"
    },
    {
      "name": "穆扎法尔纳加尔",
      "name_en": "Muzaffarnagar",
      "province": "北方邦",
      "latitude": 29.4709,
      "longitude": 77.7033,
      "timezone": "Asia/Kolkata"
    },
    {
      "name": "",
      "name_en": "Avadi",
      "province": "泰米尔纳德邦",
      "latitude": 13.1147,
      "longitude": 80.1098,
      "timezone": "Asia/Kolkata"
    },
    {
      "name": "",
      "name_en": "Kadapa",
      "province": "安得拉邦",
      "latitude": 14.48,
      "longitude": 78.8235,
      "timezone": "Asia/Kolkata"
    },
    {
      "name": "库卡特帕尔莱",
      "name_en": "Kukatpally",
      "province": "特伦甘纳邦",
      "latitude": 17.4849,
      "longitude": 78.4138,
      "timezone": "Asia/Kolkata"
    },
    {
      "name": "",
      "name_en": "Kāmārhāti",
      "province": "西孟加拉邦",
      "latitude": 22.6711,
      "longitude": 88.3747,
      "timezone": "Asia/Kolkata"
    },
    {
      "name": "马图拉",
      "name_en": "Mathura",
      "province": "北方邦",
      "latitude": 27.5035,
      "longitude": 77.6722,
      "timezone": "Asia/Kolkata"
    },
    {
      "name": "钱德拉布尔",
      "name_en": "Chānda",
      "province": "马哈拉施特拉邦",
      "latitude": 19.9508,
      "longitude": 79.2952,
      "timezone": "Asia/Kolkata"
    },
    {
      "name": "比贾布尔",
      "name_en": "Vijayapura",
      "province": "卡纳塔克邦",
      "latitude": 16.8244,
      "longitude": 75.7154,
      "timezone": "Asia/Kolkata"
    },
    {
      "name": "希莫加",
      "name_en": "Shivamogga",
      "province": "卡纳塔克邦",
      "latitude": 13.9316,
      "longitude": 75.5679,
      "timezone": "Asia/Kolkata"
    },
    {
      "name": "阿尔瓦尔",
      "name_en": "Alwar",
      "province": "拉贾斯坦邦",
      "latitude": 27.5625,
      "longitude": 76.625,
      "timezone": "Asia/Kolkata"
    },
    {
      "name": "",
      "name_en": "Shāhjānpur",
      "province": "北方邦",
      "latitude": 27.8817,
      "longitude": 79.9092,
      "timezone": "Asia/Kolkata"
    },
    {
      "name": "",
      "name_en": "Jūnāgadh",
      "province": "古吉拉特邦",
      "latitude": 21.5197,
      "longitude": 70.4598,
      "timezone": "Asia/Kolkata"
    },
    {
      "name": "新德里",
      "name_en": "New Delhi",
      "province": "Delhi",
      "latitude": 28.6519,
      "longitude": 77.2315,
      "timezone": "Asia/Kolkata"
    },
    {
      "name": "",
      "name_en": "Thrissur",
      "province": "喀拉拉邦",
      "latitude": 10.5167,
      "longitude": 76.2167,
      "timezone": "Asia/Kolkata"
    },
    {
      "name": "",
      "name_en": "Nizāmābād",
      "province": "特伦甘纳邦",
      "latitude": 18.6715,
      "longitude": 78.0988,
      "timezone": "Asia/Kolkata"
    },
    {
      "name": "",
      "name_en": "Tumkūr",
      "province": "卡纳塔克邦",
      "latitude": 13.3414,
      "longitude": 77.1022,
      "timezone": "Asia/Kolkata"
    },
    {
      "name": "帕尔巴尼",
      "name_en": "Parbhani",
      "province": "马哈拉施特拉邦",
      "latitude": 19.2686,
      "longitude": 76.7708,
      "timezone": "Asia/Kolkata"
    },
    {
      "name": "希萨尔",
      "name_en": "Hisar",
      "province": "哈里亚纳邦",
      "latitude": 29.1539,
      "longitude": 75.7229,
      "timezone": "Asia/Kolkata"
    },
    {
      "name": "",
      "name_en": "Fīrozābād",
      "province": "北方邦",
      "latitude": 27.1509,
      "longitude": 78.3978,
      "timezone": "Asia/Kolkata"
    },
    {
      "name": "",
      "name_en": "Kulti",
      "province": "西孟加拉邦",
      "latitude": 23.7317,
      "longitude": 86.8437,
      "timezone": "Asia/Kolkata"
    },
    {
      "name": "",
      "name_en": "Karnāl",
      "province": "哈里亚纳邦",
      "latitude": 29.692,
      "longitude": 76.9845,
      "timezone": "Asia/Kolkata"
    },
    {
      "name": "",
      "name_en": "Barddhamān",
      "province": "西孟加拉邦",
      "latitude": 23.2557,
      "longitude": 87.8569,
      "timezone": "Asia/Kolkata"
    },
    {
      "name": "",
      "name_en": "Gundupālaiyam",
      "province": "本地治里",
      "latitude": 11.941,
      "longitude": 79.8029,
      "timezone": "Asia/Kolkata"
    },
    {
      "name": "",
      "name_en": "Bārāsat",
      "province": "西孟加拉邦",
      "latitude": 22.7215,
      "longitude": 88.482,
      "timezone": "Asia/Kolkata"
    },
    {
      "name": "",
      "name_en": "Mulugu",
      "province": "特伦甘纳邦",
      "latitude": 18.191,
      "longitude": 79.943,
      "timezone": "Asia/Kolkata"
    },
    {
      "name": "",
      "name_en": "Bihār Sharīf",
      "province": "比哈尔邦",
      "latitude": 25.2008,
      "longitude": 85.5239,
      "timezone": "Asia/Kolkata"
    },
    {
      "name": "",
      "name_en": "Bāli",
      "province": "西孟加拉邦",
      "latitude": 22.6486,
      "longitude": 88.3411,
      "timezone": "Asia/Kolkata"
    },
    {
      "name": "",
      "name_en": "Rāmpur",
      "province": "北方邦",
      "latitude": 28.8101,
      "longitude": 79.027,
      "timezone": "Asia/Kolkata"
    },
    {
      "name": "达尔邦格阿",
      "name_en": "Darbhanga",
      "province": "比哈尔邦",
      "latitude": 26.1522,
      "longitude": 85.8971,
      "timezone": "Asia/Kolkata"
    },
    {
      "name": "",
      "name_en": "Panipat",
      "province": "哈里亚纳邦",
      "latitude": 29.3875,
      "longitude": 76.9682,
      "timezone": "Asia/Kolkata"
    },
    {
      "name": "蒂鲁帕蒂",
      "name_en": "Tirupati",
      "province": "安得拉邦",
      "latitude": 13.6355,
      "longitude": 79.4199,
      "timezone": "Asia/Kolkata"
    },
    {
      "name": "大诺伊达",
      "name_en": "Greater Noida",
      "province": "北方邦",
      "latitude": 28.4962,
      "longitude": 77.536,
      "timezone": "Asia/Kolkata"
    },
    {
      "name": "诺伊达",
      "name_en": "Noida",
      "province": "北方邦",
      "latitude": 28.58,
      "longitude": 77.33,
      "timezone": "Asia/Kolkata"
    },
    {
      "name": "艾藻尔",
      "name_en": "Aizawl",
      "province": "米佐拉姆邦",
      "latitude": 23.7289,
      "longitude": 92.7179,
      "timezone": "Asia/Kolkata"
    },
    {
      "name": "",
      "name_en": "Gandhinagar",
      "province": "古吉拉特邦",
      "latitude": 23.2167,
      "longitude": 72.6833,
      "timezone": "Asia/Kolkata"
    },
    {
      "name": "丁迪古尔",
      "name_en": "Dindigul",
      "province": "泰米尔纳德邦",
      "latitude": 10.369,
      "longitude": 77.9804,
      "timezone": "Asia/Kolkata"
    },
    {
      "name": "坦贾武尔",
      "name_en": "Thanjavur",
      "province": "泰米尔纳德邦",
      "latitude": 10.7852,
      "longitude": 79.1391,
      "timezone": "Asia/Kolkata"
    },
    {
      "name": "",
      "name_en": "Karīmnagar",
      "province": "特伦甘纳邦",
      "latitude": 18.4392,
      "longitude": 79.1286,
      "timezone": "Asia/Kolkata"
    },
    {
      "name": "德瓦斯",
      "name_en": "Dewas",
      "province": "中央邦",
      "latitude": 22.9658,
      "longitude": 76.0553,
      "timezone": "Asia/Kolkata"
    },
    {
      "name": "",
      "name_en": "Sonīpat",
      "province": "哈里亚纳邦",
      "latitude": 28.9948,
      "longitude": 77.0194,
      "timezone": "Asia/Kolkata"
    },
    {
      "name": "伊切尔格伦吉",
      "name_en": "Ichalkaranji",
      "province": "马哈拉施特拉邦",
      "latitude": 16.6912,
      "longitude": 74.4605,
      "timezone": "Asia/Kolkata"
    },
    {
      "name": "巴廷达",
      "name_en": "Bathinda",
      "province": "旁遮普邦",
      "latitude": 30.2075,
      "longitude": 74.9389,
      "timezone": "Asia/Kolkata"
    },
    {
      "name": "",
      "name_en": "Jālna",
      "province": "马哈拉施特拉邦",
      "latitude": 19.841,
      "longitude": 75.8864,
      "timezone": "Asia/Kolkata"
    },
    {
      "name": "",
      "name_en": "Kirāri Sulemānnagar",
      "province": "Delhi",
      "latitude": 28.6974,
      "longitude": 77.0648,
      "timezone": "Asia/Kolkata"
    },
    {
      "name": "",
      "name_en": "Satna",
      "province": "中央邦",
      "latitude": 24.5773,
      "longitude": 80.8272,
      "timezone": "Asia/Kolkata"
    },
    {
      "name": "普尔尼亚",
      "name_en": "Purnia",
      "province": "比哈尔邦",
      "latitude": 25.7789,
      "longitude": 87.4742,
      "timezone": "Asia/Kolkata"
    },
    {
      "name": "",
      "name_en": "Imphal",
      "province": "曼尼普尔邦",
      "latitude": 24.8081,
      "longitude": 93.9442,
      "timezone": "Asia/Kolkata"
    },
    {
      "name": "",
      "name_en": "Saugor",
      "province": "中央邦",
      "latitude": 23.8388,
      "longitude": 78.7387,
      "timezone": "Asia/Kolkata"
    },
    {
      "name": "",
      "name_en": "Kushinagar",
      "province": "北方邦",
      "latitude": 26.7413,
      "longitude": 83.8869,
      "timezone": "Asia/Kolkata"
    },
    {
      "name": "鲁吉拉",
      "name_en": "Rourkela",
      "province": "Odisha",
      "latitude": 22.225,
      "longitude": 84.8641,
      "timezone": "Asia/Kolkata"
    },
    {
      "name": "杜尔格",
      "name_en": "Durg",
      "province": "恰蒂斯加尔邦",
      "latitude": 21.1915,
      "longitude": 81.2762,
      "timezone": "Asia/Kolkata"
    },
    {
      "name": "阿纳恩塔普尔",
      "name_en": "Anantapur",
      "province": "安得拉邦",
      "latitude": 14.6778,
      "longitude": 77.6081,
      "timezone": "Asia/Kolkata"
    },
    {
      "name": "",
      "name_en": "Ratlām",
      "province": "中央邦",
      "latitude": 23.3303,
      "longitude": 75.0403,
      "timezone": "Asia/Kolkata"
    },
    {
      "name": "",
      "name_en": "Rānipet",
      "province": "泰米尔纳德邦",
      "latitude": 12.9247,
      "longitude": 79.3333,
      "timezone": "Asia/Kolkata"
    },
    {
      "name": "",
      "name_en": "Lal Bahadur Nagar",
      "province": "特伦甘纳邦",
      "latitude": 17.3477,
      "longitude": 78.5576,
      "timezone": "Asia/Kolkata"
    },
    {
      "name": "阿拉",
      "name_en": "Arrah",
      "province": "比哈尔邦",
      "latitude": 25.5563,
      "longitude": 84.6633,
      "timezone": "Asia/Kolkata"
    },
    {
      "name": "巴拉纳加尔",
      "name_en": "Baranagar",
      "province": "西孟加拉邦",
      "latitude": 22.6413,
      "longitude": 88.3773,
      "timezone": "Asia/Kolkata"
    },
    {
      "name": "加久瓦卡",
      "name_en": "Gajuwaka",
      "province": "安得拉邦",
      "latitude": 17.7,
      "longitude": 83.2167,
      "timezone": "Asia/Kolkata"
    },
    {
      "name": "",
      "name_en": "Etāwah",
      "province": "北方邦",
      "latitude": 26.7762,
      "longitude": 79.0213,
      "timezone": "Asia/Kolkata"
    },
    {
      "name": "",
      "name_en": "Ambarnath",
      "province": "马哈拉施特拉邦",
      "latitude": 19.2,
      "longitude": 73.1667,
      "timezone": "Asia/Kolkata"
    },
    {
      "name": "",
      "name_en": "Naihāti",
      "province": "西孟加拉邦",
      "latitude": 22.894,
      "longitude": 88.4152,
      "timezone": "Asia/Kolkata"
    },
    {
      "name": "婆罗多布尔",
      "name_en": "Bharatpur",
      "province": "拉贾斯坦邦",
      "latitude": 27.2173,
      "longitude": 77.4901,
      "timezone": "Asia/Kolkata"
    },
    {
      "name": "贝古萨莱",
      "name_en": "Begusarai",
      "province": "比哈尔邦",
      "latitude": 25.4185,
      "longitude": 86.1339,
      "timezone": "Asia/Kolkata"
    },
    {
      "name": "",
      "name_en": "Tiruvottiyūr",
      "province": "泰米尔纳德邦",
      "latitude": 13.1582,
      "longitude": 80.3018,
      "timezone": "Asia/Kolkata"
    },
    {
      "name": "",
      "name_en": "Gāndhīdhām",
      "province": "古吉拉特邦",
      "latitude": 23.0833,
      "longitude": 70.1333,
      "timezone": "Asia/Kolkata"
    },
    {
      "name": "毛纳特班詹",
      "name_en": "Mau",
      "province": "北方邦",
      "latitude": 25.9417,
      "longitude": 83.5611,
      "timezone": "Asia/Kolkata"
    },
    {
      "name": "",
      "name_en": "Sīkar",
      "province": "拉贾斯坦邦",
      "latitude": 27.6121,
      "longitude": 75.14,
      "timezone": "Asia/Kolkata"
    },
    {
      "name": "拉马古恩达姆",
      "name_en": "Ramagundam",
      "province": "特伦甘纳邦",
      "latitude": 18.8008,
      "longitude": 79.4521,
      "timezone": "Asia/Kolkata"
    },
    {
      "name": "",
      "name_en": "Hāpur",
      "province": "北方邦",
      "latitude": 28.7298,
      "longitude": 77.7807,
      "timezone": "Asia/Kolkata"
    },
    {
      "name": "",
      "name_en": "Farrukhābād",
      "province": "北方邦",
      "latitude": 27.3913,
      "longitude": 79.5793,
      "timezone": "Asia/Kolkata"
    },
    {
      "name": "",
      "name_en": "Alappuzha",
      "province": "喀拉拉邦",
      "latitude": 9.49,
      "longitude": 76.3264,
      "timezone": "Asia/Kolkata"
    },
    {
      "name": "",
      "name_en": "Katihar",
      "province": "比哈尔邦",
      "latitude": 25.5385,
      "longitude": 87.5704,
      "timezone": "Asia/Kolkata"
    },
    {
      "name": "",
      "name_en": "Sri Ganganagar",
      "province": "拉贾斯坦邦",
      "latitude": 29.9201,
      "longitude": 73.875,
      "timezone": "Asia/Kolkata"
    },
    {
      "name": "雷瓦",
      "name_en": "Rewa",
      "province": "中央邦",
      "latitude": 24.5326,
      "longitude": 81.2923,
      "timezone": "Asia/Kolkata"
    },
    {
      "name": "",
      "name_en": "Uluberiya",
      "province": "西孟加拉邦",
      "latitude": 22.4756,
      "longitude": 88.099,
      "timezone": "Asia/Kolkata"
    },
    {
      "name": "西瓦卡西",
      "name_en": "Sivakasi",
      "province": "泰米尔纳德邦",
      "latitude": 9.45,
      "longitude": 77.798,
      "timezone": "Asia/Kolkata"
    },
    {
      "name": "卡鲁尔",
      "name_en": "Karur",
      "province": "泰米尔纳德邦",
      "latitude": 10.9577,
      "longitude": 78.081,
      "timezone": "Asia/Kolkata"
    },
    {
      "name": "",
      "name_en": "Rāichūr",
      "province": "卡纳塔克邦",
      "latitude": 16.2055,
      "longitude": 77.3557,
      "timezone": "Asia/Kolkata"
    },
    {
      "name": "",
      "name_en": "Pallāvaram",
      "province": "泰米尔纳德邦",
      "latitude": 12.968,
      "longitude": 80.1502,
      "timezone": "Asia/Kolkata"
    },
    {
      "name": "",
      "name_en": "Ooty",
      "province": "泰米尔纳德邦",
      "latitude": 11.4134,
      "longitude": 76.6952,
      "timezone": "Asia/Kolkata"
    },
    {
      "name": "",
      "name_en": "Pāli",
      "province": "拉贾斯坦邦",
      "latitude": 25.7728,
      "longitude": 73.3234,
      "timezone": "Asia/Kolkata"
    },
    {
      "name": "",
      "name_en": "Hosūr",
      "province": "泰米尔纳德邦",
      "latitude": 12.7365,
      "longitude": 77.8326,
      "timezone": "Asia/Kolkata"
    },
    {
      "name": "维济亚讷格勒姆",
      "name_en": "Vizianagaram",
      "province": "安得拉邦",
      "latitude": 18.1169,
      "longitude": 83.4115,
      "timezone": "Asia/Kolkata"
    },
    {
      "name": "",
      "name_en": "Shrīrāmpur",
      "province": "西孟加拉邦",
      "latitude": 22.7528,
      "longitude": 88.3422,
      "timezone": "Asia/Kolkata"
    },
    {
      "name": "库特布尔拉普尔",
      "name_en": "Quthbullapur",
      "province": "特伦甘纳邦",
      "latitude": 17.5011,
      "longitude": 78.4582,
      "timezone": "Asia/Kolkata"
    },
    {
      "name": "",
      "name_en": "Nadiād",
      "province": "古吉拉特邦",
      "latitude": 22.6939,
      "longitude": 72.8616,
      "timezone": "Asia/Kolkata"
    },
    {
      "name": "",
      "name_en": "Nāgercoil",
      "province": "泰米尔纳德邦",
      "latitude": 8.179,
      "longitude": 77.4323,
      "timezone": "Asia/Kolkata"
    },
    {
      "name": "",
      "name_en": "Karāwalnagar",
      "province": "Delhi",
      "latitude": 28.7271,
      "longitude": 77.2705,
      "timezone": "Asia/Kolkata"
    },
    {
      "name": "",
      "name_en": "Mango",
      "province": "贾坎德邦",
      "latitude": 22.8275,
      "longitude": 86.2164,
      "timezone": "Asia/Kolkata"
    },
    {
      "name": "",
      "name_en": "Murwāra",
      "province": "中央邦",
      "latitude": 23.8378,
      "longitude": 80.394,
      "timezone": "Asia/Kolkata"
    },
    {
      "name": "甘吉布勒姆",
      "name_en": "Kanchipuram",
      "province": "泰米尔纳德邦",
      "latitude": 12.8352,
      "longitude": 79.7001,
      "timezone": "Asia/Kolkata"
    },
    {
      "name": "辛格劳利",
      "name_en": "Singrauli",
      "province": "中央邦",
      "latitude": 24.1997,
      "longitude": 82.6753,
      "timezone": "Asia/Kolkata"
    },
    {
      "name": "",
      "name_en": "Mirzāpur",
      "province": "北方邦",
      "latitude": 25.1449,
      "longitude": 82.5653,
      "timezone": "Asia/Kolkata"
    },
    {
      "name": "克勒格布尔",
      "name_en": "Kharagpur",
      "province": "西孟加拉邦",
      "latitude": 22.3397,
      "longitude": 87.325,
      "timezone": "Asia/Kolkata"
    },
    {
      "name": "埃卢鲁",
      "name_en": "Eluru",
      "province": "安得拉邦",
      "latitude": 16.7131,
      "longitude": 81.1044,
      "timezone": "Asia/Kolkata"
    },
    {
      "name": "",
      "name_en": "Rāniganj",
      "province": "特伦甘纳邦",
      "latitude": 17.4284,
      "longitude": 78.4936,
      "timezone": "Asia/Kolkata"
    },
    {
      "name": "",
      "name_en": "Yamuna Nagar",
      "province": "哈里亚纳邦",
      "latitude": 30.128,
      "longitude": 77.2837,
      "timezone": "Asia/Kolkata"
    },
    {
      "name": "",
      "name_en": "Raurkela Industrial Township",
      "province": "Odisha",
      "latitude": 22.1999,
      "longitude": 84.8618,
      "timezone": "Asia/Kolkata"
    },
    {
      "name": "比德尔",
      "name_en": "Bidar",
      "province": "卡纳塔克邦",
      "latitude": 17.908,
      "longitude": 77.5152,
      "timezone": "Asia/Kolkata"
    },
    {
      "name": "",
      "name_en": "Munger",
      "province": "比哈尔邦",
      "latitude": 25.3746,
      "longitude": 86.4745,
      "timezone": "Asia/Kolkata"
    },
    {
      "name": "",
      "name_en": "Nandyāl",
      "province": "安得拉邦",
      "latitude": 15.478,
      "longitude": 78.4836,
      "timezone": "Asia/Kolkata"
    },
    {
      "name": "",
      "name_en": "Panchkula",
      "province": "哈里亚纳邦",
      "latitude": 30.6946,
      "longitude": 76.8504,
      "timezone": "Asia/Kolkata"
    },
    {
      "name": "",
      "name_en": "Burhānpur",
      "province": "中央邦",
      "latitude": 21.3087,
      "longitude": 76.2303,
      "timezone": "Asia/Kolkata"
    },
    {
      "name": "",
      "name_en": "Morvi",
      "province": "古吉拉特邦",
      "latitude": 22.8173,
      "longitude": 70.8377,
      "timezone": "Asia/Kolkata"
    },
    {
      "name": "阿嫩德",
      "name_en": "Anand",
      "province": "古吉拉特邦",
      "latitude": 22.5525,
      "longitude": 72.9552,
      "timezone": "Asia/Kolkata"
    },
    {
      "name": "奥恩戈莱",
      "name_en": "Ongole",
      "province": "安得拉邦",
      "latitude": 15.5036,
      "longitude": 80.0445,
      "timezone": "Asia/Kolkata"
    },
    {
      "name": "霍斯佩特",
      "name_en": "Hosapete",
      "province": "卡纳塔克邦",
      "latitude": 15.2695,
      "longitude": 76.3871,
      "timezone": "Asia/Kolkata"
    },
    {
      "name": "",
      "name_en": "Nāngloi Jāt",
      "province": "Delhi",
      "latitude": 28.6796,
      "longitude": 77.068,
      "timezone": "Asia/Kolkata"
    },
    {
      "name": "塞康德拉巴德",
      "name_en": "Secunderabad",
      "province": "特伦甘纳邦",
      "latitude": 17.4284,
      "longitude": 78.4936,
      "timezone": "Asia/Kolkata"
    },
    {
      "name": "德奥加尔",
      "name_en": "Deoghar",
      "province": "贾坎德邦",
      "latitude": 24.4898,
      "longitude": 86.699,
      "timezone": "Asia/Kolkata"
    },
    {
      "name": "恰普拉",
      "name_en": "Chāpra",
      "province": "比哈尔邦",
      "latitude": 25.7803,
      "longitude": 84.7471,
      "timezone": "Asia/Kolkata"
    },
    {
      "name": "坎德瓦",
      "name_en": "Khandwa",
      "province": "中央邦",
      "latitude": 21.8243,
      "longitude": 76.3509,
      "timezone": "Asia/Kolkata"
    },
    {
      "name": "",
      "name_en": "Puri",
      "province": "Odisha",
      "latitude": 19.7982,
      "longitude": 85.8249,
      "timezone": "Asia/Kolkata"
    },
    {
      "name": "莫雷纳",
      "name_en": "Morena",
      "province": "中央邦",
      "latitude": 26.4989,
      "longitude": 77.9953,
      "timezone": "Asia/Kolkata"
    },
    {
      "name": "",
      "name_en": "Gyānpur",
      "province": "北方邦",
      "latitude": 25.3327,
      "longitude": 82.4664,
      "timezone": "Asia/Kolkata"
    },
    {
      "name": "布兰德舍赫尔",
      "name_en": "Bulandshahr",
      "province": "北方邦",
      "latitude": 28.4039,
      "longitude": 77.8577,
      "timezone": "Asia/Kolkata"
    },
    {
      "name": "宾德",
      "name_en": "Bhind",
      "province": "中央邦",
      "latitude": 26.5667,
      "longitude": 78.7873,
      "timezone": "Asia/Kolkata"
    },
    {
      "name": "",
      "name_en": "Bhālswa Jahangirpur",
      "province": "Delhi",
      "latitude": 28.7356,
      "longitude": 77.1668,
      "timezone": "Asia/Kolkata"
    },
    {
      "name": "卡姆马姆",
      "name_en": "Khammam",
      "province": "特伦甘纳邦",
      "latitude": 17.2477,
      "longitude": 80.1437,
      "timezone": "Asia/Kolkata"
    },
    {
      "name": "",
      "name_en": "Sambhal",
      "province": "北方邦",
      "latitude": 28.585,
      "longitude": 78.5696,
      "timezone": "Asia/Kolkata"
    },
    {
      "name": "",
      "name_en": "Bhiwāni",
      "province": "哈里亚纳邦",
      "latitude": 28.793,
      "longitude": 76.1397,
      "timezone": "Asia/Kolkata"
    },
    {
      "name": "潘韦尔",
      "name_en": "Panvel",
      "province": "马哈拉施特拉邦",
      "latitude": 18.9888,
      "longitude": 73.1101,
      "timezone": "Asia/Kolkata"
    },
    {
      "name": "",
      "name_en": "Ambāla",
      "province": "哈里亚纳邦",
      "latitude": 30.361,
      "longitude": 76.7978,
      "timezone": "Asia/Kolkata"
    },
    {
      "name": "",
      "name_en": "Kumarapalayam",
      "province": "泰米尔纳德邦",
      "latitude": 11.445,
      "longitude": 77.711,
      "timezone": "Asia/Kolkata"
    },
    {
      "name": "",
      "name_en": "Machilīpatnam",
      "province": "安得拉邦",
      "latitude": 16.1875,
      "longitude": 81.1389,
      "timezone": "Asia/Kolkata"
    },
    {
      "name": "",
      "name_en": "Mahesāna",
      "province": "古吉拉特邦",
      "latitude": 23.5986,
      "longitude": 72.3847,
      "timezone": "Asia/Kolkata"
    },
    {
      "name": "",
      "name_en": "Mahbūbnagar",
      "province": "特伦甘纳邦",
      "latitude": 16.7438,
      "longitude": 77.986,
      "timezone": "Asia/Kolkata"
    },
    {
      "name": "萨姆巴尔普尔",
      "name_en": "Sambalpur",
      "province": "Odisha",
      "latitude": 21.4653,
      "longitude": 83.9757,
      "timezone": "Asia/Kolkata"
    },
    {
      "name": "",
      "name_en": "Bhusawal",
      "province": "马哈拉施特拉邦",
      "latitude": 21.0436,
      "longitude": 75.7851,
      "timezone": "Asia/Kolkata"
    },
    {
      "name": "拉埃巴雷利",
      "name_en": "Raebareli",
      "province": "北方邦",
      "latitude": 26.2309,
      "longitude": 81.2331,
      "timezone": "Asia/Kolkata"
    },
    {
      "name": "赫尔德瓦尔",
      "name_en": "Haridwar",
      "province": "Uttarakhand",
      "latitude": 29.9479,
      "longitude": 78.1603,
      "timezone": "Asia/Kolkata"
    },
    {
      "name": "",
      "name_en": "Phusro",
      "province": "贾坎德邦",
      "latitude": 23.7564,
      "longitude": 86.0051,
      "timezone": "Asia/Kolkata"
    },
    {
      "name": "",
      "name_en": "Adoni",
      "province": "安得拉邦",
      "latitude": 15.6279,
      "longitude": 77.275,
      "timezone": "Asia/Kolkata"
    },
    {
      "name": "",
      "name_en": "Sūjāngarh",
      "province": "拉贾斯坦邦",
      "latitude": 27.7,
      "longitude": 74.4667,
      "timezone": "Asia/Kolkata"
    },
    {
      "name": "西尔萨",
      "name_en": "Sirsa",
      "province": "哈里亚纳邦",
      "latitude": 29.5349,
      "longitude": 75.029,
      "timezone": "Asia/Kolkata"
    },
    {
      "name": "",
      "name_en": "Dinapur Nizamat",
      "province": "比哈尔邦",
      "latitude": 25.6385,
      "longitude": 85.0512,
      "timezone": "Asia/Kolkata"
    },
    {
      "name": "",
      "name_en": "Bahraigh",
      "province": "北方邦",
      "latitude": 27.5743,
      "longitude": 81.5947,
      "timezone": "Asia/Kolkata"
    },
    {
      "name": "",
      "name_en": "Kāraikkudi",
      "province": "泰米尔纳德邦",
      "latitude": 10.0662,
      "longitude": 78.7678,
      "timezone": "Asia/Kolkata"
    },
    {
      "name": "",
      "name_en": "Sultan Pur Majra",
      "province": "Delhi",
      "latitude": 28.6897,
      "longitude": 77.0765,
      "timezone": "Asia/Kolkata"
    },
    {
      "name": "古纳",
      "name_en": "Guna",
      "province": "中央邦",
      "latitude": 24.6469,
      "longitude": 77.3113,
      "timezone": "Asia/Kolkata"
    },
    {
      "name": "金德讷格尔",
      "name_en": "Chandannagar",
      "province": "西孟加拉邦",
      "latitude": 22.8622,
      "longitude": 88.368,
      "timezone": "Asia/Kolkata"
    },
    {
      "name": "巴哈拉姆普尔",
      "name_en": "Baharampur",
      "province": "西孟加拉邦",
      "latitude": 24.1047,
      "longitude": 88.2515,
      "timezone": "Asia/Kolkata"
    },
    {
      "name": "",
      "name_en": "Shahuwadi",
      "province": "马哈拉施特拉邦",
      "latitude": 16.9099,
      "longitude": 73.9465,
      "timezone": "Asia/Kolkata"
    },
    {
      "name": "马达纳帕尔莱",
      "name_en": "Madanapalle",
      "province": "安得拉邦",
      "latitude": 13.5503,
      "longitude": 78.5029,
      "timezone": "Asia/Kolkata"
    },
    {
      "name": "斯希沃普里",
      "name_en": "Shivpuri",
      "province": "中央邦",
      "latitude": 25.4238,
      "longitude": 77.6622,
      "timezone": "Asia/Kolkata"
    },
    {
      "name": "",
      "name_en": "Surendranagar",
      "province": "古吉拉特邦",
      "latitude": 22.7271,
      "longitude": 71.6486,
      "timezone": "Asia/Kolkata"
    },
    {
      "name": "内伊韦利",
      "name_en": "Neyveli",
      "province": "泰米尔纳德邦",
      "latitude": 11.6088,
      "longitude": 79.4994,
      "timezone": "Asia/Kolkata"
    },
    {
      "name": "西尔恰尔",
      "name_en": "Silchar",
      "province": "阿萨姆邦",
      "latitude": 24.8273,
      "longitude": 92.7979,
      "timezone": "Asia/Kolkata"
    },
    {
      "name": "",
      "name_en": "Proddatūr",
      "province": "安得拉邦",
      "latitude": 14.7502,
      "longitude": 78.5481,
      "timezone": "Asia/Kolkata"
    },
    {
      "name": "",
      "name_en": "Hugli",
      "province": "西孟加拉邦",
      "latitude": 22.9088,
      "longitude": 88.3967,
      "timezone": "Asia/Kolkata"
    },
    {
      "name": "",
      "name_en": "Hashtsāl",
      "province": "Delhi",
      "latitude": 28.6341,
      "longitude": 77.0577,
      "timezone": "Asia/Kolkata"
    },
    {
      "name": "",
      "name_en": "Amroha",
      "province": "北方邦",
      "latitude": 28.9031,
      "longitude": 78.4698,
      "timezone": "Asia/Kolkata"
    },
    {
      "name": "",
      "name_en": "Chhindwāra",
      "province": "中央邦",
      "latitude": 22.057,
      "longitude": 78.9396,
      "timezone": "Asia/Kolkata"
    },
    {
      "name": "塔姆巴拉姆",
      "name_en": "Tambaram",
      "province": "泰米尔纳德邦",
      "latitude": 12.9246,
      "longitude": 80.1271,
      "timezone": "Asia/Kolkata"
    },
    {
      "name": "",
      "name_en": "Bhetia",
      "province": "贾坎德邦",
      "latitude": 22.7932,
      "longitude": 86.141,
      "timezone": "Asia/Kolkata"
    },
    {
      "name": "伯坦果德",
      "name_en": "Pathānkot",
      "province": "旁遮普邦",
      "latitude": 32.2748,
      "longitude": 75.6529,
      "timezone": "Asia/Kolkata"
    },
    {
      "name": "巴德拉普尔",
      "name_en": "Badlapur",
      "province": "马哈拉施特拉邦",
      "latitude": 19.1552,
      "longitude": 73.2655,
      "timezone": "Asia/Kolkata"
    },
    {
      "name": "古达罗尔",
      "name_en": "Cuddalore",
      "province": "泰米尔纳德邦",
      "latitude": 11.7562,
      "longitude": 79.7669,
      "timezone": "Asia/Kolkata"
    },
    {
      "name": "西姆拉",
      "name_en": "Shimla",
      "province": "喜马偕尔邦",
      "latitude": 31.1044,
      "longitude": 77.1666,
      "timezone": "Asia/Kolkata"
    },
    {
      "name": "",
      "name_en": "Gadag-Betageri",
      "province": "卡纳塔克邦",
      "latitude": 15.4167,
      "longitude": 75.6167,
      "timezone": "Asia/Kolkata"
    },
    {
      "name": "",
      "name_en": "Gadag",
      "province": "卡纳塔克邦",
      "latitude": 15.4298,
      "longitude": 75.6297,
      "timezone": "Asia/Kolkata"
    },
    {
      "name": "",
      "name_en": "Verāval",
      "province": "古吉拉特邦",
      "latitude": 20.9077,
      "longitude": 70.3679,
      "timezone": "Asia/Kolkata"
    },
    {
      "name": "",
      "name_en": "Navsari",
      "province": "古吉拉特邦",
      "latitude": 20.9424,
      "longitude": 72.9247,
      "timezone": "Asia/Kolkata"
    },
    {
      "name": "巴哈杜尔加尔",
      "name_en": "Bahadurgarh",
      "province": "哈里亚纳邦",
      "latitude": 28.6929,
      "longitude": 76.9356,
      "timezone": "Asia/Kolkata"
    },
    {
      "name": "",
      "name_en": "Haldia",
      "province": "西孟加拉邦",
      "latitude": 22.0605,
      "longitude": 88.1098,
      "timezone": "Asia/Kolkata"
    },
    {
      "name": "",
      "name_en": "Rāiganj",
      "province": "西孟加拉邦",
      "latitude": 25.6128,
      "longitude": 88.1245,
      "timezone": "Asia/Kolkata"
    },
    {
      "name": "",
      "name_en": "Malda",
      "province": "西孟加拉邦",
      "latitude": 25.0045,
      "longitude": 88.1457,
      "timezone": "Asia/Kolkata"
    },
    {
      "name": "乔恩普尔",
      "name_en": "Jaunpur",
      "province": "北方邦",
      "latitude": 25.7536,
      "longitude": 82.6869,
      "timezone": "Asia/Kolkata"
    },
    {
      "name": "",
      "name_en": "Deoli",
      "province": "Delhi",
      "latitude": 28.5025,
      "longitude": 77.2312,
      "timezone": "Asia/Kolkata"
    },
    {
      "name": "",
      "name_en": "Bharūch",
      "province": "古吉拉特邦",
      "latitude": 21.6948,
      "longitude": 72.9805,
      "timezone": "Asia/Kolkata"
    },
    {
      "name": "",
      "name_en": "Hoshiārpur",
      "province": "旁遮普邦",
      "latitude": 31.5372,
      "longitude": 75.9127,
      "timezone": "Asia/Kolkata"
    },
    {
      "name": "",
      "name_en": "Jīnd",
      "province": "哈里亚纳邦",
      "latitude": 29.3158,
      "longitude": 76.315,
      "timezone": "Asia/Kolkata"
    },
    {
      "name": "库姆巴科纳姆",
      "name_en": "Kumbakonam",
      "province": "泰米尔纳德邦",
      "latitude": 10.9621,
      "longitude": 79.3912,
      "timezone": "Asia/Kolkata"
    },
    {
      "name": "",
      "name_en": "Mohali",
      "province": "旁遮普邦",
      "latitude": 30.68,
      "longitude": 76.7221,
      "timezone": "Asia/Kolkata"
    },
    {
      "name": "",
      "name_en": "Fatehpur",
      "province": "北方邦",
      "latitude": 25.9277,
      "longitude": 80.8127,
      "timezone": "Asia/Kolkata"
    },
    {
      "name": "栋格",
      "name_en": "Tonk",
      "province": "拉贾斯坦邦",
      "latitude": 26.1664,
      "longitude": 75.7882,
      "timezone": "Asia/Kolkata"
    },
    {
      "name": "乌杜皮",
      "name_en": "Udupi",
      "province": "卡纳塔克邦",
      "latitude": 13.3347,
      "longitude": 74.7462,
      "timezone": "Asia/Kolkata"
    },
    {
      "name": "",
      "name_en": "Thenali",
      "province": "安得拉邦",
      "latitude": 16.2425,
      "longitude": 80.6398,
      "timezone": "Asia/Kolkata"
    },
    {
      "name": "",
      "name_en": "Sītāpur",
      "province": "北方邦",
      "latitude": 27.5619,
      "longitude": 80.6826,
      "timezone": "Asia/Kolkata"
    },
    {
      "name": "",
      "name_en": "Alandur",
      "province": "泰米尔纳德邦",
      "latitude": 13.0025,
      "longitude": 80.2061,
      "timezone": "Asia/Kolkata"
    },
    {
      "name": "",
      "name_en": "Bhadrāvati",
      "province": "卡纳塔克邦",
      "latitude": 13.8485,
      "longitude": 75.705,
      "timezone": "Asia/Kolkata"
    },
    {
      "name": "",
      "name_en": "Vapi",
      "province": "古吉拉特邦",
      "latitude": 20.3717,
      "longitude": 72.9049,
      "timezone": "Asia/Kolkata"
    },
    {
      "name": "",
      "name_en": "Moga",
      "province": "旁遮普邦",
      "latitude": 30.8138,
      "longitude": 75.1688,
      "timezone": "Asia/Kolkata"
    },
    {
      "name": "",
      "name_en": "Rāj-Nāndgaon",
      "province": "恰蒂斯加尔邦",
      "latitude": 21.0969,
      "longitude": 81.0289,
      "timezone": "Asia/Kolkata"
    },
    {
      "name": "罗贝尔特索恩佩特",
      "name_en": "Robertsonpet",
      "province": "卡纳塔克邦",
      "latitude": 12.9563,
      "longitude": 78.2754,
      "timezone": "Asia/Kolkata"
    },
    {
      "name": "",
      "name_en": "Unnāo",
      "province": "北方邦",
      "latitude": 26.5471,
      "longitude": 80.4878,
      "timezone": "Asia/Kolkata"
    },
    {
      "name": "布道恩",
      "name_en": "Budaun",
      "province": "北方邦",
      "latitude": 28.0381,
      "longitude": 79.1267,
      "timezone": "Asia/Kolkata"
    },
    {
      "name": "马迪亚姆格拉姆",
      "name_en": "Madhyamgram",
      "province": "西孟加拉邦",
      "latitude": 22.6894,
      "longitude": 88.4459,
      "timezone": "Asia/Kolkata"
    },
    {
      "name": "奇特托奥尔",
      "name_en": "Chittoor",
      "province": "安得拉邦",
      "latitude": 13.2105,
      "longitude": 79.0956,
      "timezone": "Asia/Kolkata"
    },
    {
      "name": "",
      "name_en": "Jāmuria",
      "province": "西孟加拉邦",
      "latitude": 23.7047,
      "longitude": 87.0787,
      "timezone": "Asia/Kolkata"
    },
    {
      "name": "",
      "name_en": "Jaigaon",
      "province": "西孟加拉邦",
      "latitude": 26.8477,
      "longitude": 89.3756,
      "timezone": "Asia/Kolkata"
    },
    {
      "name": "",
      "name_en": "Batāla",
      "province": "旁遮普邦",
      "latitude": 31.8092,
      "longitude": 75.2029,
      "timezone": "Asia/Kolkata"
    },
    {
      "name": "",
      "name_en": "Orai",
      "province": "北方邦",
      "latitude": 25.9902,
      "longitude": 79.4533,
      "timezone": "Asia/Kolkata"
    },
    {
      "name": "萨哈尔萨",
      "name_en": "Saharsa",
      "province": "比哈尔邦",
      "latitude": 25.875,
      "longitude": 86.5961,
      "timezone": "Asia/Kolkata"
    },
    {
      "name": "毗底沙",
      "name_en": "Vidisha",
      "province": "中央邦",
      "latitude": 23.526,
      "longitude": 77.8109,
      "timezone": "Asia/Kolkata"
    },
    {
      "name": "",
      "name_en": "Hanumāngarh",
      "province": "拉贾斯坦邦",
      "latitude": 29.5818,
      "longitude": 74.3294,
      "timezone": "Asia/Kolkata"
    },
    {
      "name": "",
      "name_en": "Thānesar",
      "province": "哈里亚纳邦",
      "latitude": 29.9732,
      "longitude": 76.8321,
      "timezone": "Asia/Kolkata"
    },
    {
      "name": "哈桑",
      "name_en": "Hassan",
      "province": "卡纳塔克邦",
      "latitude": 13.0071,
      "longitude": 76.0962,
      "timezone": "Asia/Kolkata"
    },
    {
      "name": "",
      "name_en": "Kishangarh",
      "province": "拉贾斯坦邦",
      "latitude": 26.5901,
      "longitude": 74.854,
      "timezone": "Asia/Kolkata"
    },
    {
      "name": "",
      "name_en": "Dalūpura",
      "province": "Delhi",
      "latitude": 28.6057,
      "longitude": 77.319,
      "timezone": "Asia/Kolkata"
    },
    {
      "name": "鲁德拉普尔",
      "name_en": "Rudrapur",
      "province": "Uttarakhand",
      "latitude": 28.98,
      "longitude": 79.4,
      "timezone": "Asia/Kolkata"
    },
    {
      "name": "纳尔戈恩达",
      "name_en": "Nalgonda",
      "province": "特伦甘纳邦",
      "latitude": 17.0544,
      "longitude": 79.2671,
      "timezone": "Asia/Kolkata"
    },
    {
      "name": "",
      "name_en": "Hazāribāgh",
      "province": "贾坎德邦",
      "latitude": 23.9924,
      "longitude": 85.3616,
      "timezone": "Asia/Kolkata"
    },
    {
      "name": "",
      "name_en": "Medinīpur",
      "province": "西孟加拉邦",
      "latitude": 22.4211,
      "longitude": 87.3226,
      "timezone": "Asia/Kolkata"
    },
    {
      "name": "",
      "name_en": "Bālurghāt",
      "province": "西孟加拉邦",
      "latitude": 25.221,
      "longitude": 88.7773,
      "timezone": "Asia/Kolkata"
    },
    {
      "name": "",
      "name_en": "Fyzābād",
      "province": "北方邦",
      "latitude": 26.7755,
      "longitude": 82.1502,
      "timezone": "Asia/Kolkata"
    },
    {
      "name": "",
      "name_en": "Dinapore",
      "province": "比哈尔邦",
      "latitude": 25.637,
      "longitude": 85.0479,
      "timezone": "Asia/Kolkata"
    },
    {
      "name": "博尔本德尔",
      "name_en": "Porbandar",
      "province": "古吉拉特邦",
      "latitude": 21.6422,
      "longitude": 69.6093,
      "timezone": "Asia/Kolkata"
    },
    {
      "name": "",
      "name_en": "Bānda",
      "province": "北方邦",
      "latitude": 25.4776,
      "longitude": 80.3349,
      "timezone": "Asia/Kolkata"
    },
    {
      "name": "",
      "name_en": "Hindupur",
      "province": "安得拉邦",
      "latitude": 13.8281,
      "longitude": 77.4914,
      "timezone": "Asia/Kolkata"
    },
    {
      "name": "",
      "name_en": "Beāwar",
      "province": "拉贾斯坦邦",
      "latitude": 26.1012,
      "longitude": 74.3203,
      "timezone": "Asia/Kolkata"
    },
    {
      "name": "阿嫩德纳格",
      "name_en": "Anantnag",
      "province": "Jammu and Kashmir",
      "latitude": 33.7307,
      "longitude": 75.1542,
      "timezone": "Asia/Kolkata"
    },
    {
      "name": "",
      "name_en": "Serilingampalle",
      "province": "特伦甘纳邦",
      "latitude": 17.4931,
      "longitude": 78.302,
      "timezone": "Asia/Kolkata"
    },
    {
      "name": "赖格尔",
      "name_en": "Raigarh",
      "province": "恰蒂斯加尔邦",
      "latitude": 21.8976,
      "longitude": 83.3966,
      "timezone": "Asia/Kolkata"
    },
    {
      "name": "马尔卡杰吉里",
      "name_en": "Malkajgiri",
      "province": "特伦甘纳邦",
      "latitude": 17.4478,
      "longitude": 78.5263,
      "timezone": "Asia/Kolkata"
    },
    {
      "name": "",
      "name_en": "Shāntipur",
      "province": "西孟加拉邦",
      "latitude": 23.2472,
      "longitude": 88.433,
      "timezone": "Asia/Kolkata"
    },
    {
      "name": "普杰",
      "name_en": "Bhuj",
      "province": "古吉拉特邦",
      "latitude": 23.254,
      "longitude": 69.6693,
      "timezone": "Asia/Kolkata"
    },
    {
      "name": "",
      "name_en": "Bārākpur",
      "province": "西孟加拉邦",
      "latitude": 22.766,
      "longitude": 88.3634,
      "timezone": "Asia/Kolkata"
    },
    {
      "name": "",
      "name_en": "Hājīpur",
      "province": "比哈尔邦",
      "latitude": 25.6854,
      "longitude": 85.2098,
      "timezone": "Asia/Kolkata"
    },
    {
      "name": "",
      "name_en": "Sasarām",
      "province": "比哈尔邦",
      "latitude": 24.9494,
      "longitude": 84.0165,
      "timezone": "Asia/Kolkata"
    },
    {
      "name": "",
      "name_en": "Bhimavaram",
      "province": "安得拉邦",
      "latitude": 16.5408,
      "longitude": 81.5232,
      "timezone": "Asia/Kolkata"
    },
    {
      "name": "",
      "name_en": "Beed",
      "province": "马哈拉施特拉邦",
      "latitude": 18.9892,
      "longitude": 75.7563,
      "timezone": "Asia/Kolkata"
    },
    {
      "name": "",
      "name_en": "Burāri",
      "province": "Delhi",
      "latitude": 28.7557,
      "longitude": 77.1994,
      "timezone": "Asia/Kolkata"
    },
    {
      "name": "克里斯赫纳纳加尔",
      "name_en": "Krishnanagar",
      "province": "西孟加拉邦",
      "latitude": 23.4058,
      "longitude": 88.4907,
      "timezone": "Asia/Kolkata"
    },
    {
      "name": "",
      "name_en": "Chitradurga",
      "province": "卡纳塔克邦",
      "latitude": 14.2226,
      "longitude": 76.4004,
      "timezone": "Asia/Kolkata"
    },
    {
      "name": "迪布鲁加尔",
      "name_en": "Dibrugarh",
      "province": "阿萨姆邦",
      "latitude": 27.4799,
      "longitude": 94.9084,
      "timezone": "Asia/Kolkata"
    },
    {
      "name": "阿博赫尔",
      "name_en": "Abohar",
      "province": "旁遮普邦",
      "latitude": 30.1445,
      "longitude": 74.1955,
      "timezone": "Asia/Kolkata"
    },
    {
      "name": "",
      "name_en": "Tiruvannamalai",
      "province": "泰米尔纳德邦",
      "latitude": 12.2266,
      "longitude": 79.0746,
      "timezone": "Asia/Kolkata"
    },
    {
      "name": "凯塔尔",
      "name_en": "Kaithal",
      "province": "哈里亚纳邦",
      "latitude": 29.8015,
      "longitude": 76.3996,
      "timezone": "Asia/Kolkata"
    },
    {
      "name": "巴拉索尔",
      "name_en": "Balasore",
      "province": "Odisha",
      "latitude": 21.4927,
      "longitude": 86.9335,
      "timezone": "Asia/Kolkata"
    },
    {
      "name": "戈特拉",
      "name_en": "Godhra",
      "province": "古吉拉特邦",
      "latitude": 22.7755,
      "longitude": 73.6149,
      "timezone": "Asia/Kolkata"
    },
    {
      "name": "西隆",
      "name_en": "Shillong",
      "province": "梅加拉亚邦",
      "latitude": 25.5689,
      "longitude": 91.8831,
      "timezone": "Asia/Kolkata"
    },
    {
      "name": "",
      "name_en": "Rewāri",
      "province": "哈里亚纳邦",
      "latitude": 28.199,
      "longitude": 76.6183,
      "timezone": "Asia/Kolkata"
    },
    {
      "name": "",
      "name_en": "Basirhat City",
      "province": "西孟加拉邦",
      "latitude": 22.6614,
      "longitude": 88.8548,
      "timezone": "Asia/Kolkata"
    },
    {
      "name": "切德尔布尔",
      "name_en": "Chhatarpur",
      "province": "中央邦",
      "latitude": 24.9177,
      "longitude": 79.5887,
      "timezone": "Asia/Kolkata"
    },
    {
      "name": "曼德绍尔",
      "name_en": "Mandsaur",
      "province": "中央邦",
      "latitude": 24.0718,
      "longitude": 75.0699,
      "timezone": "Asia/Kolkata"
    },
    {
      "name": "恰斯",
      "name_en": "Chas",
      "province": "贾坎德邦",
      "latitude": 23.6356,
      "longitude": 86.1671,
      "timezone": "Asia/Kolkata"
    },
    {
      "name": "",
      "name_en": "Pālanpur",
      "province": "古吉拉特邦",
      "latitude": 24.1713,
      "longitude": 72.4383,
      "timezone": "Asia/Kolkata"
    },
    {
      "name": "",
      "name_en": "Lakhīmpur",
      "province": "北方邦",
      "latitude": 27.9482,
      "longitude": 80.7793,
      "timezone": "Asia/Kolkata"
    },
    {
      "name": "",
      "name_en": "Valsād",
      "province": "古吉拉特邦",
      "latitude": 20.6101,
      "longitude": 72.9343,
      "timezone": "Asia/Kolkata"
    },
    {
      "name": "达莫",
      "name_en": "Damoh",
      "province": "中央邦",
      "latitude": 23.8331,
      "longitude": 79.4419,
      "timezone": "Asia/Kolkata"
    },
    {
      "name": "哈尔德瓦尼-丘姆-卡特戈达姆",
      "name_en": "Haldwani",
      "province": "Uttarakhand",
      "latitude": 29.2225,
      "longitude": 79.5286,
      "timezone": "Asia/Kolkata"
    },
    {
      "name": "",
      "name_en": "Hābra",
      "province": "西孟加拉邦",
      "latitude": 22.842,
      "longitude": 88.6561,
      "timezone": "Asia/Kolkata"
    },
    {
      "name": "",
      "name_en": "Kolār",
      "province": "卡纳塔克邦",
      "latitude": 13.1377,
      "longitude": 78.13,
      "timezone": "Asia/Kolkata"
    },
    {
      "name": "斯里加古兰",
      "name_en": "Srikakulam",
      "province": "安得拉邦",
      "latitude": 18.2989,
      "longitude": 83.8975,
      "timezone": "Asia/Kolkata"
    },
    {
      "name": "曼迪亚",
      "name_en": "Mandya",
      "province": "卡纳塔克邦",
      "latitude": 12.5223,
      "longitude": 76.8975,
      "timezone": "Asia/Kolkata"
    },
    {
      "name": "",
      "name_en": "Madhurampur Dehri",
      "province": "比哈尔邦",
      "latitude": 24.969,
      "longitude": 84.1964,
      "timezone": "Asia/Kolkata"
    },
    {
      "name": "",
      "name_en": "Kānchrāpāra",
      "province": "西孟加拉邦",
      "latitude": 22.96,
      "longitude": 88.4285,
      "timezone": "Asia/Kolkata"
    },
    {
      "name": "",
      "name_en": "Dimāpur",
      "province": "那加兰邦",
      "latitude": 25.9117,
      "longitude": 93.7217,
      "timezone": "Asia/Kolkata"
    },
    {
      "name": "",
      "name_en": "Māler Kotla",
      "province": "旁遮普邦",
      "latitude": 30.5309,
      "longitude": 75.8795,
      "timezone": "Asia/Kolkata"
    },
    {
      "name": "",
      "name_en": "Siwān",
      "province": "比哈尔邦",
      "latitude": 26.221,
      "longitude": 84.3561,
      "timezone": "Asia/Kolkata"
    },
    {
      "name": "",
      "name_en": "Kalol",
      "province": "古吉拉特邦",
      "latitude": 23.2466,
      "longitude": 72.4951,
      "timezone": "Asia/Kolkata"
    },
    {
      "name": "",
      "name_en": "Bānkura",
      "province": "西孟加拉邦",
      "latitude": 23.2324,
      "longitude": 87.0716,
      "timezone": "Asia/Kolkata"
    },
    {
      "name": "",
      "name_en": "Pātan",
      "province": "古吉拉特邦",
      "latitude": 23.8507,
      "longitude": 72.1296,
      "timezone": "Asia/Kolkata"
    },
    {
      "name": "",
      "name_en": "Gondā City",
      "province": "北方邦",
      "latitude": 27.1318,
      "longitude": 81.9533,
      "timezone": "Asia/Kolkata"
    },
    {
      "name": "",
      "name_en": "Dhaulpur",
      "province": "拉贾斯坦邦",
      "latitude": 26.6929,
      "longitude": 77.8797,
      "timezone": "Asia/Kolkata"
    },
    {
      "name": "贡迪耶",
      "name_en": "Gondiā",
      "province": "马哈拉施特拉邦",
      "latitude": 21.4603,
      "longitude": 80.192,
      "timezone": "Asia/Kolkata"
    },
    {
      "name": "帕拉卡德",
      "name_en": "Palakkad",
      "province": "喀拉拉邦",
      "latitude": 10.7732,
      "longitude": 76.6537,
      "timezone": "Asia/Kolkata"
    },
    {
      "name": "贝特蒂亚",
      "name_en": "Bettiah",
      "province": "比哈尔邦",
      "latitude": 26.8023,
      "longitude": 84.5031,
      "timezone": "Asia/Kolkata"
    },
    {
      "name": "帕尔瓦尔",
      "name_en": "Palwal",
      "province": "哈里亚纳邦",
      "latitude": 28.1447,
      "longitude": 77.3255,
      "timezone": "Asia/Kolkata"
    },
    {
      "name": "",
      "name_en": "Rānīganj",
      "province": "西孟加拉邦",
      "latitude": 23.6164,
      "longitude": 87.1306,
      "timezone": "Asia/Kolkata"
    },
    {
      "name": "",
      "name_en": "Pīlibhīt",
      "province": "北方邦",
      "latitude": 28.6312,
      "longitude": 79.8044,
      "timezone": "Asia/Kolkata"
    },
    {
      "name": "",
      "name_en": "Rajapalayam",
      "province": "泰米尔纳德邦",
      "latitude": 9.453,
      "longitude": 77.5533,
      "timezone": "Asia/Kolkata"
    },
    {
      "name": "",
      "name_en": "Botad",
      "province": "古吉拉特邦",
      "latitude": 22.1692,
      "longitude": 71.6667,
      "timezone": "Asia/Kolkata"
    },
    {
      "name": "德奥里亚",
      "name_en": "Deoria",
      "province": "北方邦",
      "latitude": 26.5017,
      "longitude": 83.7794,
      "timezone": "Asia/Kolkata"
    },
    {
      "name": "",
      "name_en": "Nimach",
      "province": "拉贾斯坦邦",
      "latitude": 24.4595,
      "longitude": 74.8662,
      "timezone": "Asia/Kolkata"
    },
    {
      "name": "",
      "name_en": "Khardah",
      "province": "西孟加拉邦",
      "latitude": 22.7186,
      "longitude": 88.3781,
      "timezone": "Asia/Kolkata"
    },
    {
      "name": "",
      "name_en": "Yavatmāl",
      "province": "马哈拉施特拉邦",
      "latitude": 20.3932,
      "longitude": 78.132,
      "timezone": "Asia/Kolkata"
    },
    {
      "name": "",
      "name_en": "Hālīsahar",
      "province": "西孟加拉邦",
      "latitude": 22.9322,
      "longitude": 88.4186,
      "timezone": "Asia/Kolkata"
    },
    {
      "name": "卡纳",
      "name_en": "Khanna",
      "province": "旁遮普邦",
      "latitude": 30.7055,
      "longitude": 76.222,
      "timezone": "Asia/Kolkata"
    },
    {
      "name": "",
      "name_en": "Titāgarh",
      "province": "西孟加拉邦",
      "latitude": 22.7425,
      "longitude": 88.3733,
      "timezone": "Asia/Kolkata"
    },
    {
      "name": "",
      "name_en": "Mustafābād",
      "province": "Delhi",
      "latitude": 28.7197,
      "longitude": 77.2678,
      "timezone": "Asia/Kolkata"
    },
    {
      "name": "",
      "name_en": "Hāthras",
      "province": "北方邦",
      "latitude": 27.5955,
      "longitude": 78.052,
      "timezone": "Asia/Kolkata"
    },
    {
      "name": "",
      "name_en": "Jorhat",
      "province": "阿萨姆邦",
      "latitude": 26.7575,
      "longitude": 94.2031,
      "timezone": "Asia/Kolkata"
    },
    {
      "name": "勒利德布尔",
      "name_en": "Lalitpur",
      "province": "北方邦",
      "latitude": 24.6901,
      "longitude": 78.4192,
      "timezone": "Asia/Kolkata"
    },
    {
      "name": "贡塔卡尔",
      "name_en": "Guntakal",
      "province": "安得拉邦",
      "latitude": 15.1711,
      "longitude": 77.3624,
      "timezone": "Asia/Kolkata"
    },
    {
      "name": "",
      "name_en": "Pithampur",
      "province": "中央邦",
      "latitude": 22.602,
      "longitude": 75.6965,
      "timezone": "Asia/Kolkata"
    },
    {
      "name": "",
      "name_en": "Mothīhāri",
      "province": "比哈尔邦",
      "latitude": 26.6486,
      "longitude": 84.9166,
      "timezone": "Asia/Kolkata"
    },
    {
      "name": "",
      "name_en": "Kanhangad",
      "province": "喀拉拉邦",
      "latitude": 12.3081,
      "longitude": 75.1063,
      "timezone": "Asia/Kolkata"
    },
    {
      "name": "贾格达尔普尔",
      "name_en": "Jagdalpur",
      "province": "恰蒂斯加尔邦",
      "latitude": 19.0814,
      "longitude": 82.0213,
      "timezone": "Asia/Kolkata"
    },
    {
      "name": "",
      "name_en": "Jagādhri",
      "province": "哈里亚纳邦",
      "latitude": 30.1672,
      "longitude": 77.3037,
      "timezone": "Asia/Kolkata"
    },
    {
      "name": "大吉岭",
      "name_en": "Dārjiling",
      "province": "西孟加拉邦",
      "latitude": 27.0333,
      "longitude": 88.2667,
      "timezone": "Asia/Kolkata"
    },
    {
      "name": "",
      "name_en": "Kurichchi",
      "province": "泰米尔纳德邦",
      "latitude": 10.9609,
      "longitude": 76.9738,
      "timezone": "Asia/Kolkata"
    },
    {
      "name": "",
      "name_en": "Dam Dam",
      "province": "西孟加拉邦",
      "latitude": 22.6334,
      "longitude": 88.4229,
      "timezone": "Asia/Kolkata"
    },
    {
      "name": "",
      "name_en": "Hardoī",
      "province": "北方邦",
      "latitude": 27.3949,
      "longitude": 80.1316,
      "timezone": "Asia/Kolkata"
    },
    {
      "name": "",
      "name_en": "Puruliya",
      "province": "西孟加拉邦",
      "latitude": 23.3306,
      "longitude": 86.363,
      "timezone": "Asia/Kolkata"
    },
    {
      "name": "",
      "name_en": "Dharmavaram",
      "province": "安得拉邦",
      "latitude": 14.4144,
      "longitude": 77.7203,
      "timezone": "Asia/Kolkata"
    },
    {
      "name": "",
      "name_en": "Gokalpur",
      "province": "Delhi",
      "latitude": 28.7029,
      "longitude": 77.2896,
      "timezone": "Asia/Kolkata"
    },
    {
      "name": "",
      "name_en": "Bhadreswar",
      "province": "西孟加拉邦",
      "latitude": 22.8245,
      "longitude": 88.3384,
      "timezone": "Asia/Kolkata"
    },
    {
      "name": "",
      "name_en": "Nagaon",
      "province": "阿萨姆邦",
      "latitude": 26.35,
      "longitude": 92.6667,
      "timezone": "Asia/Kolkata"
    },
    {
      "name": "",
      "name_en": "Vejalpur",
      "province": "古吉拉特邦",
      "latitude": 22.6902,
      "longitude": 73.563,
      "timezone": "Asia/Kolkata"
    },
    {
      "name": "",
      "name_en": "Chikmagalūr",
      "province": "卡纳塔克邦",
      "latitude": 13.3223,
      "longitude": 75.774,
      "timezone": "Asia/Kolkata"
    },
    {
      "name": "巴德拉克",
      "name_en": "Bhadrak",
      "province": "Odisha",
      "latitude": 21.0545,
      "longitude": 86.5156,
      "timezone": "Asia/Kolkata"
    },
    {
      "name": "瑟瓦伊马托布尔",
      "name_en": "Sawai Madhopur",
      "province": "拉贾斯坦邦",
      "latitude": 26.023,
      "longitude": 76.3441,
      "timezone": "Asia/Kolkata"
    },
    {
      "name": "",
      "name_en": "Ambikāpur",
      "province": "恰蒂斯加尔邦",
      "latitude": 23.1189,
      "longitude": 83.1954,
      "timezone": "Asia/Kolkata"
    },
    {
      "name": "",
      "name_en": "Mandoli",
      "province": "Delhi",
      "latitude": 28.7028,
      "longitude": 77.31,
      "timezone": "Asia/Kolkata"
    },
    {
      "name": "",
      "name_en": "Satara",
      "province": "马哈拉施特拉邦",
      "latitude": 17.6859,
      "longitude": 73.9933,
      "timezone": "Asia/Kolkata"
    },
    {
      "name": "",
      "name_en": "Chūru",
      "province": "拉贾斯坦邦",
      "latitude": 28.3041,
      "longitude": 74.9672,
      "timezone": "Asia/Kolkata"
    },
    {
      "name": "",
      "name_en": "Gangāpur",
      "province": "拉贾斯坦邦",
      "latitude": 26.4725,
      "longitude": 76.7174,
      "timezone": "Asia/Kolkata"
    },
    {
      "name": "马达瓦拉姆",
      "name_en": "Madhavaram",
      "province": "泰米尔纳德邦",
      "latitude": 13.1482,
      "longitude": 80.2314,
      "timezone": "Asia/Kolkata"
    },
    {
      "name": "",
      "name_en": "Dohad",
      "province": "古吉拉特邦",
      "latitude": 22.8328,
      "longitude": 74.2599,
      "timezone": "Asia/Kolkata"
    },
    {
      "name": "巴尔斯希",
      "name_en": "Barshi",
      "province": "马哈拉施特拉邦",
      "latitude": 18.2345,
      "longitude": 75.6928,
      "timezone": "Asia/Kolkata"
    },
    {
      "name": "",
      "name_en": "Ādilābād",
      "province": "特伦甘纳邦",
      "latitude": 19.672,
      "longitude": 78.5359,
      "timezone": "Asia/Kolkata"
    },
    {
      "name": "",
      "name_en": "Jhunjhunūn",
      "province": "拉贾斯坦邦",
      "latitude": 28.1256,
      "longitude": 75.398,
      "timezone": "Asia/Kolkata"
    },
    {
      "name": "杰普尔",
      "name_en": "Jetpur",
      "province": "古吉拉特邦",
      "latitude": 21.7548,
      "longitude": 70.6235,
      "timezone": "Asia/Kolkata"
    },
    {
      "name": "",
      "name_en": "Uppal Kalan",
      "province": "特伦甘纳邦",
      "latitude": 17.4058,
      "longitude": 78.5591,
      "timezone": "Asia/Kolkata"
    },
    {
      "name": "",
      "name_en": "Gudivāda",
      "province": "安得拉邦",
      "latitude": 16.4355,
      "longitude": 80.9955,
      "timezone": "Asia/Kolkata"
    },
    {
      "name": "",
      "name_en": "Bārān",
      "province": "拉贾斯坦邦",
      "latitude": 25.1,
      "longitude": 76.5167,
      "timezone": "Asia/Kolkata"
    },
    {
      "name": "霍斯杭格阿巴德",
      "name_en": "Narmadapuram",
      "province": "中央邦",
      "latitude": 22.7475,
      "longitude": 77.7274,
      "timezone": "Asia/Kolkata"
    },
    {
      "name": "安雷利",
      "name_en": "Amreli",
      "province": "古吉拉特邦",
      "latitude": 21.5998,
      "longitude": 71.2117,
      "timezone": "Asia/Kolkata"
    },
    {
      "name": "普杜科泰",
      "name_en": "Pudukkottai",
      "province": "泰米尔纳德邦",
      "latitude": 10.3813,
      "longitude": 78.8214,
      "timezone": "Asia/Kolkata"
    },
    {
      "name": "纳拉萨拉奥佩特",
      "name_en": "Narasaraopet",
      "province": "安得拉邦",
      "latitude": 16.2349,
      "longitude": 80.0493,
      "timezone": "Asia/Kolkata"
    },
    {
      "name": "",
      "name_en": "Rishra",
      "province": "西孟加拉邦",
      "latitude": 22.7239,
      "longitude": 88.3456,
      "timezone": "Asia/Kolkata"
    },
    {
      "name": "",
      "name_en": "Baripāda",
      "province": "Odisha",
      "latitude": 21.9346,
      "longitude": 86.7285,
      "timezone": "Asia/Kolkata"
    },
    {
      "name": "",
      "name_en": "Muktsar",
      "province": "旁遮普邦",
      "latitude": 30.4743,
      "longitude": 74.5166,
      "timezone": "Asia/Kolkata"
    },
    {
      "name": "阿扎姆加尔",
      "name_en": "Azamgarh",
      "province": "北方邦",
      "latitude": 26.0683,
      "longitude": 83.1836,
      "timezone": "Asia/Kolkata"
    },
    {
      "name": "",
      "name_en": "Barnāla",
      "province": "旁遮普邦",
      "latitude": 30.3745,
      "longitude": 75.5487,
      "timezone": "Asia/Kolkata"
    },
    {
      "name": "耶拉汉卡",
      "name_en": "Yelahanka",
      "province": "卡纳塔克邦",
      "latitude": 13.1007,
      "longitude": 77.5963,
      "timezone": "Asia/Kolkata"
    },
    {
      "name": "吉多尔格尔",
      "name_en": "Chittorgarh",
      "province": "拉贾斯坦邦",
      "latitude": 24.8896,
      "longitude": 74.624,
      "timezone": "Asia/Kolkata"
    },
    {
      "name": "",
      "name_en": "Tinsukia",
      "province": "阿萨姆邦",
      "latitude": 27.489,
      "longitude": 95.3599,
      "timezone": "Asia/Kolkata"
    },
    {
      "name": "",
      "name_en": "Khargone",
      "province": "中央邦",
      "latitude": 21.8229,
      "longitude": 75.6139,
      "timezone": "Asia/Kolkata"
    },
    {
      "name": "",
      "name_en": "Baidyabāti",
      "province": "西孟加拉邦",
      "latitude": 22.785,
      "longitude": 88.3259,
      "timezone": "Asia/Kolkata"
    },
    {
      "name": "",
      "name_en": "Bastī",
      "province": "北方邦",
      "latitude": 26.7882,
      "longitude": 82.7162,
      "timezone": "Asia/Kolkata"
    },
    {
      "name": "",
      "name_en": "Gangavati",
      "province": "卡纳塔克邦",
      "latitude": 15.4313,
      "longitude": 76.5293,
      "timezone": "Asia/Kolkata"
    },
    {
      "name": "阿姆布尔",
      "name_en": "Ambur",
      "province": "泰米尔纳德邦",
      "latitude": 12.7916,
      "longitude": 78.7164,
      "timezone": "Asia/Kolkata"
    },
    {
      "name": "",
      "name_en": "Giridih",
      "province": "贾坎德邦",
      "latitude": 24.1862,
      "longitude": 86.3088,
      "timezone": "Asia/Kolkata"
    },
    {
      "name": "沃尔塔",
      "name_en": "Wardha",
      "province": "马哈拉施特拉邦",
      "latitude": 20.7393,
      "longitude": 78.5978,
      "timezone": "Asia/Kolkata"
    },
    {
      "name": "",
      "name_en": "Tadepalligudem",
      "province": "安得拉邦",
      "latitude": 16.8147,
      "longitude": 81.5272,
      "timezone": "Asia/Kolkata"
    },
    {
      "name": "",
      "name_en": "Chanduasi",
      "province": "北方邦",
      "latitude": 28.4518,
      "longitude": 78.7828,
      "timezone": "Asia/Kolkata"
    },
    {
      "name": "",
      "name_en": "Bagaha",
      "province": "比哈尔邦",
      "latitude": 27.0992,
      "longitude": 84.09,
      "timezone": "Asia/Kolkata"
    },
    {
      "name": "阿恰尔普尔",
      "name_en": "Achalpur",
      "province": "马哈拉施特拉邦",
      "latitude": 21.2567,
      "longitude": 77.5101,
      "timezone": "Asia/Kolkata"
    },
    {
      "name": "",
      "name_en": "Gondal",
      "province": "古吉拉特邦",
      "latitude": 21.9607,
      "longitude": 70.8025,
      "timezone": "Asia/Kolkata"
    },
    {
      "name": "奥斯马纳巴德",
      "name_en": "Dharashiv",
      "province": "马哈拉施特拉邦",
      "latitude": 18.1816,
      "longitude": 76.0389,
      "timezone": "Asia/Kolkata"
    },
    {
      "name": "布莱尔港",
      "name_en": "Port Blair",
      "province": "安达曼-尼科巴群岛",
      "latitude": 11.6661,
      "longitude": 92.7464,
      "timezone": "Asia/Kolkata"
    },
    {
      "name": "巴嘎科特",
      "name_en": "Bagalkot",
      "province": "卡纳塔克邦",
      "latitude": 16.1867,
      "longitude": 75.6961,
      "timezone": "Asia/Kolkata"
    },
    {
      "name": "",
      "name_en": "Suriāpet",
      "province": "特伦甘纳邦",
      "latitude": 17.1405,
      "longitude": 79.6205,
      "timezone": "Asia/Kolkata"
    },
    {
      "name": "邦格阿奥恩",
      "name_en": "Bangaon",
      "province": "西孟加拉邦",
      "latitude": 23.0455,
      "longitude": 88.8308,
      "timezone": "Asia/Kolkata"
    },
    {
      "name": "",
      "name_en": "Ashoknagar Kalyangarh",
      "province": "西孟加拉邦",
      "latitude": 22.8642,
      "longitude": 88.637,
      "timezone": "Asia/Kolkata"
    },
    {
      "name": "",
      "name_en": "Deesa",
      "province": "古吉拉特邦",
      "latitude": 24.2561,
      "longitude": 72.1793,
      "timezone": "Asia/Kolkata"
    },
    {
      "name": "",
      "name_en": "Navadwīp",
      "province": "西孟加拉邦",
      "latitude": 23.4067,
      "longitude": 88.3686,
      "timezone": "Asia/Kolkata"
    },
    {
      "name": "南杜尔巴尔",
      "name_en": "Nandurbar",
      "province": "马哈拉施特拉邦",
      "latitude": 21.3667,
      "longitude": 74.2405,
      "timezone": "Asia/Kolkata"
    },
    {
      "name": "",
      "name_en": "Sultānpur",
      "province": "北方邦",
      "latitude": 26.2579,
      "longitude": 82.0727,
      "timezone": "Asia/Kolkata"
    },
    {
      "name": "",
      "name_en": "Delhi Cantonment",
      "province": "Delhi",
      "latitude": 28.6,
      "longitude": 77.1333,
      "timezone": "Asia/Kolkata"
    },
    {
      "name": "",
      "name_en": "Firozpur",
      "province": "旁遮普邦",
      "latitude": 30.9257,
      "longitude": 74.6131,
      "timezone": "Asia/Kolkata"
    },
    {
      "name": "塞霍雷",
      "name_en": "Sehore",
      "province": "中央邦",
      "latitude": 23.2,
      "longitude": 77.0833,
      "timezone": "Asia/Kolkata"
    },
    {
      "name": "",
      "name_en": "Bānsbāria",
      "province": "西孟加拉邦",
      "latitude": 22.9539,
      "longitude": 88.401,
      "timezone": "Asia/Kolkata"
    },
    {
      "name": "",
      "name_en": "Tadpatri",
      "province": "安得拉邦",
      "latitude": 14.9083,
      "longitude": 78.0103,
      "timezone": "Asia/Kolkata"
    },
    {
      "name": "",
      "name_en": "Jalpāiguri",
      "province": "西孟加拉邦",
      "latitude": 26.5167,
      "longitude": 88.7333,
      "timezone": "Asia/Kolkata"
    },
    {
      "name": "芒格阿拉吉里",
      "name_en": "Mangalagiri",
      "province": "安得拉邦",
      "latitude": 16.4308,
      "longitude": 80.5682,
      "timezone": "Asia/Kolkata"
    },
    {
      "name": "",
      "name_en": "Ranebennur",
      "province": "卡纳塔克邦",
      "latitude": 14.6224,
      "longitude": 75.6295,
      "timezone": "Asia/Kolkata"
    },
    {
      "name": "库尔贾",
      "name_en": "Khurja",
      "province": "北方邦",
      "latitude": 28.2538,
      "longitude": 77.8554,
      "timezone": "Asia/Kolkata"
    },
    {
      "name": "",
      "name_en": "Kishanganj",
      "province": "比哈尔邦",
      "latitude": 26.1022,
      "longitude": 87.9553,
      "timezone": "Asia/Kolkata"
    },
    {
      "name": "",
      "name_en": "Ponnāni",
      "province": "喀拉拉邦",
      "latitude": 10.7669,
      "longitude": 75.9252,
      "timezone": "Asia/Kolkata"
    },
    {
      "name": "欣道恩",
      "name_en": "Hindaun",
      "province": "拉贾斯坦邦",
      "latitude": 26.7341,
      "longitude": 77.0352,
      "timezone": "Asia/Kolkata"
    },
    {
      "name": "",
      "name_en": "Jamālpur",
      "province": "比哈尔邦",
      "latitude": 25.3126,
      "longitude": 86.4889,
      "timezone": "Asia/Kolkata"
    },
    {
      "name": "",
      "name_en": "Nāgaur",
      "province": "拉贾斯坦邦",
      "latitude": 27.202,
      "longitude": 73.7339,
      "timezone": "Asia/Kolkata"
    },
    {
      "name": "",
      "name_en": "Ambala Sadar",
      "province": "哈里亚纳邦",
      "latitude": 30.3354,
      "longitude": 76.8627,
      "timezone": "Asia/Kolkata"
    },
    {
      "name": "比瓦迪",
      "name_en": "Bhiwadi",
      "province": "拉贾斯坦邦",
      "latitude": 28.2102,
      "longitude": 76.8606,
      "timezone": "Asia/Kolkata"
    },
    {
      "name": "",
      "name_en": "Būndi",
      "province": "拉贾斯坦邦",
      "latitude": 25.4385,
      "longitude": 75.6373,
      "timezone": "Asia/Kolkata"
    },
    {
      "name": "",
      "name_en": "Miryalaguda",
      "province": "特伦甘纳邦",
      "latitude": 16.8722,
      "longitude": 79.5625,
      "timezone": "Asia/Kolkata"
    },
    {
      "name": "",
      "name_en": "Soyībug",
      "province": "Jammu and Kashmir",
      "latitude": 34.0768,
      "longitude": 74.7057,
      "timezone": "Asia/Kolkata"
    },
    {
      "name": "",
      "name_en": "Jagtiāl",
      "province": "特伦甘纳邦",
      "latitude": 18.7947,
      "longitude": 78.9166,
      "timezone": "Asia/Kolkata"
    },
    {
      "name": "罗奥尔凯埃",
      "name_en": "Roorkee",
      "province": "Uttarakhand",
      "latitude": 29.8663,
      "longitude": 77.8912,
      "timezone": "Asia/Kolkata"
    },
    {
      "name": "",
      "name_en": "Udgīr",
      "province": "马哈拉施特拉邦",
      "latitude": 18.3926,
      "longitude": 77.1176,
      "timezone": "Asia/Kolkata"
    },
    {
      "name": "",
      "name_en": "Nagda",
      "province": "中央邦",
      "latitude": 23.4583,
      "longitude": 75.4176,
      "timezone": "Asia/Kolkata"
    },
    {
      "name": "",
      "name_en": "Betūl",
      "province": "中央邦",
      "latitude": 21.9006,
      "longitude": 77.9023,
      "timezone": "Asia/Kolkata"
    },
    {
      "name": "",
      "name_en": "Jahānābād",
      "province": "比哈尔邦",
      "latitude": 25.2137,
      "longitude": 84.9871,
      "timezone": "Asia/Kolkata"
    },
    {
      "name": "加希布尔",
      "name_en": "Kashipur",
      "province": "Uttarakhand",
      "latitude": 29.214,
      "longitude": 78.9569,
      "timezone": "Asia/Kolkata"
    },
    {
      "name": "",
      "name_en": "Ghazīpur",
      "province": "北方邦",
      "latitude": 25.5833,
      "longitude": 83.5853,
      "timezone": "Asia/Kolkata"
    },
    {
      "name": "",
      "name_en": "Amaravati",
      "province": "安得拉邦",
      "latitude": 20.9333,
      "longitude": 77.75,
      "timezone": "Asia/Kolkata"
    },
    {
      "name": "",
      "name_en": "Nagapattinam",
      "province": "泰米尔纳德邦",
      "latitude": 10.7638,
      "longitude": 79.8431,
      "timezone": "Asia/Kolkata"
    },
    {
      "name": "",
      "name_en": "Buxar",
      "province": "比哈尔邦",
      "latitude": 25.5755,
      "longitude": 83.9804,
      "timezone": "Asia/Kolkata"
    },
    {
      "name": "",
      "name_en": "Mormugao",
      "province": "果阿邦",
      "latitude": 15.3891,
      "longitude": 73.8149,
      "timezone": "Asia/Kolkata"
    },
    {
      "name": "",
      "name_en": "Seoni",
      "province": "中央邦",
      "latitude": 22.085,
      "longitude": 79.5504,
      "timezone": "Asia/Kolkata"
    },
    {
      "name": "",
      "name_en": "Aurangābād",
      "province": "比哈尔邦",
      "latitude": 19.8776,
      "longitude": 75.3423,
      "timezone": "Asia/Kolkata"
    },
    {
      "name": "",
      "name_en": "Hinganghāt",
      "province": "马哈拉施特拉邦",
      "latitude": 20.5487,
      "longitude": 78.8398,
      "timezone": "Asia/Kolkata"
    },
    {
      "name": "",
      "name_en": "Dhamtari",
      "province": "恰蒂斯加尔邦",
      "latitude": 20.7072,
      "longitude": 81.5487,
      "timezone": "Asia/Kolkata"
    },
    {
      "name": "",
      "name_en": "Chilakalūrupet",
      "province": "安得拉邦",
      "latitude": 16.0899,
      "longitude": 80.1671,
      "timezone": "Asia/Kolkata"
    },
    {
      "name": "马拉普普拉姆",
      "name_en": "Malappuram",
      "province": "喀拉拉邦",
      "latitude": 11.042,
      "longitude": 76.0815,
      "timezone": "Asia/Kolkata"
    },
    {
      "name": "",
      "name_en": "Bānswāra",
      "province": "拉贾斯坦邦",
      "latitude": 23.5411,
      "longitude": 74.4425,
      "timezone": "Asia/Kolkata"
    },
    {
      "name": "",
      "name_en": "Chirmiri",
      "province": "恰蒂斯加尔邦",
      "latitude": 23.1907,
      "longitude": 82.3531,
      "timezone": "Asia/Kolkata"
    },
    {
      "name": "",
      "name_en": "Itārsi",
      "province": "中央邦",
      "latitude": 22.6148,
      "longitude": 77.7622,
      "timezone": "Asia/Kolkata"
    },
    {
      "name": "",
      "name_en": "Vasco da Gama",
      "province": "果阿邦",
      "latitude": 15.3958,
      "longitude": 73.8157,
      "timezone": "Asia/Kolkata"
    },
    {
      "name": "甘托克",
      "name_en": "Gangtok",
      "province": "锡金",
      "latitude": 27.3257,
      "longitude": 88.6122,
      "timezone": "Asia/Kolkata"
    },
    {
      "name": "",
      "name_en": "Datia",
      "province": "中央邦",
      "latitude": 25.6731,
      "longitude": 78.4591,
      "timezone": "Asia/Kolkata"
    },
    {
      "name": "",
      "name_en": "Phagwāra",
      "province": "旁遮普邦",
      "latitude": 31.2245,
      "longitude": 75.7739,
      "timezone": "Asia/Kolkata"
    },
    {
      "name": "",
      "name_en": "Airoli",
      "province": "马哈拉施特拉邦",
      "latitude": 19.151,
      "longitude": 72.9963,
      "timezone": "Asia/Kolkata"
    },
    {
      "name": "",
      "name_en": "Etah",
      "province": "北方邦",
      "latitude": 27.5588,
      "longitude": 78.6569,
      "timezone": "Asia/Kolkata"
    },
    {
      "name": "",
      "name_en": "Luckeesarai",
      "province": "比哈尔邦",
      "latitude": 25.1765,
      "longitude": 86.0947,
      "timezone": "Asia/Kolkata"
    },
    {
      "name": "",
      "name_en": "Shikohābād",
      "province": "北方邦",
      "latitude": 27.108,
      "longitude": 78.5866,
      "timezone": "Asia/Kolkata"
    },
    {
      "name": "卡斯甘杰",
      "name_en": "Kāsganj",
      "province": "北方邦",
      "latitude": 27.8088,
      "longitude": 78.6458,
      "timezone": "Asia/Kolkata"
    },
    {
      "name": "",
      "name_en": "Khambhāt",
      "province": "古吉拉特邦",
      "latitude": 22.3174,
      "longitude": 72.6192,
      "timezone": "Asia/Kolkata"
    },
    {
      "name": "科希马",
      "name_en": "Kohima",
      "province": "那加兰邦",
      "latitude": 25.6747,
      "longitude": 94.111,
      "timezone": "Asia/Kolkata"
    },
    {
      "name": "潘达尔普尔",
      "name_en": "Pandharpur",
      "province": "马哈拉施特拉邦",
      "latitude": 17.6792,
      "longitude": 75.331,
      "timezone": "Asia/Kolkata"
    },
    {
      "name": "卡普尔塔拉",
      "name_en": "Kapurthala Town",
      "province": "旁遮普邦",
      "latitude": 31.3801,
      "longitude": 75.3811,
      "timezone": "Asia/Kolkata"
    },
    {
      "name": "",
      "name_en": "Mahuva",
      "province": "古吉拉特邦",
      "latitude": 21.0901,
      "longitude": 71.769,
      "timezone": "Asia/Kolkata"
    },
    {
      "name": "锡尔瓦萨",
      "name_en": "Silvassa",
      "province": "Dadra and Nagar Haveli and Daman and Diu",
      "latitude": 20.2739,
      "longitude": 72.9967,
      "timezone": "Asia/Kolkata"
    },
    {
      "name": "",
      "name_en": "Balāngīr",
      "province": "Odisha",
      "latitude": 20.7042,
      "longitude": 83.4903,
      "timezone": "Asia/Kolkata"
    },
    {
      "name": "",
      "name_en": "Mughal Sarāi",
      "province": "北方邦",
      "latitude": 25.2831,
      "longitude": 83.1197,
      "timezone": "Asia/Kolkata"
    },
    {
      "name": "",
      "name_en": "Nawāda",
      "province": "比哈尔邦",
      "latitude": 24.8867,
      "longitude": 85.5436,
      "timezone": "Asia/Kolkata"
    },
    {
      "name": "",
      "name_en": "Bhilai Charoda",
      "province": "恰蒂斯加尔邦",
      "latitude": 21.2231,
      "longitude": 81.4561,
      "timezone": "Asia/Kolkata"
    },
    {
      "name": "",
      "name_en": "Shāmli",
      "province": "北方邦",
      "latitude": 29.4497,
      "longitude": 77.3096,
      "timezone": "Asia/Kolkata"
    },
    {
      "name": "贾尔苏古达",
      "name_en": "Jharsuguda",
      "province": "Odisha",
      "latitude": 21.8553,
      "longitude": 84.007,
      "timezone": "Asia/Kolkata"
    },
    {
      "name": "",
      "name_en": "Sādatpur Gujran",
      "province": "Delhi",
      "latitude": 28.7283,
      "longitude": 77.2482,
      "timezone": "Asia/Kolkata"
    },
    {
      "name": "",
      "name_en": "Chalisgaon",
      "province": "马哈拉施特拉邦",
      "latitude": 20.4578,
      "longitude": 75.016,
      "timezone": "Asia/Kolkata"
    },
    {
      "name": "",
      "name_en": "Villupuram",
      "province": "泰米尔纳德邦",
      "latitude": 11.9398,
      "longitude": 79.4924,
      "timezone": "Asia/Kolkata"
    },
    {
      "name": "阿马尔内尔",
      "name_en": "Amalner",
      "province": "马哈拉施特拉邦",
      "latitude": 21.0398,
      "longitude": 75.0589,
      "timezone": "Asia/Kolkata"
    },
    {
      "name": "塔拉斯塞尔伊",
      "name_en": "Tellicherry",
      "province": "喀拉拉邦",
      "latitude": 11.7481,
      "longitude": 75.4929,
      "timezone": "Asia/Kolkata"
    },
    {
      "name": "曼杰里",
      "name_en": "Manjeri",
      "province": "喀拉拉邦",
      "latitude": 11.1202,
      "longitude": 76.12,
      "timezone": "Asia/Kolkata"
    },
    {
      "name": "",
      "name_en": "Birgaon",
      "province": "恰蒂斯加尔邦",
      "latitude": 21.3076,
      "longitude": 81.6279,
      "timezone": "Asia/Kolkata"
    },
    {
      "name": "",
      "name_en": "Bārmer",
      "province": "拉贾斯坦邦",
      "latitude": 25.7457,
      "longitude": 71.3921,
      "timezone": "Asia/Kolkata"
    },
    {
      "name": "",
      "name_en": "Pūth Kalān",
      "province": "Delhi",
      "latitude": 28.7116,
      "longitude": 77.0789,
      "timezone": "Asia/Kolkata"
    },
    {
      "name": "",
      "name_en": "Kuniyamuttūr",
      "province": "泰米尔纳德邦",
      "latitude": 10.9638,
      "longitude": 76.9525,
      "timezone": "Asia/Kolkata"
    },
    {
      "name": "",
      "name_en": "Sardārshahr",
      "province": "拉贾斯坦邦",
      "latitude": 28.4406,
      "longitude": 74.491,
      "timezone": "Asia/Kolkata"
    },
    {
      "name": "",
      "name_en": "Sāhibganj",
      "province": "贾坎德邦",
      "latitude": 25.2443,
      "longitude": 87.6348,
      "timezone": "Asia/Kolkata"
    },
    {
      "name": "",
      "name_en": "Sānand",
      "province": "古吉拉特邦",
      "latitude": 22.9923,
      "longitude": 72.3818,
      "timezone": "Asia/Kolkata"
    },
    {
      "name": "",
      "name_en": "Paramagudi",
      "province": "泰米尔纳德邦",
      "latitude": 9.5463,
      "longitude": 78.5907,
      "timezone": "Asia/Kolkata"
    },
    {
      "name": "",
      "name_en": "Zerakpur",
      "province": "旁遮普邦",
      "latitude": 30.6562,
      "longitude": 76.8209,
      "timezone": "Asia/Kolkata"
    },
    {
      "name": "蒂鲁琴格奥德",
      "name_en": "Tiruchengode",
      "province": "泰米尔纳德邦",
      "latitude": 11.3802,
      "longitude": 77.8944,
      "timezone": "Asia/Kolkata"
    },
    {
      "name": "",
      "name_en": "Closepet",
      "province": "卡纳塔克邦",
      "latitude": 12.7218,
      "longitude": 77.2815,
      "timezone": "Asia/Kolkata"
    },