{
  "country_code": "PF",
  "country_name": "法属波利尼西亚",
  "cities": [
    {
      "name": "",
      "name_en": "Faaa",
      "province": "Îles du Vent",
      "latitude": -17.5593,
      "longitude": -149.6035,
      "timezone": "Pacific/Tahiti"
    },
    {
      "name": "帕皮提",
      "name_en": "Papeete",
      "province": "Îles du Vent",
      "latitude": -17.5347,
      "longitude": -149.5684,
      "timezone": "Pacific/Tahiti"
    },
    {
      "name": "",
      "name_en": "Punaauia",
      "province": "Îles du Vent",
      "latitude": -17.6333,
      "longitude": -149.6,
      "timezone": "Pacific/Tahiti"
    },
    {
      "name": "",
      "name_en": "Pirae",
      "province": "Îles du Vent",
      "latitude": -17.5298,
      "longitude": -149.5512,
      "timezone": "Pacific/Tahiti"
    },
    {
      "name": "",
      "name_en": "Mahina",
      "province": "Îles du Vent",
      "latitude": -17.5065,
      "longitude": -149.489,
      "timezone": "Pacific/Tahiti"
    },
    {
      "name": "",
      "name_en": "Paea",
      "province": "Îles du Vent",
      "latitude": -17.6833,
      "longitude": -149.5833,
      "timezone": "Pacific/Tahiti"
    },
    {
      "name": "",
      "name_en": "Papao",
      "province": "Îles du Vent",
      "latitude": -17.75,
      "longitude": -149.55,
      "timezone": "Pacific/Tahiti"
    },
    {
      "name": "",
      "name_en": "Arue",
      "province": "Îles du Vent",
      "latitude": -17.5276,
      "longitude": -149.5344,
      "timezone": "Pacific/Tahiti"
    },
    {
      "name": "",
      "name_en": "Vaitoare",
      "province": "Îles Australes",
      "latitude": -16.6762,
      "longitude": -151.4574,
      "timezone": "Pacific/Tahiti"
    },
    {
      "name": "",
      "name_en": "Afaahiti",
      "province": "Îles du Vent",
      "latitude": -17.744,
      "longitude": -149.3244,
      "timezone": "Pacific/Tahiti"
    },
    {
      "name": "",
      "name_en": "Uturoa",
      "province": "Leeward Islands",
      "latitude": -16.7302,
      "longitude": -151.4426,
      "timezone": "Pacific/Tahiti"
    },
    {
      "name": "",
      "name_en": "Taiohae",
      "province": "Îles Marquises",
      "latitude": -8.9109,
      "longitude": -140.0997,
      "timezone": "Pacific/Marquesas"
    }
  ]
}
