{
  "country_code": "PS",
  "country_name": "巴勒斯坦",
  "cities": [
    {
      "name": "东耶路撒冷",
      "name_en": "East Jerusalem",
      "province": "约旦河西岸地区",
      "latitude": 31.7834,
      "longitude": 35.2339,
      "timezone": "Asia/Hebron"
    },
    {
      "name": "加沙",
      "name_en": "Gaza",
      "province": "加沙地带",
      "latitude": 31.5016,
      "longitude": 34.4667,
      "timezone": "Asia/Gaza"
    },
    {
      "name": "",
      "name_en": "Khān Yūnis",
      "province": "加沙地带",
      "latitude": 31.3402,
      "longitude": 34.3063,
      "timezone": "Asia/Gaza"
    },
    {
      "name": "",
      "name_en": "Jabālyā",
      "province": "加沙地带",
      "latitude": 31.5272,
      "longitude": 34.4835,
      "timezone": "Asia/Gaza"
    },
    {
      "name": "希伯仑",
      "name_en": "Hebron",
      "province": "约旦河西岸地区",
      "latitude": 31.5294,
      "longitude": 35.0938,
      "timezone": "Asia/Hebron"
    },
    {
      "name": "纳布卢斯",
      "name_en": "Nablus",
      "province": "约旦河西岸地区",
      "latitude": 32.2211,
      "longitude": 35.2544,
      "timezone": "Asia/Hebron"
    },
    {
      "name": "拉法市",
      "name_en": "Rafaḩ",
      "province": "加沙地带",
      "latitude": 31.2972,
      "longitude": 34.2436,
      "timezone": "Asia/Gaza"
    },
    {
      "name": "",
      "name_en": "Dayr al Balaḩ",
      "province": "加沙地带",
      "latitude": 31.4183,
      "longitude": 34.3493,
      "timezone": "Asia/Gaza"
    },
    {
      "name": "",
      "name_en": "Bayt Lāhyā",
      "province": "加沙地带",
      "latitude": 31.5464,
      "longitude": 34.4951,
      "timezone": "Asia/Gaza"
    },
    {
      "name": "",
      "name_en": "Battir",
      "province": "约旦河西岸地区",
      "latitude": 31.7,
      "longitude": 35.1167,
      "timezone": "Asia/Jerusalem"
    },
    {
      "name": "图勒凯尔姆",
      "name_en": "Ţūlkarm",
      "province": "约旦河西岸地区",
      "latitude": 32.3116,
      "longitude": 35.0269,
      "timezone": "Asia/Hebron"
    },
    {
      "name": "拉姆安拉",
      "name_en": "Ramallah",
      "province": "约旦河西岸地区",
      "latitude": 31.8996,
      "longitude": 35.2042,
      "timezone": "Asia/Hebron"
    },
    {
      "name": "",
      "name_en": "Qalqīlyah",
      "province": "约旦河西岸地区",
      "latitude": 32.1897,
      "longitude": 34.9706,
      "timezone": "Asia/Hebron"
    },
    {
      "name": "",
      "name_en": "Yaţţā",
      "province": "约旦河西岸地区",
      "latitude": 31.4459,
      "longitude": 35.0944,
      "timezone": "Asia/Hebron"
    },
    {
      "name": "",
      "name_en": "Ma‘ale Adummim",
      "province": "约旦河西岸地区",
      "latitude": 31.7774,
      "longitude": 35.2987,
      "timezone": "Asia/Jerusalem"
    },
    {
      "name": "",
      "name_en": "Al Bīrah",
      "province": "约旦河西岸地区",
      "latitude": 31.91,
      "longitude": 35.2165,
      "timezone": "Asia/Hebron"
    },
    {
      "name": "拜特哈嫩",
      "name_en": "Bayt Ḩānūn",
      "province": "加沙地带",
      "latitude": 31.5353,
      "longitude": 34.5358,
      "timezone": "Asia/Gaza"
    },
    {
      "name": "",
      "name_en": "An Nuşayrāt",
      "province": "加沙地带",
      "latitude": 31.4486,
      "longitude": 34.3925,
      "timezone": "Asia/Gaza"
    },
    {
      "name": "",
      "name_en": "Old City",
      "province": "约旦河西岸地区",
      "latitude": 31.7767,
      "longitude": 35.2342,
      "timezone": "Asia/Hebron"
    },
    {
      "name": "",
      "name_en": "Al Burayj",
      "province": "加沙地带",
      "latitude": 31.4394,
      "longitude": 34.4031,
      "timezone": "Asia/Gaza"
    },
    {
      "name": "",
      "name_en": "Janīn",
      "province": "约旦河西岸地区",
      "latitude": 32.4594,
      "longitude": 35.3009,
      "timezone": "Asia/Hebron"
    },
    {
      "name": "",
      "name_en": "Banī Suhaylā",
      "province": "加沙地带",
      "latitude": 31.3434,
      "longitude": 34.3234,
      "timezone": "Asia/Gaza"
    },
    {
      "name": "伯利恒",
      "name_en": "Bethlehem",
      "province": "约旦河西岸地区",
      "latitude": 31.7049,
      "longitude": 35.2038,
      "timezone": "Asia/Hebron"
    },
    {
      "name": "",
      "name_en": "Az̧ Z̧āhirīyah",
      "province": "约旦河西岸地区",
      "latitude": 31.4097,
      "longitude": 34.9733,
      "timezone": "Asia/Hebron"
    },
    {
      "name": "",
      "name_en": "Bayt Ḩanīnā",
      "province": "约旦河西岸地区",
      "latitude": 31.83,
      "longitude": 35.2254,
      "timezone": "Asia/Hebron"
    },
    {
      "name": "",
      "name_en": "‘Aţārūt",
      "province": "约旦河西岸地区",
      "latitude": 31.8667,
      "longitude": 35.2167,
      "timezone": "Asia/Hebron"
    },
    {
      "name": "",
      "name_en": "Surif City",
      "province": "约旦河西岸地区",
      "latitude": 31.6508,
      "longitude": 35.0644,
      "timezone": "Asia/Hebron"
    },
    {
      "name": "",
      "name_en": "Ar Rām wa Ḑāḩiyat al Barīd",
      "province": "约旦河西岸地区",
      "latitude": 31.8495,
      "longitude": 35.2342,
      "timezone": "Asia/Hebron"
    },
    {
      "name": "",
      "name_en": "Ḩalḩūl",
      "province": "约旦河西岸地区",
      "latitude": 31.5803,
      "longitude": 35.1018,
      "timezone": "Asia/Hebron"
    },
    {
      "name": "",
      "name_en": "Dūrā",
      "province": "约旦河西岸地区",
      "latitude": 31.5078,
      "longitude": 35.0293,
      "timezone": "Asia/Hebron"
    },
    {
      "name": "",
      "name_en": "Banī Na‘īm",
      "province": "约旦河西岸地区",
      "latitude": 31.5159,
      "longitude": 35.1642,
      "timezone": "Asia/Hebron"
    },
    {
      "name": "杰里科",
      "name_en": "Jericho",
      "province": "约旦河西岸地区",
      "latitude": 31.8667,
      "longitude": 35.45,
      "timezone": "Asia/Hebron"
    },
    {
      "name": "",
      "name_en": "Al Qarārah",
      "province": "加沙地带",
      "latitude": 31.3739,
      "longitude": 34.3409,
      "timezone": "Asia/Gaza"
    },
    {
      "name": "",
      "name_en": "As Samū‘",
      "province": "约旦河西岸地区",
      "latitude": 31.3967,
      "longitude": 35.0661,
      "timezone": "Asia/Hebron"
    },
    {
      "name": "",
      "name_en": "Qabāţīyah",
      "province": "约旦河西岸地区",
      "latitude": 32.4104,
      "longitude": 35.2809,
      "timezone": "Asia/Hebron"
    },
    {
      "name": "",
      "name_en": "Idhnā",
      "province": "约旦河西岸地区",
      "latitude": 31.5587,
      "longitude": 34.9744,
      "timezone": "Asia/Hebron"
    },
    {
      "name": "",
      "name_en": "‘Abasān al Kabīrah",
      "province": "加沙地带",
      "latitude": 31.3191,
      "longitude": 34.34,
      "timezone": "Asia/Gaza"
    },
    {
      "name": "",
      "name_en": "Sa‘īr",
      "province": "约旦河西岸地区",
      "latitude": 31.5785,
      "longitude": 35.1402,
      "timezone": "Asia/Hebron"
    },
    {
      "name": "",
      "name_en": "Al ‘Ayzarīyah",
      "province": "约旦河西岸地区",
      "latitude": 31.7708,
      "longitude": 35.2692,
      "timezone": "Asia/Hebron"
    },
    {
      "name": "",
      "name_en": "Balāţah",
      "province": "约旦河西岸地区",
      "latitude": 32.2121,
      "longitude": 35.2856,
      "timezone": "Asia/Hebron"
    },
    {
      "name": "",
      "name_en": "Az Zuwāydah",
      "province": "加沙地带",
      "latitude": 31.4395,
      "longitude": 34.3805,
      "timezone": "Asia/Gaza"
    },
    {
      "name": "",
      "name_en": "Bayt Jālā",
      "province": "约旦河西岸地区",
      "latitude": 31.7155,
      "longitude": 35.1879,
      "timezone": "Asia/Hebron"
    },
    {
      "name": "",
      "name_en": "Al Yāmūn",
      "province": "约旦河西岸地区",
      "latitude": 32.4856,
      "longitude": 35.2301,
      "timezone": "Asia/Hebron"
    },
    {
      "name": "",
      "name_en": "Ţūbās",
      "province": "约旦河西岸地区",
      "latitude": 32.3209,
      "longitude": 35.3699,
      "timezone": "Asia/Hebron"
    },
    {
      "name": "",
      "name_en": "Shokat as-Sufi",
      "province": "加沙地带",
      "latitude": 31.2586,
      "longitude": 34.2824,
      "timezone": "Asia/Gaza"
    },
    {
      "name": "",
      "name_en": "Bayt Sāḩūr",
      "province": "约旦河西岸地区",
      "latitude": 31.7009,
      "longitude": 35.2263,
      "timezone": "Asia/Hebron"
    },
    {
      "name": "",
      "name_en": "Tarqūmyā",
      "province": "约旦河西岸地区",
      "latitude": 31.5755,
      "longitude": 35.0122,
      "timezone": "Asia/Hebron"
    },
    {
      "name": "",
      "name_en": "Ya‘bad",
      "province": "约旦河西岸地区",
      "latitude": 32.4457,
      "longitude": 35.1682,
      "timezone": "Asia/Hebron"
    },
    {
      "name": "",
      "name_en": "Wādī al Jawz",
      "province": "约旦河西岸地区",
      "latitude": 31.7899,
      "longitude": 35.2366,
      "timezone": "Asia/Hebron"
    },
    {
      "name": "",
      "name_en": "Baytūnyā",
      "province": "约旦河西岸地区",
      "latitude": 31.8966,
      "longitude": 35.1705,
      "timezone": "Asia/Hebron"
    },
    {
      "name": "",
      "name_en": "Bayt Ūmmar",
      "province": "约旦河西岸地区",
      "latitude": 31.6233,
      "longitude": 35.1045,
      "timezone": "Asia/Hebron"
    },
    {
      "name": "",
      "name_en": "‘Anātā",
      "province": "约旦河西岸地区",
      "latitude": 31.8092,
      "longitude": 35.259,
      "timezone": "Asia/Hebron"
    },
    {
      "name": "",
      "name_en": "Givat Zeev",
      "province": "约旦河西岸地区",
      "latitude": 31.8615,
      "longitude": 35.1686,
      "timezone": "Asia/Hebron"
    },
    {
      "name": "",
      "name_en": "Abū Dīs",
      "province": "约旦河西岸地区",
      "latitude": 31.7621,
      "longitude": 35.2617,
      "timezone": "Asia/Hebron"
    },
    {
      "name": "",
      "name_en": "Salfīt",
      "province": "约旦河西岸地区",
      "latitude": 32.0837,
      "longitude": 35.1808,
      "timezone": "Asia/Hebron"
    },
    {
      "name": "",
      "name_en": "Al ‘Ubaydīyah",
      "province": "约旦河西岸地区",
      "latitude": 31.717,
      "longitude": 35.2901,
      "timezone": "Asia/Hebron"
    },
    {
      "name": "",
      "name_en": "Bayt Fajjār",
      "province": "约旦河西岸地区",
      "latitude": 31.6244,
      "longitude": 35.1546,
      "timezone": "Asia/Hebron"
    },
    {
      "name": "",
      "name_en": "Shūkat aş Şūfī",
      "province": "加沙地带",
      "latitude": 31.26,
      "longitude": 34.2826,
      "timezone": "Asia/Gaza"
    },
    {
      "name": "",
      "name_en": "Ţammūn",
      "province": "约旦河西岸地区",
      "latitude": 32.2835,
      "longitude": 35.3837,
      "timezone": "Asia/Hebron"
    },
    {
      "name": "",
      "name_en": "Bayt Fūrīk",
      "province": "约旦河西岸地区",
      "latitude": 32.1769,
      "longitude": 35.3354,
      "timezone": "Asia/Hebron"
    },
    {
      "name": "",
      "name_en": "‘Attīl",
      "province": "约旦河西岸地区",
      "latitude": 32.3693,
      "longitude": 35.0719,
      "timezone": "Asia/Hebron"
    },
    {
      "name": "",
      "name_en": "Efrata",
      "province": "约旦河西岸地区",
      "latitude": 31.6531,
      "longitude": 35.1501,
      "timezone": "Asia/Jerusalem"
    },
    {
      "name": "",
      "name_en": "‘Arrābah",
      "province": "约旦河西岸地区",
      "latitude": 32.4052,
      "longitude": 35.2019,
      "timezone": "Asia/Hebron"
    },
    {
      "name": "",
      "name_en": "Ad Dawḩah",
      "province": "约旦河西岸地区",
      "latitude": 31.6995,
      "longitude": 35.1805,
      "timezone": "Asia/Hebron"
    },
    {
      "name": "",
      "name_en": "Sīlat al Ḩārithīyah",
      "province": "约旦河西岸地区",
      "latitude": 32.5085,
      "longitude": 35.2275,
      "timezone": "Asia/Hebron"
    },
    {
      "name": "",
      "name_en": "Taffūḩ",
      "province": "约旦河西岸地区",
      "latitude": 31.5386,
      "longitude": 35.0497,
      "timezone": "Asia/Hebron"
    },
    {
      "name": "",
      "name_en": "Dayr al Ghuşūn",
      "province": "约旦河西岸地区",
      "latitude": 32.3524,
      "longitude": 35.0769,
      "timezone": "Asia/Hebron"
    },
    {
      "name": "",
      "name_en": "Bayt Ūlā",
      "province": "约旦河西岸地区",
      "latitude": 31.5962,
      "longitude": 35.0296,
      "timezone": "Asia/Hebron"
    },
    {
      "name": "",
      "name_en": "Khuzā‘ah",
      "province": "加沙地带",
      "latitude": 31.3068,
      "longitude": 34.3611,
      "timezone": "Asia/Gaza"
    },
    {
      "name": "",
      "name_en": "Al Khaḑir",
      "province": "约旦河西岸地区",
      "latitude": 31.6941,
      "longitude": 35.1668,
      "timezone": "Asia/Hebron"
    },
    {
      "name": "",
      "name_en": "Oranit",
      "province": "约旦河西岸地区",
      "latitude": 32.1317,
      "longitude": 34.9909,
      "timezone": "Asia/Hebron"
    },
    {
      "name": "",
      "name_en": "Baytā al Fawqā",
      "province": "约旦河西岸地区",
      "latitude": 32.1426,
      "longitude": 35.2877,
      "timezone": "Asia/Hebron"
    },
    {
      "name": "",
      "name_en": "Qaffīn",
      "province": "约旦河西岸地区",
      "latitude": 32.4327,
      "longitude": 35.0827,
      "timezone": "Asia/Hebron"
    },
    {
      "name": "",
      "name_en": "Jaba‘",
      "province": "约旦河西岸地区",
      "latitude": 32.3241,
      "longitude": 35.2213,
      "timezone": "Asia/Hebron"
    },
    {
      "name": "",
      "name_en": "Kokhav Ya‘aqov",
      "province": "约旦河西岸地区",
      "latitude": 31.881,
      "longitude": 35.2438,
      "timezone": "Asia/Jerusalem"
    },
    {
      "name": "",
      "name_en": "Dhannābah",
      "province": "约旦河西岸地区",
      "latitude": 32.3134,
      "longitude": 35.0414,
      "timezone": "Asia/Hebron"
    },
    {
      "name": "",
      "name_en": "Ash Shuyūkh",
      "province": "约旦河西岸地区",
      "latitude": 31.57,
      "longitude": 35.1561,
      "timezone": "Asia/Hebron"
    },
    {
      "name": "",
      "name_en": "Bidyā",
      "province": "约旦河西岸地区",
      "latitude": 32.1146,
      "longitude": 35.0803,
      "timezone": "Asia/Hebron"
    },
    {
      "name": "",
      "name_en": "Alfei Menasheh",
      "province": "约旦河西岸地区",
      "latitude": 32.1726,
      "longitude": 35.0118,
      "timezone": "Asia/Jerusalem"
    },
    {
      "name": "",
      "name_en": "Bayt ‘Awwā",
      "province": "约旦河西岸地区",
      "latitude": 31.5091,
      "longitude": 34.9494,
      "timezone": "Asia/Hebron"
    },
    {
      "name": "",
      "name_en": "Bayt Liqyā",
      "province": "约旦河西岸地区",
      "latitude": 31.8696,
      "longitude": 35.0654,
      "timezone": "Asia/Hebron"
    },
    {
      "name": "",
      "name_en": "‘Azzūn",
      "province": "约旦河西岸地区",
      "latitude": 32.175,
      "longitude": 35.0575,
      "timezone": "Asia/Hebron"
    },
    {
      "name": "",
      "name_en": "Qarne Shomeron",
      "province": "约旦河西岸地区",
      "latitude": 32.1667,
      "longitude": 35.0833,
      "timezone": "Asia/Jerusalem"
    },
    {
      "name": "",
      "name_en": "‘Aqrabā",
      "province": "约旦河西岸地区",
      "latitude": 32.1249,
      "longitude": 35.3455,
      "timezone": "Asia/Hebron"
    },
    {
      "name": "",
      "name_en": "‘Aşīrah ash Shamālīyah",
      "province": "约旦河西岸地区",
      "latitude": 32.2512,
      "longitude": 35.2672,
      "timezone": "Asia/Hebron"
    },
    {
      "name": "",
      "name_en": "Kafr Rā‘ī",
      "province": "约旦河西岸地区",
      "latitude": 32.374,
      "longitude": 35.1545,
      "timezone": "Asia/Hebron"
    },
    {
      "name": "",
      "name_en": "Qaţanah",
      "province": "约旦河西岸地区",
      "latitude": 31.8337,
      "longitude": 35.1189,
      "timezone": "Asia/Hebron"
    },
    {
      "name": "",
      "name_en": "‘Anabtā",
      "province": "约旦河西岸地区",
      "latitude": 32.3079,
      "longitude": 35.1169,
      "timezone": "Asia/Hebron"
    },
    {
      "name": "",
      "name_en": "Qabalān",
      "province": "约旦河西岸地区",
      "latitude": 32.1018,
      "longitude": 35.2894,
      "timezone": "Asia/Hebron"
    },
    {
      "name": "",
      "name_en": "Silwād",
      "province": "约旦河西岸地区",
      "latitude": 31.9763,
      "longitude": 35.2613,
      "timezone": "Asia/Hebron"
    },
    {
      "name": "",
      "name_en": "Khārās",
      "province": "约旦河西岸地区",
      "latitude": 31.6148,
      "longitude": 35.0417,
      "timezone": "Asia/Hebron"
    },
    {
      "name": "",
      "name_en": "Maythalūn",
      "province": "约旦河西岸地区",
      "latitude": 32.348,
      "longitude": 35.2745,
      "timezone": "Asia/Hebron"
    },
    {
      "name": "",
      "name_en": "Dayr Dibwān",
      "province": "约旦河西岸地区",
      "latitude": 31.9111,
      "longitude": 35.2666,
      "timezone": "Asia/Hebron"
    },
    {
      "name": "",
      "name_en": "‘Illār",
      "province": "约旦河西岸地区",
      "latitude": 32.3702,
      "longitude": 35.1071,
      "timezone": "Asia/Hebron"
    },
    {
      "name": "",
      "name_en": "Bal‘ā",
      "province": "约旦河西岸地区",
      "latitude": 32.3339,
      "longitude": 35.1116,
      "timezone": "Asia/Hebron"
    },
    {
      "name": "",
      "name_en": "Al Mughrāqah",
      "province": "加沙地带",
      "latitude": 31.4659,
      "longitude": 34.4121,
      "timezone": "Asia/Gaza"
    },
    {
      "name": "比尔宰特",
      "name_en": "Bīr Zayt",
      "province": "约旦河西岸地区",
      "latitude": 31.9696,
      "longitude": 35.1941,
      "timezone": "Asia/Hebron"
    },
    {
      "name": "",
      "name_en": "Naḩḩālīn",
      "province": "约旦河西岸地区",
      "latitude": 31.6856,
      "longitude": 35.1208,
      "timezone": "Asia/Hebron"
    },
    {
      "name": "",
      "name_en": "An Naşr",
      "province": "加沙地带",
      "latitude": 31.2814,
      "longitude": 34.3025,
      "timezone": "Asia/Gaza"
    },
    {
      "name": "",
      "name_en": "Za‘tarah",
      "province": "约旦河西岸地区",
      "latitude": 31.6736,
      "longitude": 35.2566,
      "timezone": "Asia/Hebron"
    },
    {
      "name": "",
      "name_en": "Biddū",
      "province": "约旦河西岸地区",
      "latitude": 31.8348,
      "longitude": 35.1495,
      "timezone": "Asia/Hebron"
    },
    {
      "name": "",
      "name_en": "Jammā‘īn",
      "province": "约旦河西岸地区",
      "latitude": 32.1316,
      "longitude": 35.204,
      "timezone": "Asia/Hebron"
    },
    {
      "name": "",
      "name_en": "Dayr Sāmit",
      "province": "约旦河西岸地区",
      "latitude": 31.5206,
      "longitude": 34.9744,
      "timezone": "Asia/Hebron"
    },
    {
      "name": "",
      "name_en": "Az Zaytūnīyah",
      "province": "约旦河西岸地区",
      "latitude": 31.954,
      "longitude": 35.1624,
      "timezone": "Asia/Hebron"
    },
    {
      "name": "",
      "name_en": "Sīlat az̧ Z̧ahr",
      "province": "约旦河西岸地区",
      "latitude": 32.3193,
      "longitude": 35.1842,
      "timezone": "Asia/Hebron"
    },
    {
      "name": "",
      "name_en": "Beit El",
      "province": "约旦河西岸地区",
      "latitude": 31.9415,
      "longitude": 35.2224,
      "timezone": "Asia/Hebron"
    },
    {
      "name": "",
      "name_en": "‘Abasān al Jadīdah",
      "province": "加沙地带",
      "latitude": 31.3416,
      "longitude": 34.3459,
      "timezone": "Asia/Gaza"
    },
    {
      "name": "",
      "name_en": "Ḩablah",
      "province": "约旦河西岸地区",
      "latitude": 32.1652,
      "longitude": 34.9775,
      "timezone": "Asia/Hebron"
    },
    {
      "name": "",
      "name_en": "Ḩizmā",
      "province": "约旦河西岸地区",
      "latitude": 31.8334,
      "longitude": 35.2632,
      "timezone": "Asia/Hebron"
    },
    {
      "name": "",
      "name_en": "Bayt Līd",
      "province": "约旦河西岸地区",
      "latitude": 32.2609,
      "longitude": 35.1317,
      "timezone": "Asia/Hebron"
    },
    {
      "name": "",
      "name_en": "Birqīn",
      "province": "约旦河西岸地区",
      "latitude": 32.4546,
      "longitude": 35.2608,
      "timezone": "Asia/Hebron"
    },
    {
      "name": "",
      "name_en": "Bayt Kāḩil",
      "province": "约旦河西岸地区",
      "latitude": 31.5701,
      "longitude": 35.065,
      "timezone": "Asia/Hebron"
    },
    {
      "name": "",
      "name_en": "Ḩuwwārah",
      "province": "约旦河西岸地区",
      "latitude": 32.1522,
      "longitude": 35.2567,
      "timezone": "Asia/Hebron"
    },
    {
      "name": "",
      "name_en": "Huwara",
      "province": "约旦河西岸地区",
      "latitude": 32.1524,
      "longitude": 35.2566,
      "timezone": "Asia/Hebron"
    },
    {
      "name": "",
      "name_en": "‘Awartā",
      "province": "约旦河西岸地区",
      "latitude": 32.1611,
      "longitude": 35.2839,
      "timezone": "Asia/Hebron"
    },
    {
      "name": "",
      "name_en": "Ḩūsān",
      "province": "约旦河西岸地区",
      "latitude": 31.7093,
      "longitude": 35.1347,
      "timezone": "Asia/Hebron"
    },
    {
      "name": "",
      "name_en": "Geva Binyamin",
      "province": "约旦河西岸地区",
      "latitude": 31.8503,
      "longitude": 35.2741,
      "timezone": "Asia/Jerusalem"
    },
    {
      "name": "",
      "name_en": "Dayr Abū Ḑa‘īf",
      "province": "约旦河西岸地区",
      "latitude": 32.456,
      "longitude": 35.3616,
      "timezone": "Asia/Hebron"
    },
    {
      "name": "",
      "name_en": "Al Fukhkhārī",
      "province": "加沙地带",
      "latitude": 31.2928,
      "longitude": 34.3306,
      "timezone": "Asia/Gaza"
    },
    {
      "name": "",
      "name_en": "Banī Zayd",
      "province": "约旦河西岸地区",
      "latitude": 32.0392,
      "longitude": 35.1032,
      "timezone": "Asia/Hebron"
    },
    {
      "name": "",
      "name_en": "Sinjil",
      "province": "约旦河西岸地区",
      "latitude": 32.0333,
      "longitude": 35.2655,
      "timezone": "Asia/Hebron"
    },
    {
      "name": "",
      "name_en": "Jannātah",
      "province": "约旦河西岸地区",
      "latitude": 31.6696,
      "longitude": 35.2196,
      "timezone": "Asia/Hebron"
    },
    {
      "name": "",
      "name_en": "Kharbathā al Mişbāḩ",
      "province": "约旦河西岸地区",
      "latitude": 31.8855,
      "longitude": 35.0718,
      "timezone": "Asia/Hebron"
    },
    {
      "name": "",
      "name_en": "Bet Arye",
      "province": "约旦河西岸地区",
      "latitude": 32.0333,
      "longitude": 35.05,
      "timezone": "Asia/Jerusalem"
    },
    {
      "name": "",
      "name_en": "Banī Zayd ash Shārqīyah",
      "province": "约旦河西岸地区",
      "latitude": 32.0493,
      "longitude": 35.1659,
      "timezone": "Asia/Hebron"
    }
  ]
}
