{
  "country_code": "RS",
  "country_name": "塞尔维亚",
  "cities": [
    {
      "name": "贝尔格莱德",
      "name_en": "Belgrade",
      "province": "Central Serbia",
      "latitude": 44.804,
      "longitude": 20.4651,
      "timezone": "Europe/Belgrade"
    },
    {
      "name": "",
      "name_en": "Niš",
      "province": "Central Serbia",
      "latitude": 43.3247,
      "longitude": 21.9033,
      "timezone": "Europe/Belgrade"
    },
    {
      "name": "诺威萨",
      "name_en": "Novi Sad",
      "province": "伏伊伏丁那",
      "latitude": 45.2517,
      "longitude": 19.8369,
      "timezone": "Europe/Belgrade"
    },
    {
      "name": "泽蒙",
      "name_en": "Zemun",
      "province": "Central Serbia",
      "latitude": 44.8458,
      "longitude": 20.4012,
      "timezone": "Europe/Belgrade"
    },
    {
      "name": "克拉古耶瓦茨",
      "name_en": "Kragujevac",
      "province": "Central Serbia",
      "latitude": 44.0167,
      "longitude": 20.9167,
      "timezone": "Europe/Belgrade"
    },
    {
      "name": "查查克",
      "name_en": "Čačak",
      "province": "Central Serbia",
      "latitude": 43.8914,
      "longitude": 20.3497,
      "timezone": "Europe/Belgrade"
    },
    {
      "name": "",
      "name_en": "Subotica",
      "province": "伏伊伏丁那",
      "latitude": 46.1,
      "longitude": 19.6667,
      "timezone": "Europe/Belgrade"
    },
    {
      "name": "莱斯科瓦茨",
      "name_en": "Leskovac",
      "province": "Central Serbia",
      "latitude": 42.9981,
      "longitude": 21.9461,
      "timezone": "Europe/Belgrade"
    },
    {
      "name": "新帕扎尔",
      "name_en": "Novi Pazar",
      "province": "Central Serbia",
      "latitude": 43.1367,
      "longitude": 20.5122,
      "timezone": "Europe/Belgrade"
    },
    {
      "name": "克拉列沃",
      "name_en": "Kraljevo",
      "province": "Central Serbia",
      "latitude": 43.7258,
      "longitude": 20.6894,
      "timezone": "Europe/Belgrade"
    },
    {
      "name": "兹雷尼亚宁",
      "name_en": "Zrenjanin",
      "province": "伏伊伏丁那",
      "latitude": 45.3836,
      "longitude": 20.3819,
      "timezone": "Europe/Belgrade"
    },
    {
      "name": "潘切沃",
      "name_en": "Pančevo",
      "province": "伏伊伏丁那",
      "latitude": 44.8718,
      "longitude": 20.6417,
      "timezone": "Europe/Belgrade"
    },
    {
      "name": "克鲁舍瓦茨",
      "name_en": "Kruševac",
      "province": "Central Serbia",
      "latitude": 43.58,
      "longitude": 21.3339,
      "timezone": "Europe/Belgrade"
    },
    {
      "name": "乌日策",
      "name_en": "Užice",
      "province": "Central Serbia",
      "latitude": 43.8586,
      "longitude": 19.8488,
      "timezone": "Europe/Belgrade"
    },
    {
      "name": "斯梅代雷沃",
      "name_en": "Smederevo",
      "province": "Central Serbia",
      "latitude": 44.6644,
      "longitude": 20.9276,
      "timezone": "Europe/Belgrade"
    },
    {
      "name": "瓦列沃",
      "name_en": "Valjevo",
      "province": "Central Serbia",
      "latitude": 44.2751,
      "longitude": 19.8982,
      "timezone": "Europe/Belgrade"
    },
    {
      "name": "弗拉涅",
      "name_en": "Vranje",
      "province": "Central Serbia",
      "latitude": 42.5514,
      "longitude": 21.9003,
      "timezone": "Europe/Belgrade"
    },
    {
      "name": "沙巴茨",
      "name_en": "Šabac",
      "province": "Central Serbia",
      "latitude": 44.7467,
      "longitude": 19.69,
      "timezone": "Europe/Belgrade"
    },
    {
      "name": "扎耶查尔",
      "name_en": "Zaječar",
      "province": "Central Serbia",
      "latitude": 43.9036,
      "longitude": 22.2641,
      "timezone": "Europe/Belgrade"
    },
    {
      "name": "特雷斯塔尼克",
      "name_en": "Trstenik",
      "province": "Central Serbia",
      "latitude": 43.6169,
      "longitude": 21.0025,
      "timezone": "Europe/Belgrade"
    },
    {
      "name": "松博尔",
      "name_en": "Sombor",
      "province": "伏伊伏丁那",
      "latitude": 45.7742,
      "longitude": 19.1122,
      "timezone": "Europe/Belgrade"
    },
    {
      "name": "基金达",
      "name_en": "Kikinda",
      "province": "伏伊伏丁那",
      "latitude": 45.8297,
      "longitude": 20.4653,
      "timezone": "Europe/Belgrade"
    },
    {
      "name": "波扎雷瓦茨",
      "name_en": "Požarevac",
      "province": "Central Serbia",
      "latitude": 44.6213,
      "longitude": 21.1878,
      "timezone": "Europe/Belgrade"
    },
    {
      "name": "皮罗特",
      "name_en": "Pirot",
      "province": "Central Serbia",
      "latitude": 43.1531,
      "longitude": 22.5861,
      "timezone": "Europe/Belgrade"
    },
    {
      "name": "博尔",
      "name_en": "Bor",
      "province": "Central Serbia",
      "latitude": 44.0749,
      "longitude": 22.0959,
      "timezone": "Europe/Belgrade"
    },
    {
      "name": "",
      "name_en": "Sremska Mitrovica",
      "province": "伏伊伏丁那",
      "latitude": 44.9764,
      "longitude": 19.6122,
      "timezone": "Europe/Belgrade"
    },
    {
      "name": "弗尔沙茨",
      "name_en": "Vršac",
      "province": "伏伊伏丁那",
      "latitude": 45.1167,
      "longitude": 21.3036,
      "timezone": "Europe/Belgrade"
    },
    {
      "name": "雅戈丁那",
      "name_en": "Jagodina",
      "province": "Central Serbia",
      "latitude": 43.9771,
      "longitude": 21.2612,
      "timezone": "Europe/Belgrade"
    },
    {
      "name": "鲁马",
      "name_en": "Ruma",
      "province": "伏伊伏丁那",
      "latitude": 45.0081,
      "longitude": 19.8222,
      "timezone": "Europe/Belgrade"
    },
    {
      "name": "巴奇卡帕兰卡",
      "name_en": "Bačka Palanka",
      "province": "伏伊伏丁那",
      "latitude": 45.2497,
      "longitude": 19.3966,
      "timezone": "Europe/Belgrade"
    },
    {
      "name": "因吉亚",
      "name_en": "Inđija",
      "province": "伏伊伏丁那",
      "latitude": 45.0482,
      "longitude": 20.0816,
      "timezone": "Europe/Belgrade"
    },
    {
      "name": "普罗库普列",
      "name_en": "Prokuplje",
      "province": "Central Serbia",
      "latitude": 43.2342,
      "longitude": 21.5881,
      "timezone": "Europe/Belgrade"
    },
    {
      "name": "斯梅代雷沃帕兰卡",
      "name_en": "Smederevska Palanka",
      "province": "Central Serbia",
      "latitude": 44.3655,
      "longitude": 20.9589,
      "timezone": "Europe/Belgrade"
    },
    {
      "name": "弗尔巴斯",
      "name_en": "Vrbas",
      "province": "伏伊伏丁那",
      "latitude": 45.5714,
      "longitude": 19.6408,
      "timezone": "Europe/Belgrade"
    },
    {
      "name": "贝切伊",
      "name_en": "Bečej",
      "province": "伏伊伏丁那",
      "latitude": 45.6163,
      "longitude": 20.0333,
      "timezone": "Europe/Belgrade"
    },
    {
      "name": "",
      "name_en": "Knjazevac",
      "province": "Central Serbia",
      "latitude": 43.5663,
      "longitude": 22.257,
      "timezone": "Europe/Belgrade"
    },
    {
      "name": "阿兰杰洛瓦茨",
      "name_en": "Aranđelovac",
      "province": "Central Serbia",
      "latitude": 44.3069,
      "longitude": 20.56,
      "timezone": "Europe/Belgrade"
    },
    {
      "name": "上米拉诺瓦茨",
      "name_en": "Gornji Milanovac",
      "province": "Central Serbia",
      "latitude": 44.026,
      "longitude": 20.4615,
      "timezone": "Europe/Belgrade"
    },
    {
      "name": "拉扎雷瓦茨",
      "name_en": "Lazarevac",
      "province": "Central Serbia",
      "latitude": 44.3853,
      "longitude": 20.2557,
      "timezone": "Europe/Belgrade"
    },
    {
      "name": "",
      "name_en": "Sremčica",
      "province": "Central Serbia",
      "latitude": 44.6765,
      "longitude": 20.3923,
      "timezone": "Europe/Belgrade"
    },
    {
      "name": "丘普里亚",
      "name_en": "Ćuprija",
      "province": "Central Serbia",
      "latitude": 43.9275,
      "longitude": 21.37,
      "timezone": "Europe/Belgrade"
    },
    {
      "name": "森塔",
      "name_en": "Senta",
      "province": "伏伊伏丁那",
      "latitude": 45.9275,
      "longitude": 20.0772,
      "timezone": "Europe/Belgrade"
    },
    {
      "name": "洛兹尼察",
      "name_en": "Loznica",
      "province": "Central Serbia",
      "latitude": 44.5312,
      "longitude": 19.2427,
      "timezone": "Europe/Belgrade"
    },
    {
      "name": "阿帕丁",
      "name_en": "Apatin",
      "province": "伏伊伏丁那",
      "latitude": 45.6726,
      "longitude": 18.978,
      "timezone": "Europe/Belgrade"
    },
    {
      "name": "富托格",
      "name_en": "Futog",
      "province": "伏伊伏丁那",
      "latitude": 45.2387,
      "longitude": 19.7142,
      "timezone": "Europe/Belgrade"
    },
    {
      "name": "内戈廷",
      "name_en": "Negotin",
      "province": "Central Serbia",
      "latitude": 44.2264,
      "longitude": 22.5308,
      "timezone": "Europe/Belgrade"
    },
    {
      "name": "奥布雷诺瓦茨",
      "name_en": "Obrenovac",
      "province": "Central Serbia",
      "latitude": 44.6549,
      "longitude": 20.2002,
      "timezone": "Europe/Belgrade"
    },
    {
      "name": "旧帕佐瓦",
      "name_en": "Stara Pazova",
      "province": "伏伊伏丁那",
      "latitude": 44.985,
      "longitude": 20.1608,
      "timezone": "Europe/Belgrade"
    },
    {
      "name": "",
      "name_en": "Bačka Topola",
      "province": "伏伊伏丁那",
      "latitude": 45.8152,
      "longitude": 19.6318,
      "timezone": "Europe/Belgrade"
    },
    {
      "name": "",
      "name_en": "Nova Pazova",
      "province": "伏伊伏丁那",
      "latitude": 44.9437,
      "longitude": 20.2193,
      "timezone": "Europe/Belgrade"
    },
    {
      "name": "科温",
      "name_en": "Kovin",
      "province": "伏伊伏丁那",
      "latitude": 44.7475,
      "longitude": 20.9761,
      "timezone": "Europe/Belgrade"
    },
    {
      "name": "斯雷姆斯卡卡梅尼察",
      "name_en": "Sremska Kamenica",
      "province": "伏伊伏丁那",
      "latitude": 45.2233,
      "longitude": 19.8426,
      "timezone": "Europe/Belgrade"
    },
    {
      "name": "彼得罗瓦拉丁",
      "name_en": "Petrovaradin",
      "province": "伏伊伏丁那",
      "latitude": 45.2467,
      "longitude": 19.8794,
      "timezone": "Europe/Belgrade"
    },
    {
      "name": "苏尔钦",
      "name_en": "Surčin",
      "province": "Central Serbia",
      "latitude": 44.7931,
      "longitude": 20.2803,
      "timezone": "Europe/Belgrade"
    },
    {
      "name": "",
      "name_en": "Kać",
      "province": "伏伊伏丁那",
      "latitude": 45.3041,
      "longitude": 19.943,
      "timezone": "Europe/Belgrade"
    },
    {
      "name": "",
      "name_en": "Ripanj",
      "province": "Central Serbia",
      "latitude": 44.6386,
      "longitude": 20.5214,
      "timezone": "Europe/Belgrade"
    },
    {
      "name": "贝拉茨尔克瓦",
      "name_en": "Bela Crkva",
      "province": "伏伊伏丁那",
      "latitude": 44.8975,
      "longitude": 21.4172,
      "timezone": "Europe/Belgrade"
    },
    {
      "name": "",
      "name_en": "Veternik",
      "province": "伏伊伏丁那",
      "latitude": 45.2545,
      "longitude": 19.7588,
      "timezone": "Europe/Belgrade"
    },
    {
      "name": "弗尔尼亚奇卡矿泉镇",
      "name_en": "Vrnjačka Banja",
      "province": "Central Serbia",
      "latitude": 43.6272,
      "longitude": 20.8963,
      "timezone": "Europe/Belgrade"
    },
    {
      "name": "卡尼扎",
      "name_en": "Kanjiža",
      "province": "伏伊伏丁那",
      "latitude": 46.0667,
      "longitude": 20.05,
      "timezone": "Europe/Belgrade"
    },
    {
      "name": "马伊丹佩克",
      "name_en": "Majdanpek",
      "province": "Central Serbia",
      "latitude": 44.4277,
      "longitude": 21.946,
      "timezone": "Europe/Belgrade"
    },
    {
      "name": "",
      "name_en": "Čurug",
      "province": "伏伊伏丁那",
      "latitude": 45.4722,
      "longitude": 20.0686,
      "timezone": "Europe/Belgrade"
    },
    {
      "name": "",
      "name_en": "Vrčin",
      "province": "Central Serbia",
      "latitude": 44.6684,
      "longitude": 20.5933,
      "timezone": "Europe/Belgrade"
    },
    {
      "name": "",
      "name_en": "Bačko Petrovo Selo",
      "province": "伏伊伏丁那",
      "latitude": 45.7068,
      "longitude": 20.0793,
      "timezone": "Europe/Belgrade"
    },
    {
      "name": "斯雷姆斯基卡尔洛夫奇",
      "name_en": "Sremski Karlovci",
      "province": "伏伊伏丁那",
      "latitude": 45.2028,
      "longitude": 19.9337,
      "timezone": "Europe/Belgrade"
    },
    {
      "name": "巴伊纳巴什塔",
      "name_en": "Bajina Bašta",
      "province": "Central Serbia",
      "latitude": 43.9708,
      "longitude": 19.5675,
      "timezone": "Europe/Belgrade"
    },
    {
      "name": "",
      "name_en": "Crvenka",
      "province": "伏伊伏丁那",
      "latitude": 45.661,
      "longitude": 19.4544,
      "timezone": "Europe/Belgrade"
    },
    {
      "name": "",
      "name_en": "Padinska Skela",
      "province": "Central Serbia",
      "latitude": 44.9429,
      "longitude": 20.4255,
      "timezone": "Europe/Belgrade"
    },
    {
      "name": "扎巴利",
      "name_en": "Žabalj",
      "province": "伏伊伏丁那",
      "latitude": 45.3722,
      "longitude": 20.0639,
      "timezone": "Europe/Belgrade"
    },
    {
      "name": "新克内热瓦茨",
      "name_en": "Novi Kneževac",
      "province": "伏伊伏丁那",
      "latitude": 46.05,
      "longitude": 20.1,
      "timezone": "Europe/Belgrade"
    },
    {
      "name": "",
      "name_en": "Mol",
      "province": "伏伊伏丁那",
      "latitude": 45.7646,
      "longitude": 20.1329,
      "timezone": "Europe/Belgrade"
    },
    {
      "name": "",
      "name_en": "Novo Miloševo",
      "province": "伏伊伏丁那",
      "latitude": 45.7192,
      "longitude": 20.3036,
      "timezone": "Europe/Belgrade"
    },
    {
      "name": "",
      "name_en": "Melenci",
      "province": "伏伊伏丁那",
      "latitude": 45.5168,
      "longitude": 20.3196,
      "timezone": "Europe/Belgrade"
    },
    {
      "name": "",
      "name_en": "Dobanovci",
      "province": "Central Serbia",
      "latitude": 44.8263,
      "longitude": 20.2249,
      "timezone": "Europe/Belgrade"
    },
    {
      "name": "",
      "name_en": "Lapovo",
      "province": "Central Serbia",
      "latitude": 44.1842,
      "longitude": 21.0973,
      "timezone": "Europe/Belgrade"
    },
    {
      "name": "科瓦契察",
      "name_en": "Kovačica",
      "province": "伏伊伏丁那",
      "latitude": 45.1117,
      "longitude": 20.6214,
      "timezone": "Europe/Belgrade"
    },
    {
      "name": "巴奇基彼得罗瓦茨",
      "name_en": "Bački Petrovac",
      "province": "伏伊伏丁那",
      "latitude": 45.3606,
      "longitude": 19.5917,
      "timezone": "Europe/Belgrade"
    },
    {
      "name": "",
      "name_en": "Bogatić",
      "province": "Central Serbia",
      "latitude": 44.8375,
      "longitude": 19.4806,
      "timezone": "Europe/Belgrade"
    },
    {
      "name": "阿里列",
      "name_en": "Arilje",
      "province": "Central Serbia",
      "latitude": 43.7531,
      "longitude": 20.0956,
      "timezone": "Europe/Belgrade"
    },
    {
      "name": "",
      "name_en": "Starčevo",
      "province": "伏伊伏丁那",
      "latitude": 44.8073,
      "longitude": 20.7055,
      "timezone": "Europe/Belgrade"
    },
    {
      "name": "",
      "name_en": "Vinča",
      "province": "Central Serbia",
      "latitude": 44.7591,
      "longitude": 20.6175,
      "timezone": "Europe/Belgrade"
    },
    {
      "name": "",
      "name_en": "Mokrin",
      "province": "伏伊伏丁那",
      "latitude": 45.9336,
      "longitude": 20.4122,
      "timezone": "Europe/Belgrade"
    },
    {
      "name": "",
      "name_en": "Debeljača",
      "province": "伏伊伏丁那",
      "latitude": 45.0707,
      "longitude": 20.6015,
      "timezone": "Europe/Belgrade"
    },
    {
      "name": "",
      "name_en": "Beška",
      "province": "伏伊伏丁那",
      "latitude": 45.1309,
      "longitude": 20.067,
      "timezone": "Europe/Belgrade"
    },
    {
      "name": "",
      "name_en": "Padina",
      "province": "伏伊伏丁那",
      "latitude": 45.1199,
      "longitude": 20.7286,
      "timezone": "Europe/Belgrade"
    },
    {
      "name": "",
      "name_en": "Banatski Karlovac",
      "province": "伏伊伏丁那",
      "latitude": 45.0499,
      "longitude": 21.018,
      "timezone": "Europe/Belgrade"
    },
    {
      "name": "蒂泰尔",
      "name_en": "Titel",
      "province": "伏伊伏丁那",
      "latitude": 45.2061,
      "longitude": 20.2944,
      "timezone": "Europe/Belgrade"
    },
    {
      "name": "",
      "name_en": "Filmski Grad",
      "province": "Central Serbia",
      "latitude": 44.7567,
      "longitude": 20.4378,
      "timezone": "Europe/Belgrade"
    },
    {
      "name": "帕拉钦",
      "name_en": "Paraćin",
      "province": "Central Serbia",
      "latitude": 43.8608,
      "longitude": 21.4078,
      "timezone": "Europe/Belgrade"
    },
    {
      "name": "",
      "name_en": "Sonta",
      "province": "伏伊伏丁那",
      "latitude": 45.5943,
      "longitude": 19.0972,
      "timezone": "Europe/Belgrade"
    },
    {
      "name": "",
      "name_en": "Badovinci",
      "province": "Central Serbia",
      "latitude": 44.7853,
      "longitude": 19.3715,
      "timezone": "Europe/Belgrade"
    },
    {
      "name": "",
      "name_en": "Bačko Gradište",
      "province": "伏伊伏丁那",
      "latitude": 45.5327,
      "longitude": 20.0308,
      "timezone": "Europe/Belgrade"
    },
    {
      "name": "乌姆卡",
      "name_en": "Umka",
      "province": "Central Serbia",
      "latitude": 44.6781,
      "longitude": 20.3047,
      "timezone": "Europe/Belgrade"
    },
    {
      "name": "帕利奇",
      "name_en": "Palić",
      "province": "伏伊伏丁那",
      "latitude": 46.1065,
      "longitude": 19.7565,
      "timezone": "Europe/Belgrade"
    },
    {
      "name": "",
      "name_en": "Stanišić",
      "province": "伏伊伏丁那",
      "latitude": 45.9389,
      "longitude": 19.1671,
      "timezone": "Europe/Belgrade"
    },
    {
      "name": "",
      "name_en": "Srpska Crnja",
      "province": "伏伊伏丁那",
      "latitude": 45.7254,
      "longitude": 20.6901,
      "timezone": "Europe/Belgrade"
    },
    {
      "name": "措卡",
      "name_en": "Čoka",
      "province": "伏伊伏丁那",
      "latitude": 45.9425,
      "longitude": 20.1433,
      "timezone": "Europe/Belgrade"
    },
    {
      "name": "",
      "name_en": "Crepaja",
      "province": "伏伊伏丁那",
      "latitude": 45.0098,
      "longitude": 20.637,
      "timezone": "Europe/Belgrade"
    },
    {
      "name": "",
      "name_en": "Zvečka",
      "province": "Central Serbia",
      "latitude": 44.6403,
      "longitude": 20.1643,
      "timezone": "Europe/Belgrade"
    },
    {
      "name": "",
      "name_en": "Ečka",
      "province": "伏伊伏丁那",
      "latitude": 45.3233,
      "longitude": 20.4429,
      "timezone": "Europe/Belgrade"
    },
    {
      "name": "",
      "name_en": "Kovilj",
      "province": "伏伊伏丁那",
      "latitude": 45.2342,
      "longitude": 20.0233,
      "timezone": "Europe/Belgrade"
    },
    {
      "name": "",
      "name_en": "Vladimirovac",
      "province": "伏伊伏丁那",
      "latitude": 45.0312,
      "longitude": 20.8657,
      "timezone": "Europe/Belgrade"
    },
    {
      "name": "",
      "name_en": "Bavanište",
      "province": "伏伊伏丁那",
      "latitude": 44.8191,
      "longitude": 20.8765,
      "timezone": "Europe/Belgrade"
    },
    {
      "name": "",
      "name_en": "Barič",
      "province": "Central Serbia",
      "latitude": 44.6507,
      "longitude": 20.2594,
      "timezone": "Europe/Belgrade"
    },
    {
      "name": "",
      "name_en": "Prigrevica",
      "province": "伏伊伏丁那",
      "latitude": 45.6764,
      "longitude": 19.0881,
      "timezone": "Europe/Belgrade"
    },
    {
      "name": "",
      "name_en": "Čelarevo",
      "province": "伏伊伏丁那",
      "latitude": 45.27,
      "longitude": 19.5248,
      "timezone": "Europe/Belgrade"
    }
  ]
}
