[
  {
    "id": "1796236",
    "nameZh": "上海",
    "nameEn": "Shanghai",
    "country": "CN",
    "countryZh": "中国",
    "admin1": "23",
    "admin1Zh": "上海市",
    "admin1En": "Shanghai",
    "timezone": "Asia/Shanghai",
    "lat": 31.22222,
    "lng": 121.45806,
    "population": 24874500
  },
  {
    "id": "1816670",
    "nameZh": "北京",
    "nameEn": "Beijing",
    "country": "CN",
    "countryZh": "中国",
    "admin1": "22",
    "admin1Zh": "北京",
    "admin1En": "Beijing",
    "timezone": "Asia/Shanghai",
    "lat": 39.9075,
    "lng": 116.39723,
    "population": 18960744
  },
  {
    "id": "1795565",
    "nameZh": "深圳",
    "nameEn": "Shenzhen",
    "country": "CN",
    "countryZh": "中国",
    "admin1": "30",
    "admin1Zh": "广东",
    "admin1En": "Guangdong",
    "timezone": "Asia/Shanghai",
    "lat": 22.54554,
    "lng": 114.0683,
    "population": 17494398
  },
  {
    "id": "1809858",
    "nameZh": "广州市",
    "nameEn": "Guangzhou",
    "country": "CN",
    "countryZh": "中国",
    "admin1": "30",
    "admin1Zh": "广东",
    "admin1En": "Guangdong",
    "timezone": "Asia/Shanghai",
    "lat": 23.11667,
    "lng": 113.25,
    "population": 16096724
  },
  {
    "id": "1815286",
    "nameZh": "成都",
    "nameEn": "Chengdu",
    "country": "CN",
    "countryZh": "中国",
    "admin1": "32",
    "admin1Zh": "四川",
    "admin1En": "Sichuan",
    "timezone": "Asia/Shanghai",
    "lat": 30.66667,
    "lng": 104.06667,
    "population": 13568357
  },
  {
    "id": "1792947",
    "nameZh": "天津",
    "nameEn": "Tianjin",
    "country": "CN",
    "countryZh": "中国",
    "admin1": "28",
    "admin1Zh": "天津",
    "admin1En": "Tianjin",
    "timezone": "Asia/Shanghai",
    "lat": 39.14222,
    "lng": 117.17667,
    "population": 11090314
  },
  {
    "id": "1791247",
    "nameZh": "武汉",
    "nameEn": "Wuhan",
    "country": "CN",
    "countryZh": "中国",
    "admin1": "12",
    "admin1Zh": "湖北",
    "admin1En": "Hubei",
    "timezone": "Asia/Shanghai",
    "lat": 30.58333,
    "lng": 114.26667,
    "population": 10392693
  },
  {
    "id": "1812545",
    "nameZh": "东莞",
    "nameEn": "Dongguan",
    "country": "CN",
    "countryZh": "中国",
    "admin1": "30",
    "admin1Zh": "广东",
    "admin1En": "Guangdong",
    "timezone": "Asia/Shanghai",
    "lat": 23.01797,
    "lng": 113.74866,
    "population": 9644871
  },
  {
    "id": "1790630",
    "nameZh": "西安",
    "nameEn": "Xi’an",
    "country": "CN",
    "countryZh": "中国",
    "admin1": "26",
    "admin1Zh": "陕西",
    "admin1En": "Shaanxi",
    "timezone": "Asia/Shanghai",
    "lat": 34.25833,
    "lng": 108.92861,
    "population": 9600000
  },
  {
    "id": "1799962",
    "nameZh": "南京",
    "nameEn": "Nanjing",
    "country": "CN",
    "countryZh": "中国",
    "admin1": "04",
    "admin1Zh": "台湾省 or 台湾省",
    "admin1En": "Taiwan",
    "timezone": "Asia/Shanghai",
    "lat": 32.06167,
    "lng": 118.77778,
    "population": 9314685
  },
  {
    "id": "1808926",
    "nameZh": "杭州",
    "nameEn": "Hangzhou",
    "country": "CN",
    "countryZh": "中国",
    "admin1": "02",
    "admin1Zh": "高雄市",
    "admin1En": "Takao",
    "timezone": "Asia/Shanghai",
    "lat": 30.29365,
    "lng": 120.16142,
    "population": 9236032
  },
  {
    "id": "1811103",
    "nameZh": "佛山",
    "nameEn": "Foshan",
    "country": "CN",
    "countryZh": "中国",
    "admin1": "30",
    "admin1Zh": "广东",
    "admin1En": "Guangdong",
    "timezone": "Asia/Shanghai",
    "lat": 23.02677,
    "lng": 113.13148,
    "population": 9042509
  },
  {
    "id": "1668341",
    "nameZh": "台北市",
    "nameEn": "Taipei",
    "country": "CN",
    "countryZh": "中国",
    "admin1": "TW",
    "admin1Zh": "台湾省",
    "admin1En": "Taiwan",
    "timezone": "Asia/Taipei",
    "lat": 25.05306,
    "lng": 121.52639,
    "population": 7871900
  },
  {
    "id": "1814906",
    "nameZh": "重庆市",
    "nameEn": "Chongqing",
    "country": "CN",
    "countryZh": "中国",
    "admin1": "33",
    "admin1Zh": "重庆市",
    "admin1En": "Chongqing",
    "timezone": "Asia/Shanghai",
    "lat": 29.56026,
    "lng": 106.55771,
    "population": 7457599
  },
  {
    "id": "1819729",
    "nameZh": "香港",
    "nameEn": "Hong Kong",
    "country": "CN",
    "countryZh": "中国",
    "admin1": "HK",
    "admin1Zh": "香港特别行政区",
    "admin1En": "Hong Kong",
    "timezone": "Asia/Hong_Kong",
    "lat": 22.27832,
    "lng": 114.17469,
    "population": 7396076
  },
  {
    "id": "1797929",
    "nameZh": "青岛市",
    "nameEn": "Qingdao",
    "country": "CN",
    "countryZh": "中国",
    "admin1": "25",
    "admin1Zh": "山东",
    "admin1En": "Shandong",
    "timezone": "Asia/Shanghai",
    "lat": 36.06488,
    "lng": 120.38042,
    "population": 7172451
  },
  {
    "id": "2034937",
    "nameZh": "沈阳市",
    "nameEn": "Shenyang",
    "country": "CN",
    "countryZh": "中国",
    "admin1": "19",
    "admin1Zh": "辽宁",
    "admin1En": "Liaoning",
    "timezone": "Asia/Shanghai",
    "lat": 41.79222,
    "lng": 123.43278,
    "population": 7050000
  },
  {
    "id": "1886760",
    "nameZh": "苏州市",
    "nameEn": "Suzhou",
    "country": "CN",
    "countryZh": "中国",
    "admin1": "04",
    "admin1Zh": "台湾省 or 台湾省",
    "admin1En": "Taiwan",
    "timezone": "Asia/Shanghai",
    "lat": 31.30408,
    "lng": 120.59538,
    "population": 6715559
  },
  {
    "id": "2037013",
    "nameZh": "哈尔滨市",
    "nameEn": "Harbin",
    "country": "CN",
    "countryZh": "中国",
    "admin1": "08",
    "admin1Zh": "黑龙江",
    "admin1En": "Heilongjiang",
    "timezone": "Asia/Shanghai",
    "lat": 45.75,
    "lng": 126.65,
    "population": 5242897
  },
  {
    "id": "1808722",
    "nameZh": "合肥",
    "nameEn": "Hefei",
    "country": "CN",
    "countryZh": "中国",
    "admin1": "01",
    "admin1Zh": "福建省",
    "admin1En": "Fukien",
    "timezone": "Asia/Shanghai",
    "lat": 31.86389,
    "lng": 117.28083,
    "population": 5050000
  },
  {
    "id": "1814087",
    "nameZh": "大连",
    "nameEn": "Dalian",
    "country": "CN",
    "countryZh": "中国",
    "admin1": "19",
    "admin1Zh": "辽宁",
    "admin1En": "Liaoning",
    "timezone": "Asia/Shanghai",
    "lat": 38.91222,
    "lng": 121.60222,
    "population": 4913879
  },
  {
    "id": "2038180",
    "nameZh": "长春",
    "nameEn": "Changchun",
    "country": "CN",
    "countryZh": "中国",
    "admin1": "05",
    "admin1Zh": "吉林",
    "admin1En": "Jilin",
    "timezone": "Asia/Shanghai",
    "lat": 43.88,
    "lng": 125.32278,
    "population": 4714996
  },
  {
    "id": "1790645",
    "nameZh": "厦门市",
    "nameEn": "Xiamen",
    "country": "CN",
    "countryZh": "中国",
    "admin1": "07",
    "admin1Zh": "福建省",
    "admin1En": "Fujian",
    "timezone": "Asia/Shanghai",
    "lat": 24.47979,
    "lng": 118.08187,
    "population": 4617251
  },
  {
    "id": "13308620",
    "nameZh": "",
    "nameEn": "Bao'an",
    "country": "CN",
    "countryZh": "中国",
    "admin1": "30",
    "admin1Zh": "广东",
    "admin1En": "Guangdong",
    "timezone": "Asia/Shanghai",
    "lat": 22.55213,
    "lng": 113.88288,
    "population": 4476554
  },
  {
    "id": "1790923",
    "nameZh": "无锡市",
    "nameEn": "Wuxi",
    "country": "CN",
    "countryZh": "中国",
    "admin1": "04",
    "admin1Zh": "台湾省 or 台湾省",
    "admin1En": "Taiwan",
    "timezone": "Asia/Shanghai",
    "lat": 31.56887,
    "lng": 120.28857,
    "population": 4396835
  },
  {
    "id": "1805753",
    "nameZh": "济南市",
    "nameEn": "Jinan",
    "country": "CN",
    "countryZh": "中国",
    "admin1": "25",
    "admin1Zh": "山东",
    "admin1En": "Shandong",
    "timezone": "Asia/Shanghai",
    "lat": 36.66833,
    "lng": 116.99722,
    "population": 4335989
  },
  {
    "id": "1793511",
    "nameZh": "太原",
    "nameEn": "Taiyuan",
    "country": "CN",
    "countryZh": "中国",
    "admin1": "24",
    "admin1Zh": "山西",
    "admin1En": "Shanxi",
    "timezone": "Asia/Shanghai",
    "lat": 37.86944,
    "lng": 112.56028,
    "population": 4303673
  },
  {
    "id": "1784658",
    "nameZh": "郑州市",
    "nameEn": "Zhengzhou",
    "country": "CN",
    "countryZh": "中国",
    "admin1": "09",
    "admin1Zh": "河南",
    "admin1En": "Henan",
    "timezone": "Asia/Shanghai",
    "lat": 34.75778,
    "lng": 113.64861,
    "population": 4253913
  },
  {
    "id": "12908892",
    "nameZh": "新北",
    "nameEn": "New Taipei City",
    "country": "CN",
    "countryZh": "中国",
    "admin1": "TW",
    "admin1Zh": "台湾省",
    "admin1En": "Taiwan",
    "timezone": "Asia/Taipei",
    "lat": 25.06199,
    "lng": 121.45703,
    "population": 4004367
  },
  {
    "id": "12747063",
    "nameZh": "新界",
    "nameEn": "New Territories",
    "country": "CN",
    "countryZh": "中国",
    "admin1": "HK",
    "admin1Zh": "香港特别行政区",
    "admin1En": "Hong Kong",
    "timezone": "Asia/Hong_Kong",
    "lat": 22.42441,
    "lng": 114.11095,
    "population": 3984077
  },
  {
    "id": "1795270",
    "nameZh": "石家庄",
    "nameEn": "Shijiazhuang",
    "country": "CN",
    "countryZh": "中国",
    "admin1": "10",
    "admin1Zh": "河北",
    "admin1En": "Hebei",
    "timezone": "Asia/Shanghai",
    "lat": 38.04139,
    "lng": 114.47861,
    "population": 3938513
  },
  {
    "id": "1804651",
    "nameZh": "昆明",
    "nameEn": "Kunming",
    "country": "CN",
    "countryZh": "中国",
    "admin1": "29",
    "admin1Zh": "云南",
    "admin1En": "Yunnan",
    "timezone": "Asia/Shanghai",
    "lat": 25.03889,
    "lng": 102.71833,
    "population": 3855346
  },
  {
    "id": "6986104",
    "nameZh": "中山",
    "nameEn": "Zhongshan",
    "country": "CN",
    "countryZh": "中国",
    "admin1": "30",
    "admin1Zh": "广东",
    "admin1En": "Guangdong",
    "timezone": "Asia/Shanghai",
    "lat": 22.52306,
    "lng": 113.37912,
    "population": 3841873
  },
  {
    "id": "1799869",
    "nameZh": "南宁市",
    "nameEn": "Nanning",
    "country": "CN",
    "countryZh": "中国",
    "admin1": "16",
    "admin1Zh": "广西",
    "admin1En": "Guangxi",
    "timezone": "Asia/Shanghai",
    "lat": 22.81667,
    "lng": 108.31667,
    "population": 3839800
  },
  {
    "id": "1795940",
    "nameZh": "汕头",
    "nameEn": "Shantou",
    "country": "CN",
    "countryZh": "中国",
    "admin1": "30",
    "admin1Zh": "广东",
    "admin1En": "Guangdong",
    "timezone": "Asia/Shanghai",
    "lat": 23.35489,
    "lng": 116.67876,
    "population": 3838900
  },
  {
    "id": "1810821",
    "nameZh": "福州市",
    "nameEn": "Fuzhou",
    "country": "CN",
    "countryZh": "中国",
    "admin1": "07",
    "admin1Zh": "福建省",
    "admin1En": "Fujian",
    "timezone": "Asia/Shanghai",
    "lat": 26.06139,
    "lng": 119.30611,
    "population": 3740000
  },
  {
    "id": "1799397",
    "nameZh": "宁波市",
    "nameEn": "Ningbo",
    "country": "CN",
    "countryZh": "中国",
    "admin1": "02",
    "admin1Zh": "高雄市",
    "admin1En": "Takao",
    "timezone": "Asia/Shanghai",
    "lat": 29.87819,
    "lng": 121.54945,
    "population": 3731203
  },
  {
    "id": "1798425",
    "nameZh": "浦阳街道",
    "nameEn": "Puyang",
    "country": "CN",
    "countryZh": "中国",
    "admin1": "02",
    "admin1Zh": "高雄市",
    "admin1En": "Takao",
    "timezone": "Asia/Shanghai",
    "lat": 29.45679,
    "lng": 119.88872,
    "population": 3590000
  },
  {
    "id": "1794903",
    "nameZh": "十堰",
    "nameEn": "Shiyan",
    "country": "CN",
    "countryZh": "中国",
    "admin1": "12",
    "admin1Zh": "湖北",
    "admin1En": "Hubei",
    "timezone": "Asia/Shanghai",
    "lat": 32.6475,
    "lng": 110.77806,
    "population": 3460000
  },
  {
    "id": "1793346",
    "nameZh": "唐山",
    "nameEn": "Tangshan",
    "country": "CN",
    "countryZh": "中国",
    "admin1": "10",
    "admin1Zh": "河北",
    "admin1En": "Hebei",
    "timezone": "Asia/Shanghai",
    "lat": 39.64381,
    "lng": 118.18319,
    "population": 3372102
  },
  {
    "id": "13512505",
    "nameZh": "吕梁市",
    "nameEn": "Lüliang",
    "country": "CN",
    "countryZh": "中国",
    "admin1": "24",
    "admin1Zh": "山西",
    "admin1En": "Shanxi",
    "timezone": "Asia/Shanghai",
    "lat": 37.5192,
    "lng": 111.14436,
    "population": 3346500
  },
  {
    "id": "1815456",
    "nameZh": "常州",
    "nameEn": "Changzhou",
    "country": "CN",
    "countryZh": "中国",
    "admin1": "04",
    "admin1Zh": "台湾省 or 台湾省",
    "admin1En": "Taiwan",
    "timezone": "Asia/Shanghai",
    "lat": 31.77359,
    "lng": 119.95401,
    "population": 3290918
  },
  {
    "id": "1785286",
    "nameZh": "淄博",
    "nameEn": "Zibo",
    "country": "CN",
    "countryZh": "中国",
    "admin1": "25",
    "admin1Zh": "山东",
    "admin1En": "Shandong",
    "timezone": "Asia/Shanghai",
    "lat": 36.79056,
    "lng": 118.06333,
    "population": 3129228
  },
  {
    "id": "1815577",
    "nameZh": "长沙",
    "nameEn": "Changsha",
    "country": "CN",
    "countryZh": "中国",
    "admin1": "11",
    "admin1Zh": "湖南",
    "admin1En": "Hunan",
    "timezone": "Asia/Shanghai",
    "lat": 28.19874,
    "lng": 112.97087,
    "population": 3093980
  },
  {
    "id": "1809461",
    "nameZh": "贵阳市",
    "nameEn": "Guiyang",
    "country": "CN",
    "countryZh": "中国",
    "admin1": "18",
    "admin1Zh": "贵州",
    "admin1En": "Guizhou",
    "timezone": "Asia/Shanghai",
    "lat": 26.58333,
    "lng": 106.71667,
    "population": 3037159
  },
  {
    "id": "1529102",
    "nameZh": "乌鲁木齐市",
    "nameEn": "Ürümqi",
    "country": "CN",
    "countryZh": "中国",
    "admin1": "13",
    "admin1Zh": "新疆",
    "admin1En": "Xinjiang",
    "timezone": "Asia/Urumqi",
    "lat": 43.80096,
    "lng": 87.60046,
    "population": 3029372
  },
  {
    "id": "1804430",
    "nameZh": "兰州市",
    "nameEn": "Lanzhou",
    "country": "CN",
    "countryZh": "中国",
    "admin1": "15",
    "admin1Zh": "甘肃",
    "admin1En": "Gansu",
    "timezone": "Asia/Shanghai",
    "lat": 36.05701,
    "lng": 103.83987,
    "population": 3000000
  },
  {
    "id": "1806776",
    "nameZh": "惠州",
    "nameEn": "Huizhou",
    "country": "CN",
    "countryZh": "中国",
    "admin1": "30",
    "admin1Zh": "广东",
    "admin1En": "Guangdong",
    "timezone": "Asia/Shanghai",
    "lat": 23.11147,
    "lng": 114.41523,
    "population": 2900113
  },
  {
    "id": "1809078",
    "nameZh": "海口",
    "nameEn": "Haikou",
    "country": "CN",
    "countryZh": "中国",
    "admin1": "31",
    "admin1Zh": "海南",
    "admin1En": "Hainan",
    "timezone": "Asia/Shanghai",
    "lat": 20.03421,
    "lng": 110.34651,
    "population": 2873358
  },
  {
    "id": "1668399",
    "nameZh": "台中市",
    "nameEn": "Taichung",
    "country": "CN",
    "countryZh": "中国",
    "admin1": "TW",
    "admin1Zh": "台湾省",
    "admin1En": "Taiwan",
    "timezone": "Asia/Taipei",
    "lat": 24.1469,
    "lng": 120.6839,
    "population": 2850285
  },
  {
    "id": "1803318",
    "nameZh": "临沂",
    "nameEn": "Linyi",
    "country": "CN",
    "countryZh": "中国",
    "admin1": "25",
    "admin1Zh": "山东",
    "admin1En": "Shandong",
    "timezone": "Asia/Shanghai",
    "lat": 35.06306,
    "lng": 118.34278,
    "population": 2743843
  },
  {
    "id": "1816971",
    "nameZh": "保定",
    "nameEn": "Baoding",
    "country": "CN",
    "countryZh": "中国",
    "admin1": "10",
    "admin1Zh": "河北",
    "admin1En": "Hebei",
    "timezone": "Asia/Shanghai",
    "lat": 38.87288,
    "lng": 115.46246,
    "population": 2739887
  },
  {
    "id": "1673820",
    "nameZh": "高雄市",
    "nameEn": "Kaohsiung",
    "country": "CN",
    "countryZh": "中国",
    "admin1": "TW",
    "admin1Zh": "台湾省",
    "admin1En": "Taiwan",
    "timezone": "Asia/Taipei",
    "lat": 22.61626,
    "lng": 120.31333,
    "population": 2737660
  },
  {
    "id": "1791388",
    "nameZh": "温州市",
    "nameEn": "Wenzhou",
    "country": "CN",
    "countryZh": "中国",
    "admin1": "02",
    "admin1Zh": "高雄市",
    "admin1En": "Takao",
    "timezone": "Asia/Shanghai",
    "lat": 27.99942,
    "lng": 120.66682,
    "population": 2650000
  },
  {
    "id": "1785725",
    "nameZh": "云浮",
    "nameEn": "Yunfu",
    "country": "CN",
    "countryZh": "中国",
    "admin1": "30",
    "admin1Zh": "广东",
    "admin1En": "Guangdong",
    "timezone": "Asia/Shanghai",
    "lat": 22.92787,
    "lng": 112.03809,
    "population": 2612800
  },
  {
    "id": "1797873",
    "nameZh": "淮安",
    "nameEn": "Huai'an",
    "country": "CN",
    "countryZh": "中国",
    "admin1": "04",
    "admin1Zh": "台湾省 or 台湾省",
    "admin1En": "Taiwan",
    "timezone": "Asia/Shanghai",
    "lat": 33.58861,
    "lng": 119.01917,
    "population": 2494013
  },
  {
    "id": "1800163",
    "nameZh": "南昌",
    "nameEn": "Nanchang",
    "country": "CN",
    "countryZh": "中国",
    "admin1": "03",
    "admin1Zh": "台北市",
    "admin1En": "Taipei",
    "timezone": "Asia/Shanghai",
    "lat": 28.68396,
    "lng": 115.85306,
    "population": 2357839
  },
  {
    "id": "2036892",
    "nameZh": "呼和浩特",
    "nameEn": "Hohhot",
    "country": "CN",
    "countryZh": "中国",
    "admin1": "20",
    "admin1Zh": "内蒙古",
    "admin1En": "Inner Mongolia",
    "timezone": "Asia/Shanghai",
    "lat": 40.81056,
    "lng": 111.65222,
    "population": 2350000
  },
  {
    "id": "1795855",
    "nameZh": "绍兴",
    "nameEn": "Shaoxing",
    "country": "CN",
    "countryZh": "中国",
    "admin1": "02",
    "admin1Zh": "高雄市",
    "admin1En": "Takao",
    "timezone": "Asia/Shanghai",
    "lat": 30.00237,
    "lng": 120.57864,
    "population": 2300000
  },
  {
    "id": "1799722",
    "nameZh": "南通",
    "nameEn": "Nantong",
    "country": "CN",
    "countryZh": "中国",
    "admin1": "04",
    "admin1Zh": "台湾省 or 台湾省",
    "admin1En": "Taiwan",
    "timezone": "Asia/Shanghai",
    "lat": 32.03028,
    "lng": 120.87472,
    "population": 2273326
  },
  {
    "id": "1819609",
    "nameZh": "九龙",
    "nameEn": "Kowloon",
    "country": "CN",
    "countryZh": "中国",
    "admin1": "HK",
    "admin1Zh": "香港特别行政区",
    "admin1En": "Hong Kong",
    "timezone": "Asia/Hong_Kong",
    "lat": 22.31667,
    "lng": 114.18333,
    "population": 2232339
  },
  {
    "id": "1787093",
    "nameZh": "烟台",
    "nameEn": "Yantai",
    "country": "CN",
    "countryZh": "中国",
    "admin1": "25",
    "admin1Zh": "山东",
    "admin1En": "Shandong",
    "timezone": "Asia/Shanghai",
    "lat": 37.47649,
    "lng": 121.44081,
    "population": 2227733
  },
  {
    "id": "1790437",
    "nameZh": "珠海",
    "nameEn": "Zhuhai",
    "country": "CN",
    "countryZh": "中国",
    "admin1": "30",
    "admin1Zh": "广东",
    "admin1En": "Guangdong",
    "timezone": "Asia/Shanghai",
    "lat": 22.27694,
    "lng": 113.56778,
    "population": 2207090
  },
  {
    "id": "2038432",
    "nameZh": "包头",
    "nameEn": "Baotou",
    "country": "CN",
    "countryZh": "中国",
    "admin1": "20",
    "admin1Zh": "内蒙古",
    "admin1En": "Inner Mongolia",
    "timezone": "Asia/Shanghai",
    "lat": 40.6516,
    "lng": 109.84389,
    "population": 2150000
  },
  {
    "id": "12359313",
    "nameZh": "庆阳市",
    "nameEn": "Qingyang",
    "country": "CN",
    "countryZh": "中国",
    "admin1": "15",
    "admin1Zh": "甘肃",
    "admin1En": "Gansu",
    "timezone": "Asia/Shanghai",
    "lat": 35.70976,
    "lng": 107.64455,
    "population": 2125400
  },
  {
    "id": "1785623",
    "nameZh": "玉山",
    "nameEn": "Kunshan",
    "country": "CN",
    "countryZh": "中国",
    "admin1": "04",
    "admin1Zh": "台湾省 or 台湾省",
    "admin1En": "Taiwan",
    "timezone": "Asia/Shanghai",
    "lat": 31.37762,
    "lng": 120.95431,
    "population": 2092496
  },
  {
    "id": "1791681",
    "nameZh": "潍坊",
    "nameEn": "Weifang",
    "country": "CN",
    "countryZh": "中国",
    "admin1": "25",
    "admin1Zh": "山东",
    "admin1En": "Shandong",
    "timezone": "Asia/Shanghai",
    "lat": 36.71,
    "lng": 119.10194,
    "population": 2044028
  },
  {
    "id": "1783621",
    "nameZh": "遵义",
    "nameEn": "Zunyi",
    "country": "CN",
    "countryZh": "中国",
    "admin1": "18",
    "admin1Zh": "贵州",
    "admin1En": "Guizhou",
    "timezone": "Asia/Shanghai",
    "lat": 27.68667,
    "lng": 106.90722,
    "population": 2037775
  },
  {
    "id": "10859300",
    "nameZh": "连云港市",
    "nameEn": "Lianyungang",
    "country": "CN",
    "countryZh": "中国",
    "admin1": "04",
    "admin1Zh": "台湾省 or 台湾省",
    "admin1En": "Taiwan",
    "timezone": "Asia/Shanghai",
    "lat": 34.59845,
    "lng": 119.21556,
    "population": 2001009
  },
  {
    "id": "1810638",
    "nameZh": "赣州",
    "nameEn": "Ganzhou",
    "country": "CN",
    "countryZh": "中国",
    "admin1": "03",
    "admin1Zh": "台北市",
    "admin1En": "Taipei",
    "timezone": "Asia/Shanghai",
    "lat": 25.84664,
    "lng": 114.9326,
    "population": 1977253
  },
  {
    "id": "8347664",
    "nameZh": "鄂尔多斯市",
    "nameEn": "Ordos",
    "country": "CN",
    "countryZh": "中国",
    "admin1": "20",
    "admin1Zh": "内蒙古",
    "admin1En": "Inner Mongolia",
    "timezone": "Asia/Shanghai",
    "lat": 39.6086,
    "lng": 109.78157,
    "population": 1940653
  },
  {
    "id": "1797121",
    "nameZh": "揭阳",
    "nameEn": "Jieyang",
    "country": "CN",
    "countryZh": "中国",
    "admin1": "30",
    "admin1Zh": "广东",
    "admin1En": "Guangdong",
    "timezone": "Asia/Shanghai",
    "lat": 23.5418,
    "lng": 116.36581,
    "population": 1899394
  },
  {
    "id": "2036502",
    "nameZh": "吉林",
    "nameEn": "Jilin",
    "country": "CN",
    "countryZh": "中国",
    "admin1": "05",
    "admin1Zh": "吉林",
    "admin1En": "Jilin",
    "timezone": "Asia/Shanghai",
    "lat": 43.84652,
    "lng": 126.5608,
    "population": 1895865
  },
  {
    "id": "1800146",
    "nameZh": "南充",
    "nameEn": "Nanchong",
    "country": "CN",
    "countryZh": "中国",
    "admin1": "32",
    "admin1Zh": "四川",
    "admin1En": "Sichuan",
    "timezone": "Asia/Shanghai",
    "lat": 30.79508,
    "lng": 106.08473,
    "population": 1858875
  },
  {
    "id": "1668355",
    "nameZh": "台南市",
    "nameEn": "Tainan",
    "country": "CN",
    "countryZh": "中国",
    "admin1": "TW",
    "admin1Zh": "台湾省",
    "admin1En": "Taiwan",
    "timezone": "Asia/Taipei",
    "lat": 22.99083,
    "lng": 120.21333,
    "population": 1856642
  },
  {
    "id": "2037799",
    "nameZh": "大同市",
    "nameEn": "Datong",
    "country": "CN",
    "countryZh": "中国",
    "admin1": "24",
    "admin1Zh": "山西",
    "admin1En": "Shanxi",
    "timezone": "Asia/Shanghai",
    "lat": 40.09361,
    "lng": 113.29139,
    "population": 1850000
  },
  {
    "id": "1799629",
    "nameZh": "南阳市",
    "nameEn": "Nanyang",
    "country": "CN",
    "countryZh": "中国",
    "admin1": "09",
    "admin1Zh": "河南",
    "admin1En": "Henan",
    "timezone": "Asia/Shanghai",
    "lat": 33.00524,
    "lng": 112.54659,
    "population": 1811812
  },
  {
    "id": "1806299",
    "nameZh": "江门",
    "nameEn": "Jiangmen",
    "country": "CN",
    "countryZh": "中国",
    "admin1": "30",
    "admin1Zh": "广东",
    "admin1En": "Guangdong",
    "timezone": "Asia/Shanghai",
    "lat": 22.58333,
    "lng": 113.08333,
    "population": 1795459
  },
  {
    "id": "1815251",
    "nameZh": "澄江",
    "nameEn": "Jiangyin",
    "country": "CN",
    "countryZh": "中国",
    "admin1": "04",
    "admin1Zh": "台湾省 or 台湾省",
    "admin1En": "Taiwan",
    "timezone": "Asia/Shanghai",
    "lat": 31.91102,
    "lng": 120.26302,
    "population": 1779515
  },
  {
    "id": "1810845",
    "nameZh": "阜阳市",
    "nameEn": "Fuyang",
    "country": "CN",
    "countryZh": "中国",
    "admin1": "01",
    "admin1Zh": "福建省",
    "admin1En": "Fukien",
    "timezone": "Asia/Shanghai",
    "lat": 32.9,
    "lng": 115.81667,
    "population": 1768947
  },
  {
    "id": "11838258",
    "nameZh": "巴彦淖尔市",
    "nameEn": "Bayan Nur",
    "country": "CN",
    "countryZh": "中国",
    "admin1": "20",
    "admin1Zh": "内蒙古",
    "admin1En": "Inner Mongolia",
    "timezone": "Asia/Shanghai",
    "lat": 40.74143,
    "lng": 107.38599,
    "population": 1760000
  },
  {
    "id": "1815395",
    "nameZh": "潮州",
    "nameEn": "Chaozhou",
    "country": "CN",
    "countryZh": "中国",
    "admin1": "30",
    "admin1Zh": "广东",
    "admin1En": "Guangdong",
    "timezone": "Asia/Shanghai",
    "lat": 23.65396,
    "lng": 116.62262,
    "population": 1750945
  },
  {
    "id": "1797945",
    "nameZh": "清远",
    "nameEn": "Qingyuan",
    "country": "CN",
    "countryZh": "中国",
    "admin1": "30",
    "admin1Zh": "广东",
    "admin1En": "Guangdong",
    "timezone": "Asia/Shanghai",
    "lat": 23.7,
    "lng": 113.03333,
    "population": 1738424
  },
  {
    "id": "1793724",
    "nameZh": "泰安市",
    "nameEn": "Tai’an",
    "country": "CN",
    "countryZh": "中国",
    "admin1": "25",
    "admin1Zh": "山东",
    "admin1En": "Shandong",
    "timezone": "Asia/Shanghai",
    "lat": 36.18528,
    "lng": 117.12,
    "population": 1735425
  },
  {
    "id": "1788852",
    "nameZh": "西宁市",
    "nameEn": "Xining",
    "country": "CN",
    "countryZh": "中国",
    "admin1": "06",
    "admin1Zh": "青海",
    "admin1En": "Qinghai",
    "timezone": "Asia/Shanghai",
    "lat": 36.62554,
    "lng": 101.75739,
    "population": 1677177
  },
  {
    "id": "7283386",
    "nameZh": "",
    "nameEn": "Changshu",
    "country": "CN",
    "countryZh": "中国",
    "admin1": "04",
    "admin1Zh": "台湾省 or 台湾省",
    "admin1En": "Taiwan",
    "timezone": "Asia/Shanghai",
    "lat": 31.64615,
    "lng": 120.74221,
    "population": 1677050
  },
  {
    "id": "1807681",
    "nameZh": "淮南市",
    "nameEn": "Huainan",
    "country": "CN",
    "countryZh": "中国",
    "admin1": "01",
    "admin1Zh": "福建省",
    "admin1En": "Fukien",
    "timezone": "Asia/Shanghai",
    "lat": 32.62639,
    "lng": 116.99694,
    "population": 1666826
  },
  {
    "id": "1793743",
    "nameZh": "宿州市",
    "nameEn": "Suzhou",
    "country": "CN",
    "countryZh": "中国",
    "admin1": "01",
    "admin1Zh": "福建省",
    "admin1En": "Fukien",
    "timezone": "Asia/Shanghai",
    "lat": 33.63611,
    "lng": 116.97889,
    "population": 1647642
  },
  {
    "id": "1802206",
    "nameZh": "六安",
    "nameEn": "Lu’an",
    "country": "CN",
    "countryZh": "中国",
    "admin1": "01",
    "admin1Zh": "福建省",
    "admin1En": "Fukien",
    "timezone": "Asia/Shanghai",
    "lat": 31.73561,
    "lng": 116.51688,
    "population": 1644344
  },
  {
    "id": "1787746",
    "nameZh": "盐城市",
    "nameEn": "Yancheng",
    "country": "CN",
    "countryZh": "中国",
    "admin1": "04",
    "admin1Zh": "台湾省 or 台湾省",
    "admin1En": "Taiwan",
    "timezone": "Asia/Shanghai",
    "lat": 33.3575,
    "lng": 120.1573,
    "population": 1615717
  },
  {
    "id": "1793505",
    "nameZh": "泰州市",
    "nameEn": "Taizhou",
    "country": "CN",
    "countryZh": "中国",
    "admin1": "04",
    "admin1Zh": "台湾省 or 台湾省",
    "admin1En": "Taiwan",
    "timezone": "Asia/Shanghai",
    "lat": 32.49069,
    "lng": 119.90812,
    "population": 1607108
  },
  {
    "id": "2037860",
    "nameZh": "大庆",
    "nameEn": "Daqing",
    "country": "CN",
    "countryZh": "中国",
    "admin1": "08",
    "admin1Zh": "黑龙江",
    "admin1En": "Heilongjiang",
    "timezone": "Asia/Shanghai",
    "lat": 46.58333,
    "lng": 125.0,
    "population": 1604027
  },
  {
    "id": "1791236",
    "nameZh": "芜湖",
    "nameEn": "Wuhu",
    "country": "CN",
    "countryZh": "中国",
    "admin1": "01",
    "admin1Zh": "福建省",
    "admin1En": "Fukien",
    "timezone": "Asia/Shanghai",
    "lat": 31.35259,
    "lng": 118.42947,
    "population": 1598165
  },
  {
    "id": "1813325",
    "nameZh": "达州",
    "nameEn": "Dazhou",
    "country": "CN",
    "countryZh": "中国",
    "admin1": "32",
    "admin1Zh": "四川",
    "admin1En": "Sichuan",
    "timezone": "Asia/Shanghai",
    "lat": 31.2106,
    "lng": 107.46308,
    "population": 1589435
  },
  {
    "id": "1787227",
    "nameZh": "扬州市",
    "nameEn": "Yangzhou",
    "country": "CN",
    "countryZh": "中国",
    "admin1": "04",
    "admin1Zh": "台湾省 or 台湾省",
    "admin1En": "Taiwan",
    "timezone": "Asia/Shanghai",
    "lat": 32.39722,
    "lng": 119.43583,
    "population": 1584237
  },
  {
    "id": "1809498",
    "nameZh": "桂林市",
    "nameEn": "Guilin",
    "country": "CN",
    "countryZh": "中国",
    "admin1": "16",
    "admin1Zh": "广西",
    "admin1En": "Guangxi",
    "timezone": "Asia/Shanghai",
    "lat": 25.28022,
    "lng": 110.29639,
    "population": 1572300
  },
  {
    "id": "1784853",
    "nameZh": "肇庆市",
    "nameEn": "Zhaoqing",
    "country": "CN",
    "countryZh": "中国",
    "admin1": "30",
    "admin1Zh": "广东",
    "admin1En": "Guangdong",
    "timezone": "Asia/Shanghai",
    "lat": 23.04893,
    "lng": 112.46091,
    "population": 1553109
  },
  {
    "id": "1800627",
    "nameZh": "绵阳",
    "nameEn": "Mianyang",
    "country": "CN",
    "countryZh": "中国",
    "admin1": "32",
    "admin1Zh": "四川",
    "admin1En": "Sichuan",
    "timezone": "Asia/Shanghai",
    "lat": 31.46784,
    "lng": 104.68168,
    "population": 1550000
  },
  {
    "id": "12358576",
    "nameZh": "万州区",
    "nameEn": "Wanzhou",
    "country": "CN",
    "countryZh": "中国",
    "admin1": "33",
    "admin1Zh": "重庆市",
    "admin1En": "Chongqing",
    "timezone": "Asia/Shanghai",
    "lat": 30.76451,
    "lng": 108.39586,
    "population": 1545900
  },
  {
    "id": "1798449",
    "nameZh": "莆田市",
    "nameEn": "Putian",
    "country": "CN",
    "countryZh": "中国",
    "admin1": "07",
    "admin1Zh": "福建省",
    "admin1En": "Fujian",
    "timezone": "Asia/Shanghai",
    "lat": 25.43944,
    "lng": 119.01028,
    "population": 1539389
  },
  {
    "id": "1783934",
    "nameZh": "商丘市",
    "nameEn": "Shangqiu",
    "country": "CN",
    "countryZh": "中国",
    "admin1": "09",
    "admin1Zh": "河南",
    "admin1En": "Henan",
    "timezone": "Asia/Shanghai",
    "lat": 34.45,
    "lng": 115.65,
    "population": 1536392
  },
  {
    "id": "1786657",
    "nameZh": "银川市",
    "nameEn": "Yinchuan",
    "country": "CN",
    "countryZh": "中国",
    "admin1": "21",
    "admin1Zh": "宁夏",
    "admin1En": "Ningxia",
    "timezone": "Asia/Shanghai",
    "lat": 38.46806,
    "lng": 106.27306,
    "population": 1487579
  },
  {
    "id": "8400694",
    "nameZh": "台州",
    "nameEn": "Taizhou",
    "country": "CN",
    "countryZh": "中国",
    "admin1": "02",
    "admin1Zh": "高雄市",
    "admin1En": "Takao",
    "timezone": "Asia/Shanghai",
    "lat": 28.66266,
    "lng": 121.43312,
    "population": 1485502
  },
  {
    "id": "1814870",
    "nameZh": "义乌",
    "nameEn": "Yiwu",
    "country": "CN",
    "countryZh": "中国",
    "admin1": "02",
    "admin1Zh": "高雄市",
    "admin1En": "Takao",
    "timezone": "Asia/Shanghai",
    "lat": 29.31506,
    "lng": 120.07676,
    "population": 1481384
  },
  {
    "id": "1797353",
    "nameZh": "泉州市",
    "nameEn": "Quanzhou",
    "country": "CN",
    "countryZh": "中国",
    "admin1": "07",
    "admin1Zh": "福建省",
    "admin1En": "Fujian",
    "timezone": "Asia/Shanghai",
    "lat": 24.91389,
    "lng": 118.58583,
    "population": 1469157
  },
  {
    "id": "1805528",
    "nameZh": "金华",
    "nameEn": "Jinhua",
    "country": "CN",
    "countryZh": "中国",
    "admin1": "02",
    "admin1Zh": "高雄市",
    "admin1En": "Takao",
    "timezone": "Asia/Shanghai",
    "lat": 29.10678,
    "lng": 119.64421,
    "population": 1463990
  },
  {
    "id": "1806602",
    "nameZh": "慈溪",
    "nameEn": "Cixi",
    "country": "CN",
    "countryZh": "中国",
    "admin1": "02",
    "admin1Zh": "高雄市",
    "admin1En": "Takao",
    "timezone": "Asia/Shanghai",
    "lat": 30.1764,
    "lng": 121.2457,
    "population": 1457510
  },
  {
    "id": "1791121",
    "nameZh": "常德",
    "nameEn": "Changde",
    "country": "CN",
    "countryZh": "中国",
    "admin1": "11",
    "admin1Zh": "湖南",
    "admin1En": "Hunan",
    "timezone": "Asia/Shanghai",
    "lat": 29.03205,
    "lng": 111.69844,
    "population": 1457419
  },
  {
    "id": "1804879",
    "nameZh": "开封",
    "nameEn": "Kaifeng",
    "country": "CN",
    "countryZh": "中国",
    "admin1": "09",
    "admin1Zh": "河南",
    "admin1En": "Henan",
    "timezone": "Asia/Shanghai",
    "lat": 34.7986,
    "lng": 114.30742,
    "population": 1451741
  },
  {
    "id": "2038632",
    "nameZh": "鞍山市",
    "nameEn": "Anshan",
    "country": "CN",
    "countryZh": "中国",
    "admin1": "19",
    "admin1Zh": "辽宁",
    "admin1En": "Liaoning",
    "timezone": "Asia/Shanghai",
    "lat": 41.12361,
    "lng": 122.99,
    "population": 1450000
  },
  {
    "id": "10942359",
    "nameZh": "宝鸡市",
    "nameEn": "Baoji",
    "country": "CN",
    "countryZh": "中国",
    "admin1": "26",
    "admin1Zh": "陕西",
    "admin1En": "Shaanxi",
    "timezone": "Asia/Shanghai",
    "lat": 34.36775,
    "lng": 107.23705,
    "population": 1437802
  },
  {
    "id": "1793771",
    "nameZh": "宿迁市",
    "nameEn": "Suqian",
    "country": "CN",
    "countryZh": "中国",
    "admin1": "04",
    "admin1Zh": "台湾省 or 台湾省",
    "admin1En": "Taiwan",
    "timezone": "Asia/Shanghai",
    "lat": 33.94917,
    "lng": 118.29583,
    "population": 1437685
  },
  {
    "id": "1803300",
    "nameZh": "柳州",
    "nameEn": "Liuzhou",
    "country": "CN",
    "countryZh": "中国",
    "admin1": "16",
    "admin1Zh": "广西",
    "admin1En": "Guangxi",
    "timezone": "Asia/Shanghai",
    "lat": 24.32405,
    "lng": 109.40698,
    "population": 1436599
  },
  {
    "id": "1787331",
    "nameZh": "张家港",
    "nameEn": "Zhangjiagang",
    "country": "CN",
    "countryZh": "中国",
    "admin1": "04",
    "admin1Zh": "台湾省 or 台湾省",
    "admin1En": "Taiwan",
    "timezone": "Asia/Shanghai",
    "lat": 31.865,
    "lng": 120.53889,
    "population": 1432044
  },
  {
    "id": "1797658",
    "nameZh": "晋江",
    "nameEn": "Jinjiang",
    "country": "CN",
    "countryZh": "中国",
    "admin1": "07",
    "admin1Zh": "福建省",
    "admin1En": "Fujian",
    "timezone": "Asia/Shanghai",
    "lat": 24.81978,
    "lng": 118.57415,
    "population": 1416151
  },
  {
    "id": "1816234",
    "nameZh": "亳州",
    "nameEn": "Bozhou",
    "country": "CN",
    "countryZh": "中国",
    "admin1": "01",
    "admin1Zh": "福建省",
    "admin1En": "Fukien",
    "timezone": "Asia/Shanghai",
    "lat": 33.87722,
    "lng": 115.77028,
    "population": 1409436
  },
  {
    "id": "1797318",
    "nameZh": "曲靖市",
    "nameEn": "Qujing",
    "country": "CN",
    "countryZh": "中国",
    "admin1": "29",
    "admin1Zh": "云南",
    "admin1En": "Yunnan",
    "timezone": "Asia/Shanghai",
    "lat": 25.48333,
    "lng": 103.78333,
    "population": 1408500
  },
  {
    "id": "1784990",
    "nameZh": "湛江",
    "nameEn": "Zhanjiang",
    "country": "CN",
    "countryZh": "中国",
    "admin1": "30",
    "admin1Zh": "广东",
    "admin1En": "Guangdong",
    "timezone": "Asia/Shanghai",
    "lat": 21.23391,
    "lng": 110.38749,
    "population": 1400709
  },
  {
    "id": "2037355",
    "nameZh": "抚顺市",
    "nameEn": "Fushun",
    "country": "CN",
    "countryZh": "中国",
    "admin1": "19",
    "admin1Zh": "辽宁",
    "admin1En": "Liaoning",
    "timezone": "Asia/Shanghai",
    "lat": 41.88669,
    "lng": 123.94363,
    "population": 1400646
  },
  {
    "id": "1801792",
    "nameZh": "洛阳",
    "nameEn": "Luoyang",
    "country": "CN",
    "countryZh": "中国",
    "admin1": "09",
    "admin1Zh": "河南",
    "admin1En": "Henan",
    "timezone": "Asia/Shanghai",
    "lat": 34.67345,
    "lng": 112.43684,
    "population": 1390581
  },
  {
    "id": "1802875",
    "nameZh": "浏阳",
    "nameEn": "Guankou",
    "country": "CN",
    "countryZh": "中国",
    "admin1": "11",
    "admin1Zh": "湖南",
    "admin1En": "Hunan",
    "timezone": "Asia/Shanghai",
    "lat": 28.15861,
    "lng": 113.62709,
    "population": 1380000
  },
  {
    "id": "1808963",
    "nameZh": "邯郸",
    "nameEn": "Handan",
    "country": "CN",
    "countryZh": "中国",
    "admin1": "10",
    "admin1Zh": "河北",
    "admin1En": "Hebei",
    "timezone": "Asia/Shanghai",
    "lat": 36.60999,
    "lng": 114.48764,
    "population": 1358318
  },
  {
    "id": "1786764",
    "nameZh": "宜昌市",
    "nameEn": "Yichang",
    "country": "CN",
    "countryZh": "中国",
    "admin1": "12",
    "admin1Zh": "湖北",
    "admin1En": "Hubei",
    "timezone": "Asia/Shanghai",
    "lat": 30.71444,
    "lng": 111.28472,
    "population": 1350150
  },
  {
    "id": "1808198",
    "nameZh": "菏泽市",
    "nameEn": "Heze",
    "country": "CN",
    "countryZh": "中国",
    "admin1": "25",
    "admin1Zh": "山东",
    "admin1En": "Shandong",
    "timezone": "Asia/Shanghai",
    "lat": 35.23929,
    "lng": 115.47358,
    "population": 1346717
  },
  {
    "id": "8533133",
    "nameZh": "六盘水市",
    "nameEn": "Liupanshui",
    "country": "CN",
    "countryZh": "中国",
    "admin1": "18",
    "admin1Zh": "贵州",
    "admin1En": "Guizhou",
    "timezone": "Asia/Shanghai",
    "lat": 26.59444,
    "lng": 104.83333,
    "population": 1320825
  },
  {
    "id": "1801180",
    "nameZh": "茂名",
    "nameEn": "Maoming",
    "country": "CN",
    "countryZh": "中国",
    "admin1": "30",
    "admin1Zh": "广东",
    "admin1En": "Guangdong",
    "timezone": "Asia/Shanghai",
    "lat": 21.66625,
    "lng": 110.91364,
    "population": 1307802
  },
  {
    "id": "1797551",
    "nameZh": "钦州",
    "nameEn": "Qinzhou",
    "country": "CN",
    "countryZh": "中国",
    "admin1": "16",
    "admin1Zh": "广西",
    "admin1En": "Guangxi",
    "timezone": "Asia/Shanghai",
    "lat": 21.98247,
    "lng": 108.65061,
    "population": 1296300
  },
  {
    "id": "1801934",
    "nameZh": "漯河",
    "nameEn": "Luohe",
    "country": "CN",
    "countryZh": "中国",
    "admin1": "09",
    "admin1Zh": "河南",
    "admin1En": "Henan",
    "timezone": "Asia/Shanghai",
    "lat": 33.56394,
    "lng": 114.04272,
    "population": 1294974
  },
  {
    "id": "1790587",
    "nameZh": "襄阳市",
    "nameEn": "Xiangyang",
    "country": "CN",
    "countryZh": "中国",
    "admin1": "12",
    "admin1Zh": "湖北",
    "admin1En": "Hubei",
    "timezone": "Asia/Shanghai",
    "lat": 32.0422,
    "lng": 112.14479,
    "population": 1294733
  },
  {
    "id": "1806408",
    "nameZh": "阳江",
    "nameEn": "Yangjiang",
    "country": "CN",
    "countryZh": "中国",
    "admin1": "30",
    "admin1Zh": "广东",
    "admin1En": "Guangdong",
    "timezone": "Asia/Shanghai",
    "lat": 21.85563,
    "lng": 111.96272,
    "population": 1292987
  },
  {
    "id": "1786760",
    "nameZh": "宜城",
    "nameEn": "Yixing",
    "country": "CN",
    "countryZh": "中国",
    "admin1": "04",
    "admin1Zh": "台湾省 or 台湾省",
    "admin1En": "Taiwan",
    "timezone": "Asia/Shanghai",
    "lat": 31.36059,
    "lng": 119.82016,
    "population": 1285785
  },
  {
    "id": "1788046",
    "nameZh": "许昌市",
    "nameEn": "Xuchang",
    "country": "CN",
    "countryZh": "中国",
    "admin1": "09",
    "admin1Zh": "河南",
    "admin1En": "Henan",
    "timezone": "Asia/Shanghai",
    "lat": 34.03189,
    "lng": 113.86299,
    "population": 1265536
  },
  {
    "id": "1783745",
    "nameZh": "自贡",
    "nameEn": "Zigong",
    "country": "CN",
    "countryZh": "中国",
    "admin1": "32",
    "admin1Zh": "四川",
    "admin1En": "Sichuan",
    "timezone": "Asia/Shanghai",
    "lat": 29.34162,
    "lng": 104.77689,
    "population": 1262064
  },
  {
    "id": "10630003",
    "nameZh": "徐州市",
    "nameEn": "Xuzhou",
    "country": "CN",
    "countryZh": "中国",
    "admin1": "04",
    "admin1Zh": "台湾省 or 台湾省",
    "admin1En": "Taiwan",
    "timezone": "Asia/Shanghai",
    "lat": 34.20442,
    "lng": 117.28386,
    "population": 1253991
  },
  {
    "id": "1799491",
    "nameZh": "内江",
    "nameEn": "Neijiang",
    "country": "CN",
    "countryZh": "中国",
    "admin1": "32",
    "admin1Zh": "四川",
    "admin1En": "Sichuan",
    "timezone": "Asia/Shanghai",
    "lat": 29.58354,
    "lng": 105.06216,
    "population": 1251095
  },
  {
    "id": "1808316",
    "nameZh": "赫山",
    "nameEn": "Heshan",
    "country": "CN",
    "countryZh": "中国",
    "admin1": "11",
    "admin1Zh": "湖南",
    "admin1En": "Hunan",
    "timezone": "Asia/Shanghai",
    "lat": 28.56938,
    "lng": 112.34733,
    "population": 1249807
  },
  {
    "id": "1805518",
    "nameZh": "济宁市",
    "nameEn": "Jining",
    "country": "CN",
    "countryZh": "中国",
    "admin1": "25",
    "admin1Zh": "山东",
    "admin1En": "Shandong",
    "timezone": "Asia/Shanghai",
    "lat": 35.405,
    "lng": 116.58139,
    "population": 1241012
  },
  {
    "id": "1788534",
    "nameZh": "信阳市",
    "nameEn": "Xinyang",
    "country": "CN",
    "countryZh": "中国",
    "admin1": "09",
    "admin1Zh": "河南",
    "admin1En": "Henan",
    "timezone": "Asia/Shanghai",
    "lat": 32.12278,
    "lng": 114.06556,
    "population": 1230042
  },
  {
    "id": "1803834",
    "nameZh": "聊城",
    "nameEn": "Liaocheng",
    "country": "CN",
    "countryZh": "中国",
    "admin1": "25",
    "admin1Zh": "山东",
    "admin1En": "Shandong",
    "timezone": "Asia/Shanghai",
    "lat": 36.45064,
    "lng": 116.00247,
    "population": 1229768
  },
  {
    "id": "10942283",
    "nameZh": "晋中市",
    "nameEn": "Jinzhong",
    "country": "CN",
    "countryZh": "中国",
    "admin1": "24",
    "admin1Zh": "山西",
    "admin1En": "Shanxi",
    "timezone": "Asia/Shanghai",
    "lat": 37.68403,
    "lng": 112.75471,
    "population": 1226617
  },
  {
    "id": "1808956",
    "nameZh": "长治",
    "nameEn": "Changzhi",
    "country": "CN",
    "countryZh": "中国",
    "admin1": "24",
    "admin1Zh": "山西",
    "admin1En": "Shanxi",
    "timezone": "Asia/Shanghai",
    "lat": 36.18389,
    "lng": 113.10528,
    "population": 1214940
  },
  {
    "id": "1792892",
    "nameZh": "天水市",
    "nameEn": "Tianshui",
    "country": "CN",
    "countryZh": "中国",
    "admin1": "15",
    "admin1Zh": "甘肃",
    "admin1En": "Gansu",
    "timezone": "Asia/Shanghai",
    "lat": 34.57952,
    "lng": 105.74238,
    "population": 1212791
  },
  {
    "id": "1791636",
    "nameZh": "渭南",
    "nameEn": "Weinan",
    "country": "CN",
    "countryZh": "中国",
    "admin1": "26",
    "admin1Zh": "陕西",
    "admin1En": "Shaanxi",
    "timezone": "Asia/Shanghai",
    "lat": 34.50355,
    "lng": 109.50891,
    "population": 1199290
  },
  {
    "id": "12747064",
    "nameZh": "香港岛",
    "nameEn": "Hong Kong Island",
    "country": "CN",
    "countryZh": "中国",
    "admin1": "HK",
    "admin1Zh": "香港特别行政区",
    "admin1En": "Hong Kong",
    "timezone": "Asia/Hong_Kong",
    "lat": 22.26302,
    "lng": 114.18419,
    "population": 1195529
  },
  {
    "id": "1805953",
    "nameZh": "嘉兴",
    "nameEn": "Jiaxing",
    "country": "CN",
    "countryZh": "中国",
    "admin1": "02",
    "admin1Zh": "高雄市",
    "admin1En": "Takao",
    "timezone": "Asia/Shanghai",
    "lat": 30.7522,
    "lng": 120.75,
    "population": 1180000
  },
  {
    "id": "1805179",
    "nameZh": "九江市",
    "nameEn": "Jiujiang",
    "country": "CN",
    "countryZh": "中国",
    "admin1": "03",
    "admin1Zh": "台北市",
    "admin1En": "Taipei",
    "timezone": "Asia/Shanghai",
    "lat": 29.70475,
    "lng": 116.00206,
    "population": 1164268
  },
  {
    "id": "1785294",
    "nameZh": "安阳市",
    "nameEn": "Anyang",
    "country": "CN",
    "countryZh": "中国",
    "admin1": "09",
    "admin1Zh": "河南",
    "admin1En": "Henan",
    "timezone": "Asia/Shanghai",
    "lat": 36.096,
    "lng": 114.38278,
    "population": 1146839
  },
  {
    "id": "13405906",
    "nameZh": "",
    "nameEn": "Luohu District",
    "country": "CN",
    "countryZh": "中国",
    "admin1": "30",
    "admin1Zh": "广东",
    "admin1En": "Guangdong",
    "timezone": "Asia/Shanghai",
    "lat": 22.54721,
    "lng": 114.13149,
    "population": 1143801
  },
  {
    "id": "1816373",
    "nameZh": "毕节",
    "nameEn": "Bijie",
    "country": "CN",
    "countryZh": "中国",
    "admin1": "18",
    "admin1Zh": "贵州",
    "admin1En": "Guizhou",
    "timezone": "Asia/Shanghai",
    "lat": 27.30193,
    "lng": 105.28627,
    "population": 1137383
  },
  {
    "id": "1783763",
    "nameZh": "株洲",
    "nameEn": "Zhuzhou",
    "country": "CN",
    "countryZh": "中国",
    "admin1": "11",
    "admin1Zh": "湖南",
    "admin1En": "Hunan",
    "timezone": "Asia/Shanghai",
    "lat": 27.83333,
    "lng": 113.15,
    "population": 1129687
  },
  {
    "id": "1787858",
    "nameZh": "上饶",
    "nameEn": "Shangrao",
    "country": "CN",
    "countryZh": "中国",
    "admin1": "03",
    "admin1Zh": "台北市",
    "admin1En": "Taipei",
    "timezone": "Asia/Shanghai",
    "lat": 28.45179,
    "lng": 117.94287,
    "population": 1116486
  },
  {
    "id": "1807700",
    "nameZh": "淮北",
    "nameEn": "Huaibei",
    "country": "CN",
    "countryZh": "中国",
    "admin1": "01",
    "admin1Zh": "福建省",
    "admin1En": "Fukien",
    "timezone": "Asia/Shanghai",
    "lat": 33.97444,
    "lng": 116.79167,
    "population": 1113321
  },
  {
    "id": "1800818",
    "nameZh": "眉山",
    "nameEn": "Meishan",
    "country": "CN",
    "countryZh": "中国",
    "admin1": "32",
    "admin1Zh": "四川",
    "admin1En": "Sichuan",
    "timezone": "Asia/Shanghai",
    "lat": 30.04392,
    "lng": 103.83696,
    "population": 1107742
  },
  {
    "id": "1810820",
    "nameZh": "抚州",
    "nameEn": "Fuzhou",
    "country": "CN",
    "countryZh": "中国",
    "admin1": "03",
    "admin1Zh": "台北市",
    "admin1En": "Taipei",
    "timezone": "Asia/Shanghai",
    "lat": 27.95999,
    "lng": 116.33333,
    "population": 1089888
  },
  {
    "id": "1809532",
    "nameZh": "贵港",
    "nameEn": "Guigang",
    "country": "CN",
    "countryZh": "中国",
    "admin1": "16",
    "admin1Zh": "广西",
    "admin1En": "Guangxi",
    "timezone": "Asia/Shanghai",
    "lat": 23.11603,
    "lng": 109.59472,
    "population": 1086327
  },
  {
    "id": "1808370",
    "nameZh": "衡阳市",
    "nameEn": "Hengyang",
    "country": "CN",
    "countryZh": "中国",
    "admin1": "11",
    "admin1Zh": "湖南",
    "admin1En": "Hunan",
    "timezone": "Asia/Shanghai",
    "lat": 26.88946,
    "lng": 112.61888,
    "population": 1075516
  },
  {
    "id": "1785781",
    "nameZh": "玉林",
    "nameEn": "Yulin",
    "country": "CN",
    "countryZh": "中国",
    "admin1": "16",
    "admin1Zh": "广西",
    "admin1En": "Guangxi",
    "timezone": "Asia/Shanghai",
    "lat": 22.6305,
    "lng": 110.14686,
    "population": 1056743
  },
  {
    "id": "1805540",
    "nameZh": "荆州市",
    "nameEn": "Jingzhou",
    "country": "CN",
    "countryZh": "中国",
    "admin1": "12",
    "admin1Zh": "湖北",
    "admin1En": "Hubei",
    "timezone": "Asia/Shanghai",
    "lat": 30.35028,
    "lng": 112.19028,
    "population": 1052282
  },
  {
    "id": "1788572",
    "nameZh": "新乡市",
    "nameEn": "Xinxiang",
    "country": "CN",
    "countryZh": "中国",
    "admin1": "09",
    "admin1Zh": "河南",
    "admin1En": "Henan",
    "timezone": "Asia/Shanghai",
    "lat": 35.19033,
    "lng": 113.80151,
    "population": 1047088
  },
  {
    "id": "1786746",
    "nameZh": "宜春",
    "nameEn": "Yichun",
    "country": "CN",
    "countryZh": "中国",
    "admin1": "03",
    "admin1Zh": "台北市",
    "admin1En": "Taipei",
    "timezone": "Asia/Shanghai",
    "lat": 27.83333,
    "lng": 114.4,
    "population": 1045952
  },
  {
    "id": "1790353",
    "nameZh": "咸阳市",
    "nameEn": "Xianyang",
    "country": "CN",
    "countryZh": "中国",
    "admin1": "26",
    "admin1Zh": "陕西",
    "admin1En": "Shaanxi",
    "timezone": "Asia/Shanghai",
    "lat": 34.33778,
    "lng": 108.70261,
    "population": 1034081
  },
  {
    "id": "1796556",
    "nameZh": "三亚",
    "nameEn": "Sanya",
    "country": "CN",
    "countryZh": "中国",
    "admin1": "31",
    "admin1Zh": "海南",
    "admin1En": "Hainan",
    "timezone": "Asia/Shanghai",
    "lat": 18.25435,
    "lng": 109.50947,
    "population": 1031396
  },
  {
    "id": "1795874",
    "nameZh": "韶关市",
    "nameEn": "Shaoguan",
    "country": "CN",
    "countryZh": "中国",
    "admin1": "30",
    "admin1Zh": "广东",
    "admin1En": "Guangdong",
    "timezone": "Asia/Shanghai",
    "lat": 24.8,
    "lng": 113.58333,
    "population": 1028460
  },
  {
    "id": "1802276",
    "nameZh": "龙岩市",
    "nameEn": "Longyan",
    "country": "CN",
    "countryZh": "中国",
    "admin1": "07",
    "admin1Zh": "福建省",
    "admin1En": "Fujian",
    "timezone": "Asia/Shanghai",
    "lat": 25.07485,
    "lng": 117.01775,
    "population": 1025087
  },
  {
    "id": "1786217",
    "nameZh": "永州",
    "nameEn": "Yongzhou",
    "country": "CN",
    "countryZh": "中国",
    "admin1": "11",
    "admin1Zh": "湖南",
    "admin1En": "Hunan",
    "timezone": "Asia/Shanghai",
    "lat": 26.42389,
    "lng": 111.61306,
    "population": 1020715
  },
  {
    "id": "1806535",
    "nameZh": "湖州",
    "nameEn": "Huzhou",
    "country": "CN",
    "countryZh": "中国",
    "admin1": "02",
    "admin1Zh": "高雄市",
    "admin1En": "Takao",
    "timezone": "Asia/Shanghai",
    "lat": 30.8703,
    "lng": 120.0933,
    "population": 1015937
  },
  {
    "id": "1803936",
    "nameZh": "武威",
    "nameEn": "Wuwei",
    "country": "CN",
    "countryZh": "中国",
    "admin1": "15",
    "admin1Zh": "甘肃",
    "admin1En": "Gansu",
    "timezone": "Asia/Shanghai",
    "lat": 37.92672,
    "lng": 102.63202,
    "population": 1010295
  },
  {
    "id": "1808857",
    "nameZh": "汉中市",
    "nameEn": "Hanzhong",
    "country": "CN",
    "countryZh": "中国",
    "admin1": "26",
    "admin1Zh": "陕西",
    "admin1En": "Shaanxi",
    "timezone": "Asia/Shanghai",
    "lat": 33.07507,
    "lng": 107.02214,
    "population": 1006557
  },
  {
    "id": "7576887",
    "nameZh": "贺州市",
    "nameEn": "Hezhou",
    "country": "CN",
    "countryZh": "中国",
    "admin1": "16",
    "admin1Zh": "广西",
    "admin1En": "Guangxi",
    "timezone": "Asia/Shanghai",
    "lat": 24.40357,
    "lng": 111.56675,
    "population": 1005490
  },
  {
    "id": "7602670",
    "nameZh": "",
    "nameEn": "Zhu Cheng City",
    "country": "CN",
    "countryZh": "中国",
    "admin1": "25",
    "admin1Zh": "山东",
    "admin1En": "Shandong",
    "timezone": "Asia/Shanghai",
    "lat": 35.99502,
    "lng": 119.40259,
    "population": 1000000
  },
  {
    "id": "1812101",
    "nameZh": "东营市",
    "nameEn": "Dongying",
    "country": "CN",
    "countryZh": "中国",
    "admin1": "25",
    "admin1Zh": "山东",
    "admin1En": "Shandong",
    "timezone": "Asia/Shanghai",
    "lat": 37.46271,
    "lng": 118.49165,
    "population": 998968
  },
  {
    "id": "1801640",
    "nameZh": "泸州",
    "nameEn": "Luzhou",
    "country": "CN",
    "countryZh": "中国",
    "admin1": "32",
    "admin1Zh": "四川",
    "admin1En": "Sichuan",
    "timezone": "Asia/Shanghai",
    "lat": 28.8903,
    "lng": 105.42575,
    "population": 998900
  },
  {
    "id": "1800779",
    "nameZh": "梅州",
    "nameEn": "Meizhou",
    "country": "CN",
    "countryZh": "中国",
    "admin1": "30",
    "admin1Zh": "广东",
    "admin1En": "Guangdong",
    "timezone": "Asia/Shanghai",
    "lat": 24.28859,
    "lng": 116.11768,
    "population": 992351
  },
  {
    "id": "1927639",
    "nameZh": "岳阳市",
    "nameEn": "Yueyang",
    "country": "CN",
    "countryZh": "中国",
    "admin1": "11",
    "admin1Zh": "湖南",
    "admin1En": "Hunan",
    "timezone": "Asia/Shanghai",
    "lat": 29.37455,
    "lng": 113.09481,
    "population": 991465
  },
  {
    "id": "1804591",
    "nameZh": "莱芜市",
    "nameEn": "Laiwu",
    "country": "CN",
    "countryZh": "中国",
    "admin1": "25",
    "admin1Zh": "山东",
    "admin1En": "Shandong",
    "timezone": "Asia/Shanghai",
    "lat": 36.19278,
    "lng": 117.65694,
    "population": 989535
  },
  {
    "id": "2038300",
    "nameZh": "本溪市",
    "nameEn": "Benxi",
    "country": "CN",
    "countryZh": "中国",
    "admin1": "19",
    "admin1Zh": "辽宁",
    "admin1En": "Liaoning",
    "timezone": "Asia/Shanghai",
    "lat": 41.28861,
    "lng": 123.765,
    "population": 987717
  },
  {
    "id": "1798827",
    "nameZh": "平顶山市",
    "nameEn": "Pingdingshan",
    "country": "CN",
    "countryZh": "中国",
    "admin1": "09",
    "admin1Zh": "河南",
    "admin1En": "Henan",
    "timezone": "Asia/Shanghai",
    "lat": 33.73091,
    "lng": 113.31554,
    "population": 979130
  },
  {
    "id": "1816440",
    "nameZh": "蚌埠",
    "nameEn": "Bengbu",
    "country": "CN",
    "countryZh": "中国",
    "admin1": "01",
    "admin1Zh": "福建省",
    "admin1En": "Fukien",
    "timezone": "Asia/Shanghai",
    "lat": 32.94083,
    "lng": 117.36083,
    "population": 972784
  },
  {
    "id": "1796823",
    "nameZh": "三河",
    "nameEn": "Sanhe",
    "country": "CN",
    "countryZh": "中国",
    "admin1": "10",
    "admin1Zh": "河北",
    "admin1En": "Hebei",
    "timezone": "Asia/Shanghai",
    "lat": 39.98049,
    "lng": 117.06887,
    "population": 965075
  },
  {
    "id": "1790492",
    "nameZh": "湘潭市",
    "nameEn": "Xiangtan",
    "country": "CN",
    "countryZh": "中国",
    "admin1": "11",
    "admin1Zh": "湖南",
    "admin1En": "Hunan",
    "timezone": "Asia/Shanghai",
    "lat": 27.85,
    "lng": 112.9,
    "population": 959303
  },
  {
    "id": "1803567",
    "nameZh": "临汾市",
    "nameEn": "Linfen",
    "country": "CN",
    "countryZh": "中国",
    "admin1": "24",
    "admin1Zh": "山西",
    "admin1En": "Shanxi",
    "timezone": "Asia/Shanghai",
    "lat": 36.08889,
    "lng": 111.51889,
    "population": 959198
  },
  {
    "id": "1931681",
    "nameZh": "",
    "nameEn": "Victoria",
    "country": "CN",
    "countryZh": "中国",
    "admin1": "HK",
    "admin1Zh": "香港特别行政区",
    "admin1En": "Hong Kong",
    "timezone": "Asia/Hong_Kong",
    "lat": 22.2875,
    "lng": 114.14417,
    "population": 956800
  },
  {
    "id": "1784642",
    "nameZh": "镇江市",
    "nameEn": "Zhenjiang",
    "country": "CN",
    "countryZh": "中国",
    "admin1": "04",
    "admin1Zh": "台湾省 or 台湾省",
    "admin1En": "Taiwan",
    "timezone": "Asia/Shanghai",
    "lat": 32.21086,
    "lng": 119.45508,
    "population": 950516
  },
  {
    "id": "2036662",
    "nameZh": "葫芦岛",
    "nameEn": "Huludao",
    "country": "CN",
    "countryZh": "中国",
    "admin1": "19",
    "admin1Zh": "辽宁",
    "admin1En": "Liaoning",
    "timezone": "Asia/Shanghai",
    "lat": 40.75243,
    "lng": 120.83552,
    "population": 944495
  },
  {
    "id": "1281673",
    "nameZh": "保山市",
    "nameEn": "Baoshan",
    "country": "CN",
    "countryZh": "中国",
    "admin1": "29",
    "admin1Zh": "云南",
    "admin1En": "Yunnan",
    "timezone": "Asia/Shanghai",
    "lat": 25.11626,
    "lng": 99.16366,
    "population": 935618
  },
  {
    "id": "1797063",
    "nameZh": "瑞安",
    "nameEn": "Rui’an",
    "country": "CN",
    "countryZh": "中国",
    "admin1": "02",
    "admin1Zh": "高雄市",
    "admin1En": "Takao",
    "timezone": "Asia/Shanghai",
    "lat": 27.77605,
    "lng": 120.65859,
    "population": 927383
  },
  {
    "id": "1804609",
    "nameZh": "来宾",
    "nameEn": "Laibin",
    "country": "CN",
    "countryZh": "中国",
    "admin1": "16",
    "admin1Zh": "广西",
    "admin1En": "Guangxi",
    "timezone": "Asia/Shanghai",
    "lat": 23.74743,
    "lng": 109.22222,
    "population": 910282
  },
  {
    "id": "1790254",
    "nameZh": "孝感市",
    "nameEn": "Xiaogan",
    "country": "CN",
    "countryZh": "中国",
    "admin1": "12",
    "admin1Zh": "湖北",
    "admin1En": "Hubei",
    "timezone": "Asia/Shanghai",
    "lat": 30.92689,
    "lng": 113.92221,
    "population": 908266
  },
  {
    "id": "1783683",
    "nameZh": "资阳市",
    "nameEn": "Ziyang",
    "country": "CN",
    "countryZh": "中国",
    "admin1": "32",
    "admin1Zh": "四川",
    "admin1En": "Sichuan",
    "timezone": "Asia/Shanghai",
    "lat": 30.12108,
    "lng": 104.64811,
    "population": 905729
  },
  {
    "id": "1797264",
    "nameZh": "衢州市",
    "nameEn": "Quzhou",
    "country": "CN",
    "countryZh": "中国",
    "admin1": "02",
    "admin1Zh": "高雄市",
    "admin1En": "Takao",
    "timezone": "Asia/Shanghai",
    "lat": 28.95944,
    "lng": 118.86861,
    "population": 902767
  },
  {
    "id": "1785453",
    "nameZh": "枣庄市",
    "nameEn": "Zaozhuang",
    "country": "CN",
    "countryZh": "中国",
    "admin1": "25",
    "admin1Zh": "山东",
    "admin1En": "Shandong",
    "timezone": "Asia/Shanghai",
    "lat": 34.86472,
    "lng": 117.55417,
    "population": 899753
  },
  {
    "id": "1798654",
    "nameZh": "萍乡",
    "nameEn": "Pingxiang",
    "country": "CN",
    "countryZh": "中国",
    "admin1": "03",
    "admin1Zh": "台北市",
    "admin1En": "Taipei",
    "timezone": "Asia/Shanghai",
    "lat": 27.61672,
    "lng": 113.85353,
    "population": 893550
  },
  {
    "id": "1886762",
    "nameZh": "舟山",
    "nameEn": "Zhoushan",
    "country": "CN",
    "countryZh": "中国",
    "admin1": "02",
    "admin1Zh": "高雄市",
    "admin1En": "Takao",
    "timezone": "Asia/Shanghai",
    "lat": 29.98869,
    "lng": 122.20488,
    "population": 882932
  },
  {
    "id": "2035265",
    "nameZh": "齐齐哈尔市",
    "nameEn": "Qiqihar",
    "country": "CN",
    "countryZh": "中国",
    "admin1": "08",
    "admin1Zh": "黑龙江",
    "admin1En": "Heilongjiang",
    "timezone": "Asia/Shanghai",
    "lat": 47.33922,
    "lng": 123.96154,
    "population": 882364
  },
  {
    "id": "1802940",
    "nameZh": "普宁",
    "nameEn": "Puning",
    "country": "CN",
    "countryZh": "中国",
    "admin1": "30",
    "admin1Zh": "广东",
    "admin1En": "Guangdong",
    "timezone": "Asia/Shanghai",
    "lat": 23.31072,
    "lng": 116.16869,
    "population": 874954
  },
  {
    "id": "1789065",
    "nameZh": "安康",
    "nameEn": "Ankang",
    "country": "CN",
    "countryZh": "中国",
    "admin1": "26",
    "admin1Zh": "陕西",
    "admin1En": "Shaanxi",
    "timezone": "Asia/Shanghai",
    "lat": 32.68,
    "lng": 109.01722,
    "population": 870126
  },
  {
    "id": "1804540",
    "nameZh": "廊坊",
    "nameEn": "Langfang",
    "country": "CN",
    "countryZh": "中国",
    "admin1": "10",
    "admin1Zh": "河北",
    "admin1En": "Hebei",
    "timezone": "Asia/Shanghai",
    "lat": 39.52079,
    "lng": 116.71471,
    "population": 868066
  },
  {
    "id": "1805987",
    "nameZh": "焦作",
    "nameEn": "Jiaozuo",
    "country": "CN",
    "countryZh": "中国",
    "admin1": "09",
    "admin1Zh": "河南",
    "admin1En": "Henan",
    "timezone": "Asia/Shanghai",
    "lat": 35.23925,
    "lng": 113.23914,
    "population": 865413
  },
  {
    "id": "1791748",
    "nameZh": "万州",
    "nameEn": "Wanxian",
    "country": "CN",
    "countryZh": "中国",
    "admin1": "33",
    "admin1Zh": "重庆市",
    "admin1En": "Chongqing",
    "timezone": "Asia/Shanghai",
    "lat": 30.81601,
    "lng": 108.37407,
    "population": 859662
  },
  {
    "id": "1799194",
    "nameZh": "广安市",
    "nameEn": "Guang’an",
    "country": "CN",
    "countryZh": "中国",
    "admin1": "32",
    "admin1Zh": "四川",
    "admin1En": "Sichuan",
    "timezone": "Asia/Shanghai",
    "lat": 30.47413,
    "lng": 106.63696,
    "population": 858159
  },
  {
    "id": "1791673",
    "nameZh": "威海",
    "nameEn": "Weihai",
    "country": "CN",
    "countryZh": "中国",
    "admin1": "25",
    "admin1Zh": "山东",
    "admin1En": "Shandong",
    "timezone": "Asia/Shanghai",
    "lat": 37.50914,
    "lng": 122.11356,
    "population": 844310
  },
  {
    "id": "1785412",
    "nameZh": "闸北",
    "nameEn": "Zhabei",
    "country": "CN",
    "countryZh": "中国",
    "admin1": "23",
    "admin1Zh": "上海市",
    "admin1En": "Shanghai",
    "timezone": "Asia/Shanghai",
    "lat": 31.25861,
    "lng": 121.45972,
    "population": 840000
  },
  {
    "id": "1788508",
    "nameZh": "新余",
    "nameEn": "Xinyu",
    "country": "CN",
    "countryZh": "中国",
    "admin1": "03",
    "admin1Zh": "台北市",
    "admin1En": "Taipei",
    "timezone": "Asia/Shanghai",
    "lat": 27.80429,
    "lng": 114.93335,
    "population": 839488
  },
  {
    "id": "1786770",
    "nameZh": "宜宾",
    "nameEn": "Yibin",
    "country": "CN",
    "countryZh": "中国",
    "admin1": "32",
    "admin1Zh": "四川",
    "admin1En": "Sichuan",
    "timezone": "Asia/Shanghai",
    "lat": 28.7593,
    "lng": 104.63994,
    "population": 836340
  },
  {
    "id": "1793703",
    "nameZh": "城厢",
    "nameEn": "Taicang",
    "country": "CN",
    "countryZh": "中国",
    "admin1": "04",
    "admin1Zh": "台湾省 or 台湾省",
    "admin1En": "Taiwan",
    "timezone": "Asia/Shanghai",
    "lat": 31.44778,
    "lng": 121.09389,
    "population": 831113
  },
  {
    "id": "1815059",
    "nameZh": "郴州",
    "nameEn": "Chenzhou",
    "country": "CN",
    "countryZh": "中国",
    "admin1": "11",
    "admin1Zh": "湖南",
    "admin1En": "Hunan",
    "timezone": "Asia/Shanghai",
    "lat": 25.8,
    "lng": 113.03333,
    "population": 822534
  },
  {
    "id": "1817993",
    "nameZh": "安庆市",
    "nameEn": "Anqing",
    "country": "CN",
    "countryZh": "中国",
    "admin1": "01",
    "admin1Zh": "福建省",
    "admin1En": "Fukien",
    "timezone": "Asia/Shanghai",
    "lat": 30.51365,
    "lng": 117.04723,
    "population": 804493
  },
  {
    "id": "1788927",
    "nameZh": "邢台",
    "nameEn": "Xingtai",
    "country": "CN",
    "countryZh": "中国",
    "admin1": "10",
    "admin1Zh": "河北",
    "admin1En": "Hebei",
    "timezone": "Asia/Shanghai",
    "lat": 37.06217,
    "lng": 114.49272,
    "population": 798770
  },
  {
    "id": "1784841",
    "nameZh": "昭通市",
    "nameEn": "Zhaotong",
    "country": "CN",
    "countryZh": "中国",
    "admin1": "29",
    "admin1Zh": "云南",
    "admin1En": "Yunnan",
    "timezone": "Asia/Shanghai",
    "lat": 27.31667,
    "lng": 103.71667,
    "population": 787845
  },
  {
    "id": "6929460",
    "nameZh": "攀枝花市",
    "nameEn": "Panzhihua",
    "country": "CN",
    "countryZh": "中国",
    "admin1": "32",
    "admin1Zh": "四川",
    "admin1En": "Sichuan",
    "timezone": "Asia/Shanghai",
    "lat": 26.58509,
    "lng": 101.71276,
    "population": 787177
  },
  {
    "id": "1814757",
    "nameZh": "滁州",
    "nameEn": "Chuzhou",
    "country": "CN",
    "countryZh": "中国",
    "admin1": "01",
    "admin1Zh": "福建省",
    "admin1En": "Fukien",
    "timezone": "Asia/Shanghai",
    "lat": 32.32194,
    "lng": 118.29778,
    "population": 782671
  },
  {
    "id": "1788081",
    "nameZh": "宣城市",
    "nameEn": "Xuancheng",
    "country": "CN",
    "countryZh": "中国",
    "admin1": "01",
    "admin1Zh": "福建省",
    "admin1En": "Fukien",
    "timezone": "Asia/Shanghai",
    "lat": 30.9525,
    "lng": 118.75528,
    "population": 774332
  },
  {
    "id": "1817720",
    "nameZh": "上虞",
    "nameEn": "Shangyu",
    "country": "CN",
    "countryZh": "中国",
    "admin1": "02",
    "admin1Zh": "高雄市",
    "admin1En": "Takao",
    "timezone": "Asia/Shanghai",
    "lat": 30.01556,
    "lng": 120.87111,
    "population": 770000
  },
  {
    "id": "1817968",
    "nameZh": "安顺市",
    "nameEn": "Anshun",
    "country": "CN",
    "countryZh": "中国",
    "admin1": "18",
    "admin1Zh": "贵州",
    "admin1En": "Guizhou",
    "timezone": "Asia/Shanghai",
    "lat": 26.25,
    "lng": 105.93333,
    "population": 765313
  },
  {
    "id": "1790840",
    "nameZh": "梧州市",
    "nameEn": "Wuzhou",
    "country": "CN",
    "countryZh": "中国",
    "admin1": "16",
    "admin1Zh": "广西",
    "admin1En": "Guangxi",
    "timezone": "Asia/Shanghai",
    "lat": 23.48054,
    "lng": 111.28848,
    "population": 761948
  },
  {
    "id": "1797595",
    "nameZh": "秦皇岛",
    "nameEn": "Qinhuangdao",
    "country": "CN",
    "countryZh": "中国",
    "admin1": "10",
    "admin1Zh": "河北",
    "admin1En": "Hebei",
    "timezone": "Asia/Shanghai",
    "lat": 39.94104,
    "lng": 119.58936,
    "population": 759718
  },
  {
    "id": "1816920",
    "nameZh": "邵阳市",
    "nameEn": "Shaoyang",
    "country": "CN",
    "countryZh": "中国",
    "admin1": "11",
    "admin1Zh": "湖南",
    "admin1En": "Hunan",
    "timezone": "Asia/Shanghai",
    "lat": 27.23818,
    "lng": 111.46214,
    "population": 753194
  },
  {
    "id": "2036986",
    "nameZh": "鹤岗",
    "nameEn": "Hegang",
    "country": "CN",
    "countryZh": "中国",
    "admin1": "08",
    "admin1Zh": "黑龙江",
    "admin1En": "Heilongjiang",
    "timezone": "Asia/Shanghai",
    "lat": 47.34727,
    "lng": 130.29033,
    "population": 743307
  },
  {
    "id": "1801620",
    "nameZh": "马鞍山",
    "nameEn": "Ma’anshan",
    "country": "CN",
    "countryZh": "中国",
    "admin1": "01",
    "admin1Zh": "福建省",
    "admin1En": "Fukien",
    "timezone": "Asia/Shanghai",
    "lat": 31.68579,
    "lng": 118.51008,
    "population": 741531
  },
  {
    "id": "12324556",
    "nameZh": "石嘴山市",
    "nameEn": "Shizuishan",
    "country": "CN",
    "countryZh": "中国",
    "admin1": "21",
    "admin1Zh": "宁夏",
    "admin1En": "Ningxia",
    "timezone": "Asia/Shanghai",
    "lat": 38.98082,
    "lng": 106.3892,
    "population": 739400
  },
  {
    "id": "1812961",
    "nameZh": "德阳市",
    "nameEn": "Deyang",
    "country": "CN",
    "countryZh": "中国",
    "admin1": "32",
    "admin1Zh": "四川",
    "admin1En": "Sichuan",
    "timezone": "Asia/Shanghai",
    "lat": 31.13019,
    "lng": 104.38198,
    "population": 735070
  },
  {
    "id": "1787351",
    "nameZh": "阳泉市",
    "nameEn": "Yangquan",
    "country": "CN",
    "countryZh": "中国",
    "admin1": "24",
    "admin1Zh": "山西",
    "admin1En": "Shanxi",
    "timezone": "Asia/Shanghai",
    "lat": 37.8575,
    "lng": 113.56333,
    "population": 731228
  },
  {
    "id": "1783873",
    "nameZh": "驻马店市",
    "nameEn": "Zhumadian",
    "country": "CN",
    "countryZh": "中国",
    "admin1": "09",
    "admin1Zh": "河南",
    "admin1En": "Henan",
    "timezone": "Asia/Shanghai",
    "lat": 32.97944,
    "lng": 114.02944,
    "population": 721670
  },
  {
    "id": "1815463",
    "nameZh": "",
    "nameEn": "Changzhi",
    "country": "CN",
    "countryZh": "中国",
    "admin1": "24",
    "admin1Zh": "山西",
    "admin1En": "Shanxi",
    "timezone": "Asia/Shanghai",
    "lat": 35.20889,
    "lng": 111.73861,
    "population": 699514
  },
  {
    "id": "2033196",
    "nameZh": "张家口市",
    "nameEn": "Zhangjiakou",
    "country": "CN",
    "countryZh": "中国",
    "admin1": "10",
    "admin1Zh": "河北",
    "admin1En": "Hebei",
    "timezone": "Asia/Shanghai",
    "lat": 40.78341,
    "lng": 114.87139,
    "population": 692602
  },
  {
    "id": "2037346",
    "nameZh": "阜新市",
    "nameEn": "Fuxin",
    "country": "CN",
    "countryZh": "中国",
    "admin1": "19",
    "admin1Zh": "辽宁",
    "admin1En": "Liaoning",
    "timezone": "Asia/Shanghai",
    "lat": 42.01556,
    "lng": 121.65889,
    "population": 689050
  },
  {
    "id": "1796989",
    "nameZh": "长沙",
    "nameEn": "Changsha",
    "country": "CN",
    "countryZh": "中国",
    "admin1": "30",
    "admin1Zh": "广东",
    "admin1En": "Guangdong",
    "timezone": "Asia/Shanghai",
    "lat": 22.38124,
    "lng": 112.68492,
    "population": 688242
  },
  {
    "id": "1807234",
    "nameZh": "黄石",
    "nameEn": "Huangshi",
    "country": "CN",
    "countryZh": "中国",
    "admin1": "12",
    "admin1Zh": "湖北",
    "admin1En": "Hubei",
    "timezone": "Asia/Shanghai",
    "lat": 30.24706,
    "lng": 115.04814,
    "population": 688090
  },
  {
    "id": "2036113",
    "nameZh": "辽阳市",
    "nameEn": "Liaoyang",
    "country": "CN",
    "countryZh": "中国",
    "admin1": "19",
    "admin1Zh": "辽宁",
    "admin1En": "Liaoning",
    "timezone": "Asia/Shanghai",
    "lat": 41.27194,
    "lng": 123.17306,
    "population": 687890
  },
  {
    "id": "1816269",
    "nameZh": "百色市",
    "nameEn": "Baise",
    "country": "CN",
    "countryZh": "中国",
    "admin1": "16",
    "admin1Zh": "广西",
    "admin1En": "Guangxi",
    "timezone": "Asia/Shanghai",
    "lat": 23.89013,
    "lng": 106.62684,
    "population": 686078
  },
  {
    "id": "1816336",
    "nameZh": "滨州市",
    "nameEn": "Binzhou",
    "country": "CN",
    "countryZh": "中国",
    "admin1": "25",
    "admin1Zh": "山东",
    "admin1En": "Shandong",
    "timezone": "Asia/Shanghai",
    "lat": 37.36667,
    "lng": 118.01667,
    "population": 682717
  },
  {
    "id": "1785738",
    "nameZh": "运城",
    "nameEn": "Yuncheng",
    "country": "CN",
    "countryZh": "中国",
    "admin1": "24",
    "admin1Zh": "山西",
    "admin1En": "Shanxi",
    "timezone": "Asia/Shanghai",
    "lat": 35.02306,
    "lng": 110.99278,
    "population": 680036
  },
  {
    "id": "1812955",
    "nameZh": "德州",
    "nameEn": "Dezhou",
    "country": "CN",
    "countryZh": "中国",
    "admin1": "25",
    "admin1Zh": "山东",
    "admin1En": "Shandong",
    "timezone": "Asia/Shanghai",
    "lat": 37.44661,
    "lng": 116.36706,
    "population": 679535
  },
  {
    "id": "1796669",
    "nameZh": "三门峡",
    "nameEn": "Sanmenxia",
    "country": "CN",
    "countryZh": "中国",
    "admin1": "09",
    "admin1Zh": "河南",
    "admin1En": "Henan",
    "timezone": "Asia/Shanghai",
    "lat": 34.78081,
    "lng": 111.19287,
    "population": 669307
  },
  {
    "id": "6642286",
    "nameZh": "鄂州市",
    "nameEn": "E’zhou",
    "country": "CN",
    "countryZh": "中国",
    "admin1": "12",
    "admin1Zh": "湖北",
    "admin1En": "Hubei",
    "timezone": "Asia/Shanghai",
    "lat": 30.39607,
    "lng": 114.88655,
    "population": 668727
  },
  {
    "id": "2035715",
    "nameZh": "牡丹江",
    "nameEn": "Mudanjiang",
    "country": "CN",
    "countryZh": "中国",
    "admin1": "08",
    "admin1Zh": "黑龙江",
    "admin1En": "Heilongjiang",
    "timezone": "Asia/Shanghai",
    "lat": 44.54804,
    "lng": 129.62594,
    "population": 665915
  },
  {
    "id": "1804153",
    "nameZh": "乐山",
    "nameEn": "Leshan",
    "country": "CN",
    "countryZh": "中国",
    "admin1": "32",
    "admin1Zh": "四川",
    "admin1En": "Sichuan",
    "timezone": "Asia/Shanghai",
    "lat": 29.56227,
    "lng": 103.76386,
    "population": 662814
  },
  {
    "id": "9072919",
    "nameZh": "日照",
    "nameEn": "Rizhao",
    "country": "CN",
    "countryZh": "中国",
    "admin1": "25",
    "admin1Zh": "山东",
    "admin1En": "Shandong",
    "timezone": "Asia/Shanghai",
    "lat": 35.41414,
    "lng": 119.52908,
    "population": 661943
  },
  {
    "id": "1793900",
    "nameZh": "遂宁",
    "nameEn": "Suining",
    "country": "CN",
    "countryZh": "中国",
    "admin1": "32",
    "admin1Zh": "四川",
    "admin1En": "Sichuan",
    "timezone": "Asia/Shanghai",
    "lat": 30.50802,
    "lng": 105.57332,
    "population": 656760
  },
  {
    "id": "9181182",
    "nameZh": "濮阳",
    "nameEn": "Puyang",
    "country": "CN",
    "countryZh": "中国",
    "admin1": "09",
    "admin1Zh": "河南",
    "admin1En": "Henan",
    "timezone": "Asia/Shanghai",
    "lat": 35.75641,
    "lng": 115.04363,
    "population": 655674
  },
  {
    "id": "1821274",
    "nameZh": "澳门",
    "nameEn": "Macau",
    "country": "CN",
    "countryZh": "中国",
    "admin1": "MO",
    "admin1Zh": "澳门特别行政区",
    "admin1En": "Macau",
    "timezone": "Asia/Macau",
    "lat": 22.20056,
    "lng": 113.54611,
    "population": 649335
  },
  {
    "id": "1808770",
    "nameZh": "鹤壁市",
    "nameEn": "Hebi",
    "country": "CN",
    "countryZh": "中国",
    "admin1": "09",
    "admin1Zh": "河南",
    "admin1En": "Henan",
    "timezone": "Asia/Shanghai",
    "lat": 35.73231,
    "lng": 114.28616,
    "population": 634721
  },
  {
    "id": "1805611",
    "nameZh": "荆门市",
    "nameEn": "Jingmen",
    "country": "CN",
    "countryZh": "中国",
    "admin1": "12",
    "admin1Zh": "湖北",
    "admin1En": "Hubei",
    "timezone": "Asia/Shanghai",
    "lat": 31.03361,
    "lng": 112.20472,
    "population": 632954
  },
  {
    "id": "2037886",
    "nameZh": "丹东市",
    "nameEn": "Dandong",
    "country": "CN",
    "countryZh": "中国",
    "admin1": "19",
    "admin1Zh": "辽宁",
    "admin1En": "Liaoning",
    "timezone": "Asia/Shanghai",
    "lat": 40.12917,
    "lng": 124.39472,
    "population": 631973
  },
  {
    "id": "2035513",
    "nameZh": "",
    "nameEn": "Panshan",
    "country": "CN",
    "countryZh": "中国",
    "admin1": "19",
    "admin1Zh": "辽宁",
    "admin1En": "Liaoning",
    "timezone": "Asia/Shanghai",
    "lat": 41.18806,
    "lng": 122.04944,
    "population": 625040
  },
  {
    "id": "1806096",
    "nameZh": "",
    "nameEn": "Jiaozhou",
    "country": "CN",
    "countryZh": "中国",
    "admin1": "25",
    "admin1Zh": "山东",
    "admin1En": "Shandong",
    "timezone": "Asia/Shanghai",
    "lat": 36.28389,
    "lng": 120.00333,
    "population": 619266
  },
  {
    "id": "1793879",
    "nameZh": "随州市",
    "nameEn": "Suizhou",
    "country": "CN",
    "countryZh": "中国",
    "admin1": "12",
    "admin1Zh": "湖北",
    "admin1En": "Hubei",
    "timezone": "Asia/Shanghai",
    "lat": 31.71111,
    "lng": 113.36306,
    "population": 618582
  },
  {
    "id": "1814934",
    "nameZh": "池州",
    "nameEn": "Chizhou",
    "country": "CN",
    "countryZh": "中国",
    "admin1": "01",
    "admin1Zh": "福建省",
    "admin1En": "Fukien",
    "timezone": "Asia/Shanghai",
    "lat": 30.66134,
    "lng": 117.47783,
    "population": 615274
  },
  {
    "id": "1787816",
    "nameZh": "雅安市",
    "nameEn": "Ya'an",
    "country": "CN",
    "countryZh": "中国",
    "admin1": "32",
    "admin1Zh": "四川",
    "admin1En": "Sichuan",
    "timezone": "Asia/Shanghai",
    "lat": 29.98521,
    "lng": 102.999,
    "population": 612056
  },
  {
    "id": "2036427",
    "nameZh": "锦州市",
    "nameEn": "Jinzhou",
    "country": "CN",
    "countryZh": "中国",
    "admin1": "19",
    "admin1Zh": "辽宁",
    "admin1En": "Liaoning",
    "timezone": "Asia/Shanghai",
    "lat": 41.10778,
    "lng": 121.14167,
    "population": 604269
  },
  {
    "id": "1796663",
    "nameZh": "三明市",
    "nameEn": "Sanming",
    "country": "CN",
    "countryZh": "中国",
    "admin1": "07",
    "admin1Zh": "福建省",
    "admin1En": "Fujian",
    "timezone": "Asia/Shanghai",
    "lat": 26.24861,
    "lng": 117.61861,
    "population": 602166
  },
  {
    "id": "2034786",
    "nameZh": "双鸭山",
    "nameEn": "Shuangyashan",
    "country": "CN",
    "countryZh": "中国",
    "admin1": "08",
    "admin1Zh": "黑龙江",
    "admin1En": "Heilongjiang",
    "timezone": "Asia/Shanghai",
    "lat": 46.67686,
    "lng": 131.13273,
    "population": 600000
  },
  {
    "id": "1802204",
    "nameZh": "栾城",
    "nameEn": "Luancheng",
    "country": "CN",
    "countryZh": "中国",
    "admin1": "10",
    "admin1Zh": "河北",
    "admin1En": "Hebei",
    "timezone": "Asia/Shanghai",
    "lat": 37.88452,
    "lng": 114.64629,
    "population": 597130
  },
  {
    "id": "13512502",
    "nameZh": "蒙自市",
    "nameEn": "Mengzi",
    "country": "CN",
    "countryZh": "中国",
    "admin1": "29",
    "admin1Zh": "云南",
    "admin1En": "Yunnan",
    "timezone": "Asia/Shanghai",
    "lat": 23.36779,
    "lng": 103.38212,
    "population": 595100
  },
  {
    "id": "2033370",
    "nameZh": "营口市",
    "nameEn": "Yingkou",
    "country": "CN",
    "countryZh": "中国",
    "admin1": "19",
    "admin1Zh": "辽宁",
    "admin1En": "Liaoning",
    "timezone": "Asia/Shanghai",
    "lat": 40.66472,
    "lng": 122.23176,
    "population": 591159
  },
  {
    "id": "1785018",
    "nameZh": "漳州市",
    "nameEn": "Zhangzhou",
    "country": "CN",
    "countryZh": "中国",
    "admin1": "07",
    "admin1Zh": "福建省",
    "admin1En": "Fujian",
    "timezone": "Asia/Shanghai",
    "lat": 24.51333,
    "lng": 117.65556,
    "population": 589831
  },
  {
    "id": "1529195",
    "nameZh": "石河子",
    "nameEn": "Shihezi",
    "country": "CN",
    "countryZh": "中国",
    "admin1": "13",
    "admin1Zh": "新疆",
    "admin1En": "Xinjiang",
    "timezone": "Asia/Urumqi",
    "lat": 44.3023,
    "lng": 86.03694,
    "population": 572772
  },
  {
    "id": "1791544",
    "nameZh": "文城",
    "nameEn": "Wenchang",
    "country": "CN",
    "countryZh": "中国",
    "admin1": "31",
    "admin1Zh": "海南",
    "admin1En": "Hainan",
    "timezone": "Asia/Shanghai",
    "lat": 19.55158,
    "lng": 110.80279,
    "population": 560894
  },
  {
    "id": "2034714",
    "nameZh": "四平市",
    "nameEn": "Siping",
    "country": "CN",
    "countryZh": "中国",
    "admin1": "05",
    "admin1Zh": "吉林",
    "admin1En": "Jilin",
    "timezone": "Asia/Shanghai",
    "lat": 43.16143,
    "lng": 124.37785,
    "population": 555609
  },
  {
    "id": "1814760",
    "nameZh": "楚雄市",
    "nameEn": "Chuxiong",
    "country": "CN",
    "countryZh": "中国",
    "admin1": "29",
    "admin1Zh": "云南",
    "admin1En": "Yunnan",
    "timezone": "Asia/Shanghai",
    "lat": 25.03639,
    "lng": 101.54556,
    "population": 555081
  },
  {
    "id": "1807689",
    "nameZh": "怀化市",
    "nameEn": "Huaihua",
    "country": "CN",
    "countryZh": "中国",
    "admin1": "11",
    "admin1Zh": "湖南",
    "admin1En": "Hunan",
    "timezone": "Asia/Shanghai",
    "lat": 27.56337,
    "lng": 110.00404,
    "population": 552622
  },
  {
    "id": "1670029",
    "nameZh": "板桥区",
    "nameEn": "Banqiao",
    "country": "CN",
    "countryZh": "中国",
    "admin1": "TW",
    "admin1Zh": "台湾省",
    "admin1En": "Taiwan",
    "timezone": "Asia/Taipei",
    "lat": 25.01427,
    "lng": 121.46719,
    "population": 551221
  },
  {
    "id": "8335361",
    "nameZh": "乌兰察布市",
    "nameEn": "Ulanqab",
    "country": "CN",
    "countryZh": "中国",
    "admin1": "20",
    "admin1Zh": "内蒙古",
    "admin1En": "Inner Mongolia",
    "timezone": "Asia/Shanghai",
    "lat": 40.993,
    "lng": 113.133,
    "population": 550231
  },
  {
    "id": "2036581",
    "nameZh": "佳木斯",
    "nameEn": "Jiamusi",
    "country": "CN",
    "countryZh": "中国",
    "admin1": "08",
    "admin1Zh": "黑龙江",
    "admin1En": "Heilongjiang",
    "timezone": "Asia/Shanghai",
    "lat": 46.79711,
    "lng": 130.31118,
    "population": 549549
  },
  {
    "id": "1529376",
    "nameZh": "库尔勒市",
    "nameEn": "Korla",
    "country": "CN",
    "countryZh": "中国",
    "admin1": "13",
    "admin1Zh": "新疆",
    "admin1En": "Xinjiang",
    "timezone": "Asia/Urumqi",
    "lat": 41.76055,
    "lng": 86.15231,
    "population": 549324
  },
  {
    "id": "1791779",
    "nameZh": "万宁市",
    "nameEn": "Wanning",
    "country": "CN",
    "countryZh": "中国",
    "admin1": "31",
    "admin1Zh": "海南",
    "admin1En": "Hainan",
    "timezone": "Asia/Shanghai",
    "lat": 18.79931,
    "lng": 110.3841,
    "population": 545992
  },
  {
    "id": "1788450",
    "nameZh": "忻州",
    "nameEn": "Xinzhou",
    "country": "CN",
    "countryZh": "中国",
    "admin1": "24",
    "admin1Zh": "山西",
    "admin1En": "Shanxi",
    "timezone": "Asia/Shanghai",
    "lat": 38.40917,
    "lng": 112.73333,
    "population": 544683
  },
  {
    "id": "1798821",
    "nameZh": "平度",
    "nameEn": "Pingdu",
    "country": "CN",
    "countryZh": "中国",
    "admin1": "25",
    "admin1Zh": "山东",
    "admin1En": "Shandong",
    "timezone": "Asia/Shanghai",
    "lat": 36.78444,
    "lng": 119.94639,
    "population": 542234
  },
  {
    "id": "1806445",
    "nameZh": "吉安",
    "nameEn": "Ji’an",
    "country": "CN",
    "countryZh": "中国",
    "admin1": "03",
    "admin1Zh": "台北市",
    "admin1En": "Taipei",
    "timezone": "Asia/Shanghai",
    "lat": 27.11716,
    "lng": 114.97927,
    "population": 538699
  },
  {
    "id": "1809412",
    "nameZh": "",
    "nameEn": "Guli",
    "country": "CN",
    "countryZh": "中国",
    "admin1": "02",
    "admin1Zh": "高雄市",
    "admin1En": "Takao",
    "timezone": "Asia/Shanghai",
    "lat": 28.88162,
    "lng": 120.03308,
    "population": 536000
  },
  {
    "id": "1529660",
    "nameZh": "阿克苏市",
    "nameEn": "Aqsu",
    "country": "CN",
    "countryZh": "中国",
    "admin1": "13",
    "admin1Zh": "新疆",
    "admin1En": "Xinjiang",
    "timezone": "Asia/Urumqi",
    "lat": 41.18418,
    "lng": 80.27921,
    "population": 535657
  },
  {
    "id": "1793424",
    "nameZh": "塘沽",
    "nameEn": "Tanggu",
    "country": "CN",
    "countryZh": "中国",
    "admin1": "28",
    "admin1Zh": "天津",
    "admin1En": "Tianjin",
    "timezone": "Asia/Shanghai",
    "lat": 39.02111,
    "lng": 117.64694,
    "population": 535298
  },
  {
    "id": "1796068",
    "nameZh": "商洛市",
    "nameEn": "Shangluo",
    "country": "CN",
    "countryZh": "中国",
    "admin1": "26",
    "admin1Zh": "陕西",
    "admin1En": "Shaanxi",
    "timezone": "Asia/Shanghai",
    "lat": 33.86667,
    "lng": 109.93056,
    "population": 531696
  },
  {
    "id": "1806488",
    "nameZh": "琼海市",
    "nameEn": "Qionghai",
    "country": "CN",
    "countryZh": "中国",
    "admin1": "31",
    "admin1Zh": "海南",
    "admin1En": "Hainan",
    "timezone": "Asia/Shanghai",
    "lat": 19.2425,
    "lng": 110.46417,
    "population": 528238
  },
  {
    "id": "1816080",
    "nameZh": "沧州市",
    "nameEn": "Cangzhou",
    "country": "CN",
    "countryZh": "中国",
    "admin1": "10",
    "admin1Zh": "河北",
    "admin1En": "Hebei",
    "timezone": "Asia/Shanghai",
    "lat": 38.31124,
    "lng": 116.85334,
    "population": 527681
  },
  {
    "id": "1816705",
    "nameZh": "北海",
    "nameEn": "Beihai",
    "country": "CN",
    "countryZh": "中国",
    "admin1": "16",
    "admin1Zh": "广西",
    "admin1En": "Guangxi",
    "timezone": "Asia/Shanghai",
    "lat": 21.48349,
    "lng": 109.11549,
    "population": 525329
  },
  {
    "id": "1808392",
    "nameZh": "衡水",
    "nameEn": "Hengshui",
    "country": "CN",
    "countryZh": "中国",
    "admin1": "10",
    "admin1Zh": "河北",
    "admin1En": "Hebei",
    "timezone": "Asia/Shanghai",
    "lat": 37.73908,
    "lng": 115.68348,
    "population": 522147
  },
  {
    "id": "1806466",
    "nameZh": "广元市",
    "nameEn": "Guangyuan",
    "country": "CN",
    "countryZh": "中国",
    "admin1": "32",
    "admin1Zh": "四川",
    "admin1En": "Sichuan",
    "timezone": "Asia/Shanghai",
    "lat": 32.44201,
    "lng": 105.823,
    "population": 516424
  },
  {
    "id": "1790396",
    "nameZh": "咸宁市",
    "nameEn": "Xianning",
    "country": "CN",
    "countryZh": "中国",
    "admin1": "12",
    "admin1Zh": "湖北",
    "admin1En": "Hubei",
    "timezone": "Asia/Shanghai",
    "lat": 29.84347,
    "lng": 114.32201,
    "population": 512517
  },
  {
    "id": "12492662",
    "nameZh": "",
    "nameEn": "Mianzhu, Deyang, Sichuan",
    "country": "CN",
    "countryZh": "中国",
    "admin1": "32",
    "admin1Zh": "四川",
    "admin1En": "Sichuan",
    "timezone": "Asia/Shanghai",
    "lat": 31.33786,
    "lng": 104.22057,
    "population": 510000
  },
  {
    "id": "2034414",
    "nameZh": "通化市",
    "nameEn": "Tonghua",
    "country": "CN",
    "countryZh": "中国",
    "admin1": "05",
    "admin1Zh": "吉林",
    "admin1En": "Jilin",
    "timezone": "Asia/Shanghai",
    "lat": 41.71972,
    "lng": 125.92639,
    "population": 510000
  },
  {
    "id": "1909733",
    "nameZh": "龙洲湾",
    "nameEn": "Banan",
    "country": "CN",
    "countryZh": "中国",
    "admin1": "33",
    "admin1Zh": "重庆市",
    "admin1En": "Chongqing",
    "timezone": "Asia/Shanghai",
    "lat": 29.37861,
    "lng": 106.54,
    "population": 508703
  },
  {
    "id": "1818446",
    "nameZh": "屯门",
    "nameEn": "Tuen Mun",
    "country": "CN",
    "countryZh": "中国",
    "admin1": "HK",
    "admin1Zh": "香港特别行政区",
    "admin1En": "Hong Kong",
    "timezone": "Asia/Hong_Kong",
    "lat": 22.39175,
    "lng": 113.97157,
    "population": 507900
  },
  {
    "id": "1785036",
    "nameZh": "张掖",
    "nameEn": "Zhangye",
    "country": "CN",
    "countryZh": "中国",
    "admin1": "15",
    "admin1Zh": "甘肃",
    "admin1En": "Gansu",
    "timezone": "Asia/Shanghai",
    "lat": 38.93417,
    "lng": 100.45167,
    "population": 507433
  },
  {
    "id": "1280849",
    "nameZh": "喀什",
    "nameEn": "Kashgar",
    "country": "CN",
    "countryZh": "中国",
    "admin1": "13",
    "admin1Zh": "新疆",
    "admin1En": "Xinjiang",
    "timezone": "Asia/Urumqi",
    "lat": 39.46718,
    "lng": 75.98675,
    "population": 506640
  },
  {
    "id": "1784130",
    "nameZh": "周口",
    "nameEn": "Zhoukou",
    "country": "CN",
    "countryZh": "中国",
    "admin1": "09",
    "admin1Zh": "河南",
    "admin1En": "Henan",
    "timezone": "Asia/Shanghai",
    "lat": 33.63333,
    "lng": 114.63333,
    "population": 505171
  },
  {
    "id": "1798760",
    "nameZh": "平凉",
    "nameEn": "Pingliang",
    "country": "CN",
    "countryZh": "中国",
    "admin1": "15",
    "admin1Zh": "甘肃",
    "admin1En": "Gansu",
    "timezone": "Asia/Shanghai",
    "lat": 35.53917,
    "lng": 106.68611,
    "population": 504848
  },
  {
    "id": "1783988",
    "nameZh": "密州",
    "nameEn": "Zhucheng",
    "country": "CN",
    "countryZh": "中国",
    "admin1": "25",
    "admin1Zh": "山东",
    "admin1En": "Shandong",
    "timezone": "Asia/Shanghai",
    "lat": 35.99472,
    "lng": 119.3975,
    "population": 499285
  },
  {
    "id": "1802238",
    "nameZh": "娄底市",
    "nameEn": "Loudi",
    "country": "CN",
    "countryZh": "中国",
    "admin1": "11",
    "admin1Zh": "湖南",
    "admin1En": "Hunan",
    "timezone": "Asia/Shanghai",
    "lat": 27.73444,
    "lng": 111.99444,
    "population": 497171
  },
  {
    "id": "1818920",
    "nameZh": "沙田",
    "nameEn": "Sha Tin",
    "country": "CN",
    "countryZh": "中国",
    "admin1": "HK",
    "admin1Zh": "香港特别行政区",
    "admin1En": "Hong Kong",
    "timezone": "Asia/Hong_Kong",
    "lat": 22.38333,
    "lng": 114.18333,
    "population": 495200
  },
  {
    "id": "1795928",
    "nameZh": "汕尾",
    "nameEn": "Shanwei",
    "country": "CN",
    "countryZh": "中国",
    "admin1": "30",
    "admin1Zh": "广东",
    "admin1En": "Guangdong",
    "timezone": "Asia/Shanghai",
    "lat": 22.78199,
    "lng": 115.3475,
    "population": 491766
  },
  {
    "id": "9931406",
    "nameZh": "碱水",
    "nameEn": "Jianshui",
    "country": "CN",
    "countryZh": "中国",
    "admin1": "29",
    "admin1Zh": "云南",
    "admin1En": "Yunnan",
    "timezone": "Asia/Shanghai",
    "lat": 24.2774,
    "lng": 101.224,
    "population": 490000
  },
  {
    "id": "1789647",
    "nameZh": "西昌",
    "nameEn": "Xichang",
    "country": "CN",
    "countryZh": "中国",
    "admin1": "32",
    "admin1Zh": "四川",
    "admin1En": "Sichuan",
    "timezone": "Asia/Shanghai",
    "lat": 27.89642,
    "lng": 102.26341,
    "population": 481796
  },
  {
    "id": "13527052",
    "nameZh": "",
    "nameEn": "Chéngguān Qū",
    "country": "CN",
    "countryZh": "中国",
    "admin1": "14",
    "admin1Zh": "西藏自治区",
    "admin1En": "Tibet",
    "timezone": "Asia/Shanghai",
    "lat": 29.63842,
    "lng": 91.04441,
    "population": 478275
  },
  {
    "id": "1805741",
    "nameZh": "晋城",
    "nameEn": "Jincheng",
    "country": "CN",
    "countryZh": "中国",
    "admin1": "24",
    "admin1Zh": "山西",
    "admin1En": "Shanxi",
    "timezone": "Asia/Shanghai",
    "lat": 35.50222,
    "lng": 112.83278,
    "population": 476945
  },
  {
    "id": "1667905",
    "nameZh": "桃园区",
    "nameEn": "Taoyuan",
    "country": "CN",
    "countryZh": "中国",
    "admin1": "TW",
    "admin1Zh": "台湾省",
    "admin1En": "Taiwan",
    "timezone": "Asia/Taipei",
    "lat": 24.9896,
    "lng": 121.3187,
    "population": 475798
  },
  {
    "id": "1787765",
    "nameZh": "延安市",
    "nameEn": "Yan’an",
    "country": "CN",
    "countryZh": "中国",
    "admin1": "26",
    "admin1Zh": "陕西",
    "admin1En": "Shaanxi",
    "timezone": "Asia/Shanghai",
    "lat": 36.59889,
    "lng": 109.49167,
    "population": 475234
  },
  {
    "id": "1794794",
    "nameZh": "",
    "nameEn": "Shouguang",
    "country": "CN",
    "countryZh": "中国",
    "admin1": "25",
    "admin1Zh": "山东",
    "admin1En": "Shandong",
    "timezone": "Asia/Shanghai",
    "lat": 36.88,
    "lng": 118.7375,
    "population": 473620
  },
  {
    "id": "1805680",
    "nameZh": "景德镇",
    "nameEn": "Jingdezhen",
    "country": "CN",
    "countryZh": "中国",
    "admin1": "03",
    "admin1Zh": "台北市",
    "admin1En": "Taipei",
    "timezone": "Asia/Shanghai",
    "lat": 29.2947,
    "lng": 117.20789,
    "population": 473561
  },
  {
    "id": "1809061",
    "nameZh": "椒江村",
    "nameEn": "Jiaojiang",
    "country": "CN",
    "countryZh": "中国",
    "admin1": "02",
    "admin1Zh": "高雄市",
    "admin1En": "Takao",
    "timezone": "Asia/Shanghai",
    "lat": 28.69844,
    "lng": 121.47331,
    "population": 470804
  },
  {
    "id": "1799846",
    "nameZh": "南平市",
    "nameEn": "Nanping",
    "country": "CN",
    "countryZh": "中国",
    "admin1": "07",
    "admin1Zh": "福建省",
    "admin1En": "Fujian",
    "timezone": "Asia/Shanghai",
    "lat": 26.645,
    "lng": 118.17361,
    "population": 467875
  },
  {
    "id": "2036109",
    "nameZh": "龙山",
    "nameEn": "Longshan",
    "country": "CN",
    "countryZh": "中国",
    "admin1": "05",
    "admin1Zh": "吉林",
    "admin1En": "Jilin",
    "timezone": "Asia/Shanghai",
    "lat": 42.88545,
    "lng": 125.1367,
    "population": 465249
  },
  {
    "id": "1786112",
    "nameZh": "河源市",
    "nameEn": "Heyuan",
    "country": "CN",
    "countryZh": "中国",
    "admin1": "30",
    "admin1Zh": "广东",
    "admin1En": "Guangdong",
    "timezone": "Asia/Shanghai",
    "lat": 23.73333,
    "lng": 114.68333,
    "population": 463907
  },
  {
    "id": "1792359",
    "nameZh": "黄山",
    "nameEn": "Huangshan",
    "country": "CN",
    "countryZh": "中国",
    "admin1": "01",
    "admin1Zh": "福建省",
    "admin1En": "Fukien",
    "timezone": "Asia/Shanghai",
    "lat": 29.71139,
    "lng": 118.3125,
    "population": 460786
  },
  {
    "id": "1792260",
    "nameZh": "",
    "nameEn": "Wafangdian",
    "country": "CN",
    "countryZh": "中国",
    "admin1": "19",
    "admin1Zh": "辽宁",
    "admin1En": "Liaoning",
    "timezone": "Asia/Shanghai",
    "lat": 39.61833,
    "lng": 122.00806,
    "population": 454338
  },
  {
    "id": "1675151",
    "nameZh": "新竹",
    "nameEn": "Hsinchu",
    "country": "CN",
    "countryZh": "中国",
    "admin1": "TW",
    "admin1Zh": "台湾省",
    "admin1En": "Taiwan",
    "timezone": "Asia/Taipei",
    "lat": 24.80361,
    "lng": 120.96861,
    "population": 453536
  },
  {
    "id": "1803245",
    "nameZh": "丽水",
    "nameEn": "Lishui",
    "country": "CN",
    "countryZh": "中国",
    "admin1": "02",
    "admin1Zh": "高雄市",
    "admin1En": "Takao",
    "timezone": "Asia/Shanghai",
    "lat": 28.46042,
    "lng": 119.91029,
    "population": 451418
  },
  {
    "id": "8505006",
    "nameZh": "文山市",
    "nameEn": "Wenshan City",
    "country": "CN",
    "countryZh": "中国",
    "admin1": "29",
    "admin1Zh": "云南",
    "admin1En": "Yunnan",
    "timezone": "Asia/Shanghai",
    "lat": 23.36306,
    "lng": 104.25047,
    "population": 450000
  },
  {
    "id": "2038087",
    "nameZh": "承德市",
    "nameEn": "Chengde",
    "country": "CN",
    "countryZh": "中国",
    "admin1": "10",
    "admin1Zh": "河北",
    "admin1En": "Hebei",
    "timezone": "Asia/Shanghai",
    "lat": 40.9519,
    "lng": 117.95883,
    "population": 449325
  },
  {
    "id": "1816858",
    "nameZh": "东方市",
    "nameEn": "Basuo",
    "country": "CN",
    "countryZh": "中国",
    "admin1": "31",
    "admin1Zh": "海南",
    "admin1En": "Hainan",
    "timezone": "Asia/Shanghai",
    "lat": 19.10267,
    "lng": 108.66565,
    "population": 444458
  },
  {
    "id": "1813171",
    "nameZh": "永定",
    "nameEn": "Zhangjiajie",
    "country": "CN",
    "countryZh": "中国",
    "admin1": "11",
    "admin1Zh": "湖南",
    "admin1En": "Hunan",
    "timezone": "Asia/Shanghai",
    "lat": 29.12944,
    "lng": 110.47833,
    "population": 441804
  },
  {
    "id": "2038365",
    "nameZh": "",
    "nameEn": "Bei’an",
    "country": "CN",
    "countryZh": "中国",
    "admin1": "08",
    "admin1Zh": "黑龙江",
    "admin1En": "Heilongjiang",
    "timezone": "Asia/Shanghai",
    "lat": 48.26667,
    "lng": 126.6,
    "population": 436444
  },
  {
    "id": "1818953",
    "nameZh": "深水埗区",
    "nameEn": "Sham Shui Po",
    "country": "CN",
    "countryZh": "中国",
    "admin1": "HK",
    "admin1Zh": "香港特别行政区",
    "admin1En": "Hong Kong",
    "timezone": "Asia/Hong_Kong",
    "lat": 22.33023,
    "lng": 114.15945,
    "population": 431090
  },
  {
    "id": "1806097",
    "nameZh": "宁德",
    "nameEn": "Ningde",
    "country": "CN",
    "countryZh": "中国",
    "admin1": "07",
    "admin1Zh": "福建省",
    "admin1En": "Fujian",
    "timezone": "Asia/Shanghai",
    "lat": 26.66167,
    "lng": 119.52278,
    "population": 429260
  },
  {
    "id": "1279945",
    "nameZh": "酒泉市",
    "nameEn": "Jiuquan",
    "country": "CN",
    "countryZh": "中国",
    "admin1": "15",
    "admin1Zh": "甘肃",
    "admin1En": "Gansu",
    "timezone": "Asia/Shanghai",
    "lat": 39.74318,
    "lng": 98.51736,
    "population": 428346
  },
  {
    "id": "1818304",
    "nameZh": "黄大仙",
    "nameEn": "Wong Tai Sin",
    "country": "CN",
    "countryZh": "中国",
    "admin1": "HK",
    "admin1Zh": "香港特别行政区",
    "admin1En": "Hong Kong",
    "timezone": "Asia/Hong_Kong",
    "lat": 22.35,
    "lng": 114.18333,
    "population": 425235
  },
  {
    "id": "1812749",
    "nameZh": "定西",
    "nameEn": "Dingxi",
    "country": "CN",
    "countryZh": "中国",
    "admin1": "15",
    "admin1Zh": "甘肃",
    "admin1En": "Gansu",
    "timezone": "Asia/Shanghai",
    "lat": 35.57088,
    "lng": 104.62303,
    "population": 420614
  },
  {
    "id": "1819607",
    "nameZh": "九龙城",
    "nameEn": "Kowloon City",
    "country": "CN",
    "countryZh": "中国",
    "admin1": "HK",
    "admin1Zh": "香港特别行政区",
    "admin1En": "Hong Kong",
    "timezone": "Asia/Hong_Kong",
    "lat": 22.33047,
    "lng": 114.19222,
    "population": 418732
  },
  {
    "id": "7064006",
    "nameZh": "铜官",
    "nameEn": "Tongchuan",
    "country": "CN",
    "countryZh": "中国",
    "admin1": "26",
    "admin1Zh": "陕西",
    "admin1En": "Shaanxi",
    "timezone": "Asia/Shanghai",
    "lat": 34.8988,
    "lng": 108.95056,
    "population": 417740
  },
  {
    "id": "1818506",
    "nameZh": "",
    "nameEn": "Tseung Kwan O",
    "country": "CN",
    "countryZh": "中国",
    "admin1": "HK",
    "admin1Zh": "香港特别行政区",
    "admin1En": "Hong Kong",
    "timezone": "Asia/Hong_Kong",
    "lat": 22.32789,
    "lng": 114.24992,
    "population": 412900
  },
  {
    "id": "1809152",
    "nameZh": "固原",
    "nameEn": "Guyuan",
    "country": "CN",
    "countryZh": "中国",
    "admin1": "21",
    "admin1Zh": "宁夏",
    "admin1En": "Ningxia",
    "timezone": "Asia/Shanghai",
    "lat": 36.00667,
    "lng": 106.28083,
    "population": 411854
  },
  {
    "id": "2038120",
    "nameZh": "朝阳市",
    "nameEn": "Chaoyang",
    "country": "CN",
    "countryZh": "中国",
    "admin1": "19",
    "admin1Zh": "辽宁",
    "admin1En": "Liaoning",
    "timezone": "Asia/Shanghai",
    "lat": 41.57028,
    "lng": 120.45861,
    "population": 410005
  },
  {
    "id": "1281019",
    "nameZh": "和田",
    "nameEn": "Gujangbagh",
    "country": "CN",
    "countryZh": "中国",
    "admin1": "13",
    "admin1Zh": "新疆",
    "admin1En": "Xinjiang",
    "timezone": "Asia/Urumqi",
    "lat": 37.10927,
    "lng": 79.93433,
    "population": 408894
  },
  {
    "id": "2036389",
    "nameZh": "鸡西市",
    "nameEn": "Jixi",
    "country": "CN",
    "countryZh": "中国",
    "admin1": "08",
    "admin1Zh": "黑龙江",
    "admin1En": "Heilongjiang",
    "timezone": "Asia/Shanghai",
    "lat": 45.29322,
    "lng": 130.96217,
    "population": 403759
  },
  {
    "id": "1792621",
    "nameZh": "铜陵",
    "nameEn": "Tongling",
    "country": "CN",
    "countryZh": "中国",
    "admin1": "01",
    "admin1Zh": "福建省",
    "admin1En": "Fukien",
    "timezone": "Asia/Shanghai",
    "lat": 30.95,
    "lng": 117.78333,
    "population": 402062
  },
  {
    "id": "6696918",
    "nameZh": "",
    "nameEn": "Taoyuan City",
    "country": "CN",
    "countryZh": "中国",
    "admin1": "TW",
    "admin1Zh": "台湾省",
    "admin1En": "Taiwan",
    "timezone": "Asia/Taipei",
    "lat": 24.99368,
    "lng": 121.29696,
    "population": 402014
  },
  {
    "id": "1810458",
    "nameZh": "",
    "nameEn": "Gaomi",
    "country": "CN",
    "countryZh": "中国",
    "admin1": "25",
    "admin1Zh": "山东",
    "admin1En": "Shandong",
    "timezone": "Asia/Shanghai",
    "lat": 36.38333,
    "lng": 119.75278,
    "population": 391986
  },
  {
    "id": "12159964",
    "nameZh": "崇左",
    "nameEn": "Chongzuo",
    "country": "CN",
    "countryZh": "中国",
    "admin1": "16",
    "admin1Zh": "广西",
    "admin1En": "Guangxi",
    "timezone": "Asia/Shanghai",
    "lat": 22.38161,
    "lng": 107.3683,
    "population": 384905
  },
  {
    "id": "1913154",
    "nameZh": "坦洲",
    "nameEn": "Tanzhou",
    "country": "CN",
    "countryZh": "中国",
    "admin1": "30",
    "admin1Zh": "广东",
    "admin1En": "Guangdong",
    "timezone": "Asia/Shanghai",
    "lat": 22.25503,
    "lng": 113.46692,
    "population": 382445
  },
  {
    "id": "1808212",
    "nameZh": "合川",
    "nameEn": "Hechuan",
    "country": "CN",
    "countryZh": "中国",
    "admin1": "33",
    "admin1Zh": "重庆市",
    "admin1En": "Chongqing",
    "timezone": "Asia/Shanghai",
    "lat": 29.99228,
    "lng": 106.26461,
    "population": 377213
  },
  {
    "id": "2033574",
    "nameZh": "宣化",
    "nameEn": "Xuanhua",
    "country": "CN",
    "countryZh": "中国",
    "admin1": "10",
    "admin1Zh": "河北",
    "admin1En": "Hebei",
    "timezone": "Asia/Shanghai",
    "lat": 40.61205,
    "lng": 115.06463,
    "population": 373422
  },
  {
    "id": "7304020",
    "nameZh": "",
    "nameEn": "Fenghuang",
    "country": "CN",
    "countryZh": "中国",
    "admin1": "11",
    "admin1Zh": "湖南",
    "admin1En": "Hunan",
    "timezone": "Asia/Shanghai",
    "lat": 27.93557,
    "lng": 109.59961,
    "population": 370000
  },
  {
    "id": "8537264",
    "nameZh": "黄冈市",
    "nameEn": "Huanggang",
    "country": "CN",
    "countryZh": "中国",
    "admin1": "12",
    "admin1Zh": "湖北",
    "admin1En": "Hubei",
    "timezone": "Asia/Shanghai",
    "lat": 30.45143,
    "lng": 114.87035,
    "population": 366769
  },
  {
    "id": "1817990",
    "nameZh": "",
    "nameEn": "Anqiu",
    "country": "CN",
    "countryZh": "中国",
    "admin1": "25",
    "admin1Zh": "山东",
    "admin1En": "Shandong",
    "timezone": "Asia/Shanghai",
    "lat": 36.43417,
    "lng": 119.1925,
    "population": 364208
  },
  {
    "id": "1678228",
    "nameZh": "基隆",
    "nameEn": "Keelung",
    "country": "CN",
    "countryZh": "中国",
    "admin1": "TW",
    "admin1Zh": "台湾省",
    "admin1En": "Taiwan",
    "timezone": "Asia/Taipei",
    "lat": 25.13089,
    "lng": 121.74094,
    "population": 362487
  },
  {
    "id": "1805029",
    "nameZh": "冀州",
    "nameEn": "Jizhou",
    "country": "CN",
    "countryZh": "中国",
    "admin1": "10",
    "admin1Zh": "河北",
    "admin1En": "Hebei",
    "timezone": "Asia/Shanghai",
    "lat": 37.55054,
    "lng": 115.56871,
    "population": 362013
  },
  {
    "id": "11694038",
    "nameZh": "霍城县",
    "nameEn": "Huocheng",
    "country": "CN",
    "countryZh": "中国",
    "admin1": "13",
    "admin1Zh": "新疆",
    "admin1En": "Xinjiang",
    "timezone": "Asia/Urumqi",
    "lat": 44.05305,
    "lng": 80.87173,
    "population": 360000
  },
  {
    "id": "1673816",
    "nameZh": "凤山区",
    "nameEn": "Fengshan",
    "country": "CN",
    "countryZh": "中国",
    "admin1": "TW",
    "admin1Zh": "台湾省",
    "admin1En": "Taiwan",
    "timezone": "Asia/Taipei",
    "lat": 22.62659,
    "lng": 120.36126,
    "population": 356463
  },
  {
    "id": "8067345",
    "nameZh": "山南市",
    "nameEn": "Lhoka",
    "country": "CN",
    "countryZh": "中国",
    "admin1": "14",
    "admin1Zh": "西藏自治区",
    "admin1En": "Tibet",
    "timezone": "Asia/Shanghai",
    "lat": 29.24301,
    "lng": 91.77239,
    "population": 353700
  },
  {
    "id": "1798900",
    "nameZh": "",
    "nameEn": "Pengze",
    "country": "CN",
    "countryZh": "中国",
    "admin1": "03",
    "admin1Zh": "台北市",
    "admin1En": "Taipei",
    "timezone": "Asia/Shanghai",
    "lat": 29.89885,
    "lng": 116.54572,
    "population": 350000
  },
  {
    "id": "8054802",
    "nameZh": "锡林浩特",
    "nameEn": "Xilinhot",
    "country": "CN",
    "countryZh": "中国",
    "admin1": "20",
    "admin1Zh": "内蒙古",
    "admin1En": "Inner Mongolia",
    "timezone": "Asia/Shanghai",
    "lat": 43.93889,
    "lng": 116.07021,
    "population": 349953
  },
  {
    "id": "12548253",
    "nameZh": "呼伦贝尔市",
    "nameEn": "Hulunbuir",
    "country": "CN",
    "countryZh": "中国",
    "admin1": "20",
    "admin1Zh": "内蒙古",
    "admin1En": "Inner Mongolia",
    "timezone": "Asia/Shanghai",
    "lat": 49.21141,
    "lng": 119.75582,
    "population": 349400
  },
  {
    "id": "1813206",
    "nameZh": "",
    "nameEn": "Daye",
    "country": "CN",
    "countryZh": "中国",
    "admin1": "12",
    "admin1Zh": "湖北",
    "admin1En": "Hubei",
    "timezone": "Asia/Shanghai",
    "lat": 30.08333,
    "lng": 114.95,
    "population": 347406
  },
  {
    "id": "2038067",
    "nameZh": "赤峰",
    "nameEn": "Chifeng",
    "country": "CN",
    "countryZh": "中国",
    "admin1": "20",
    "admin1Zh": "内蒙古",
    "admin1En": "Inner Mongolia",
    "timezone": "Asia/Shanghai",
    "lat": 42.26833,
    "lng": 118.96361,
    "population": 346654
  },